{
"type": "FeatureCollection",
"crs": { "type": "name", "properties": { "name": "urn:ogc:def:crs:OGC:1.3:CRS84" } },
"features": [
{ "type": "Feature", "properties": { "分類": "紅區", "分隊名稱": "城中分隊", "巷道名稱": "齊東街82巷", "寬度(公尺)": 2.9, "地址": "台北市中正區 齊東街82巷", "TOWN_NAME": "中正區", "SEC_NAME": "東門地區", "困難類別": "狹小巷道" }, "geometry": { "type": "Point", "coordinates": [ 121.528151, 25.0421882 ] } },
{ "type": "Feature", "properties": { "分類": "紅區", "分隊名稱": "城中分隊", "巷道名稱": "信義路2段161巷2弄", "寬度(公尺)": 3.6, "地址": "台北市中正區 信義路2段161巷2弄", "TOWN_NAME": "中正區", "SEC_NAME": "東門地區", "困難類別": "狹小巷道" }, "geometry": { "type": "Point", "coordinates": [ 121.5278504, 25.0344898 ] } },
{ "type": "Feature", "properties": { "分類": "紅區", "分隊名稱": "城中分隊", "巷道名稱": "仁愛路2段15巷", "寬度(公尺)": 3.8, "地址": "台北市中正區 仁愛路2段15巷", "TOWN_NAME": "中正區", "SEC_NAME": "東門地區", "困難類別": "狹小巷道" }, "geometry": { "type": "Point", "coordinates": [ 121.5256181, 25.0389865 ] } },
{ "type": "Feature", "properties": { "分類": "紅區", "分隊名稱": "城中分隊", "巷道名稱": "仁愛路2段92巷6弄", "寬度(公尺)": 5.0, "地址": "台北市中正區 仁愛路2段92巷6弄", "TOWN_NAME": "中正區", "SEC_NAME": "東門地區", "困難類別": "狹小巷道" }, "geometry": { "type": "Point", "coordinates": [ 121.5308354, 25.0377042 ] } },
{ "type": "Feature", "properties": { "分類": "黃區", "分隊名稱": "城中分隊", "巷道名稱": "臨沂街59巷", "寬度(公尺)": 5.4, "地址": "台北市中正區 臨沂街59巷", "TOWN_NAME": "中正區", "SEC_NAME": "東門地區", "困難類別": "狹小巷道" }, "geometry": { "type": "Point", "coordinates": [ 121.530446, 25.0367507 ] } },
{ "type": "Feature", "properties": { "分類": "黃區", "分隊名稱": "城中分隊", "巷道名稱": "林森南路99巷", "寬度(公尺)": 4.2, "地址": "台北市中正區 林森南路99巷", "TOWN_NAME": "中正區", "SEC_NAME": "東門地區", "困難類別": "狹小巷道" }, "geometry": { "type": "Point", "coordinates": [ 121.5222397, 25.0377541 ] } },
{ "type": "Feature", "properties": { "分類": "黃區", "分隊名稱": "城中分隊", "巷道名稱": "連雲街26巷", "寬度(公尺)": 4.3, "地址": "台北市中正區 連雲街26巷", "TOWN_NAME": "中正區", "SEC_NAME": "東門地區", "困難類別": "狹小巷道" }, "geometry": { "type": "Point", "coordinates": [ 121.5308659, 25.0369403 ] } },
{ "type": "Feature", "properties": { "分類": "紅區", "分隊名稱": "城中分隊", "巷道名稱": "忠孝西路1段29巷", "寬度(公尺)": 3.0, "地址": "台北市中正區 忠孝西路1段29巷", "TOWN_NAME": "中正區", "SEC_NAME": "城內地區", "困難類別": "狹小巷道" }, "geometry": { "type": "Point", "coordinates": [ 121.5189217, 25.0463764 ] } },
{ "type": "Feature", "properties": { "分類": "紅區", "分隊名稱": "城中分隊", "巷道名稱": "中山北路1段8巷", "寬度(公尺)": 2.8, "地址": "台北市中正區 中山北路1段8巷", "TOWN_NAME": "中正區", "SEC_NAME": "城內地區", "困難類別": "狹小巷道" }, "geometry": { "type": "Point", "coordinates": [ 121.519302, 25.0464366 ] } },
{ "type": "Feature", "properties": { "分類": "紅區", "分隊名稱": "城中分隊", "巷道名稱": "中山北路1段26巷", "寬度(公尺)": 2.6, "地址": "台北市中正區 中山北路1段26巷", "TOWN_NAME": "中正區", "SEC_NAME": "城內地區", "困難類別": "狹小巷道" }, "geometry": { "type": "Point", "coordinates": [ 121.5196493, 25.0467877 ] } },
{ "type": "Feature", "properties": { "分類": "紅區", "分隊名稱": "城中分隊", "巷道名稱": "公園路11巷", "寬度(公尺)": 3.4, "地址": "台北市中正區 公園路11巷", "TOWN_NAME": "中正區", "SEC_NAME": "城內地區", "困難類別": "狹小巷道" }, "geometry": { "type": "Point", "coordinates": [ 121.517722, 25.0456107 ] } },
{ "type": "Feature", "properties": { "分類": "紅區", "分隊名稱": "城中分隊", "巷道名稱": "重慶南路1段5巷", "寬度(公尺)": 3.8, "地址": "台北市中正區 重慶南路1段5巷", "TOWN_NAME": "中正區", "SEC_NAME": "城內地區", "困難類別": "狹小巷道" }, "geometry": { "type": "Point", "coordinates": [ 121.5134282, 25.0464631 ] } },
{ "type": "Feature", "properties": { "分類": "紅區", "分隊名稱": "城中分隊", "巷道名稱": "懷寧街108巷", "寬度(公尺)": 3.6, "地址": "台北市中正區 懷寧街108巷", "TOWN_NAME": "中正區", "SEC_NAME": "城內地區", "困難類別": "狹小巷道" }, "geometry": { "type": "Point", "coordinates": [ 121.5135722, 25.0416174 ] } },
{ "type": "Feature", "properties": { "分類": "黃區", "分隊名稱": "城中分隊", "巷道名稱": "重慶南路1段118巷", "寬度(公尺)": 4.4, "地址": "台北市中正區 重慶南路1段118巷", "TOWN_NAME": "中正區", "SEC_NAME": "城內地區", "困難類別": "狹小巷道" }, "geometry": { "type": "Point", "coordinates": [ 121.5127262, 25.0418533 ] } },
{ "type": "Feature", "properties": { "分類": "黃區", "分隊名稱": "城中分隊", "巷道名稱": "延平南路133巷", "寬度(公尺)": 4.9, "地址": "台北市中正區 延平南路133巷", "TOWN_NAME": "中正區", "SEC_NAME": "城內地區", "困難類別": "狹小巷道" }, "geometry": { "type": "Point", "coordinates": [ 121.508906, 25.0378402 ] } },
{ "type": "Feature", "properties": { "分類": "紅區", "分隊名稱": "城中分隊", "巷道名稱": "武昌街1段16巷", "寬度(公尺)": 2.6, "地址": "台北市中正區 武昌街1段16巷", "TOWN_NAME": "中正區", "SEC_NAME": "城內地區", "困難類別": "狹小巷道" }, "geometry": { "type": "Point", "coordinates": [ 121.5125689, 25.0435388 ] } },
{ "type": "Feature", "properties": { "分類": "紅區", "分隊名稱": "泉州分隊", "巷道名稱": "中華路2段81巷6至44號", "寬度(公尺)": 3.8, "地址": "台北市中正區 中華路2段81巷6至44號", "TOWN_NAME": "中正區", "SEC_NAME": "南門地區", "困難類別": "狹小巷道" }, "geometry": { "type": "Point", "coordinates": [ 121.5058634, 25.0338938 ] } },
{ "type": "Feature", "properties": { "分類": "紅區", "分隊名稱": "泉州分隊", "巷道名稱": "博愛路230巷2至6號", "寬度(公尺)": 4.0, "地址": "台北市中正區 博愛路230巷2至6號", "TOWN_NAME": "中正區", "SEC_NAME": "南門地區", "困難類別": "狹小巷道" }, "geometry": { "type": "Point", "coordinates": [ 121.5097981, 25.0335614 ] } },
{ "type": "Feature", "properties": { "分類": "紅區", "分隊名稱": "泉州分隊", "巷道名稱": "寧波西街40巷", "寬度(公尺)": 3.4, "地址": "台北市中正區 寧波西街40巷", "TOWN_NAME": "中正區", "SEC_NAME": "南門地區", "困難類別": "狹小巷道" }, "geometry": { "type": "Point", "coordinates": [ 121.518321, 25.0304835 ] } },
{ "type": "Feature", "properties": { "分類": "紅區", "分隊名稱": "泉州分隊", "巷道名稱": "寧波西街22巷", "寬度(公尺)": 3.3, "地址": "台北市中正區 寧波西街22巷", "TOWN_NAME": "中正區", "SEC_NAME": "南門地區", "困難類別": "狹小巷道" }, "geometry": { "type": "Point", "coordinates": [ 121.5185324, 25.0308787 ] } },
{ "type": "Feature", "properties": { "分類": "紅區", "分隊名稱": "泉州分隊", "巷道名稱": "愛國東路74巷", "寬度(公尺)": 3.6, "地址": "台北市中正區 愛國東路74巷", "TOWN_NAME": "中正區", "SEC_NAME": "南門地區", "困難類別": "狹小巷道" }, "geometry": { "type": "Point", "coordinates": [ 121.5194971, 25.0331743 ] } },
{ "type": "Feature", "properties": { "分類": "黃區", "分隊名稱": "泉州分隊", "巷道名稱": "南昌路2段18巷連通牯嶺街89巷", "寬度(公尺)": 4.3, "地址": "台北市中正區 南昌路2段18巷連通牯嶺街89巷", "TOWN_NAME": "中正區", "SEC_NAME": "南門地區", "困難類別": "狹小巷道" }, "geometry": { "type": "Point", "coordinates": [ 121.51802, 25.027986 ] } },
{ "type": "Feature", "properties": { "分類": "紅區", "分隊名稱": "古亭分隊", "巷道名稱": "重慶南路3段65巷4弄", "寬度(公尺)": 3.6, "地址": "台北市中正區 重慶南路3段65巷4弄", "TOWN_NAME": "中正區", "SEC_NAME": "古亭地區", "困難類別": "狹小巷道" }, "geometry": { "type": "Point", "coordinates": [ 121.5164912, 25.0265087 ] } },
{ "type": "Feature", "properties": { "分類": "紅區", "分隊名稱": "古亭分隊", "巷道名稱": "重慶南路3段65巷6弄", "寬度(公尺)": 3.8, "地址": "台北市中正區 重慶南路3段65巷6弄", "TOWN_NAME": "中正區", "SEC_NAME": "古亭地區", "困難類別": "狹小巷道" }, "geometry": { "type": "Point", "coordinates": [ 121.5170264, 25.0265938 ] } },
{ "type": "Feature", "properties": { "分類": "紅區", "分隊名稱": "泉州分隊", "巷道名稱": "汀州路2段12巷", "寬度(公尺)": 3.4, "地址": "台北市中正區 汀州路2段12巷", "TOWN_NAME": "中正區", "SEC_NAME": "古亭地區", "困難類別": "狹小巷道" }, "geometry": { "type": "Point", "coordinates": [ 121.5160034, 25.0254758 ] } },
{ "type": "Feature", "properties": { "分類": "紅區", "分隊名稱": "古亭分隊", "巷道名稱": "廈門街34巷", "寬度(公尺)": 3.4, "地址": "台北市中正區 廈門街34巷", "TOWN_NAME": "中正區", "SEC_NAME": "古亭地區", "困難類別": "狹小巷道" }, "geometry": { "type": "Point", "coordinates": [ 121.5170837, 25.0259343 ] } },
{ "type": "Feature", "properties": { "分類": "紅區", "分隊名稱": "古亭分隊", "巷道名稱": "同安街72巷", "寬度(公尺)": 4.0, "地址": "台北市中正區 同安街72巷", "TOWN_NAME": "中正區", "SEC_NAME": "古亭地區", "困難類別": "狹小巷道" }, "geometry": { "type": "Point", "coordinates": [ 121.5190284, 25.022615 ] } },
{ "type": "Feature", "properties": { "分類": "黃區", "分隊名稱": "古亭分隊", "巷道名稱": "廈門街81巷", "寬度(公尺)": 4.9, "地址": "台北市中正區 廈門街81巷", "TOWN_NAME": "中正區", "SEC_NAME": "古亭地區", "困難類別": "狹小巷道" }, "geometry": { "type": "Point", "coordinates": [ 121.5195761, 25.0243713 ] } },
{ "type": "Feature", "properties": { "分類": "黃區", "分隊名稱": "古亭分隊", "巷道名稱": "廈門街71巷", "寬度(公尺)": 4.3, "地址": "台北市中正區 廈門街71巷", "TOWN_NAME": "中正區", "SEC_NAME": "古亭地區", "困難類別": "狹小巷道" }, "geometry": { "type": "Point", "coordinates": [ 121.5187715, 25.0247793 ] } },
{ "type": "Feature", "properties": { "分類": "黃區", "分隊名稱": "古亭分隊", "巷道名稱": "同安街86巷", "寬度(公尺)": 5.2, "地址": "台北市中正區 同安街86巷", "TOWN_NAME": "中正區", "SEC_NAME": "古亭地區", "困難類別": "狹小巷道" }, "geometry": { "type": "Point", "coordinates": [ 121.5196416, 25.0218878 ] } },
{ "type": "Feature", "properties": { "分類": "黃區", "分隊名稱": "古亭分隊", "巷道名稱": "廈門街99巷", "寬度(公尺)": 5.5, "地址": "台北市中正區 廈門街99巷", "TOWN_NAME": "中正區", "SEC_NAME": "古亭地區", "困難類別": "狹小巷道" }, "geometry": { "type": "Point", "coordinates": [ 121.5196574, 25.0237931 ] } },
{ "type": "Feature", "properties": { "分類": "黃區", "分隊名稱": "泉州分隊", "巷道名稱": "詔安街26巷", "寬度(公尺)": 4.2, "地址": "台北市中正區 詔安街26巷", "TOWN_NAME": "中正區", "SEC_NAME": "古亭地區", "困難類別": "狹小巷道" }, "geometry": { "type": "Point", "coordinates": [ 121.5157443, 25.02441 ] } },
{ "type": "Feature", "properties": { "分類": "紅區", "分隊名稱": "龍山分隊", "巷道名稱": "西昌街29巷1至25及2至20號", "寬度(公尺)": 3.5, "地址": "台北市萬華區 西昌街29巷1至25及2至20號", "TOWN_NAME": "萬華區", "SEC_NAME": "西門地區", "困難類別": "狹小巷道" }, "geometry": { "type": "Point", "coordinates": [ 121.5006946, 25.0426859 ] } },
{ "type": "Feature", "properties": { "分類": "紅區", "分隊名稱": "龍山分隊", "巷道名稱": "康定路46巷1至11及2至22號", "寬度(公尺)": 3.5, "地址": "台北市萬華區 康定路46巷1至11及2至22號", "TOWN_NAME": "萬華區", "SEC_NAME": "西門地區", "困難類別": "狹小巷道" }, "geometry": { "type": "Point", "coordinates": [ 121.5024035, 25.0430276 ] } },
{ "type": "Feature", "properties": { "分類": "紅區", "分隊名稱": "龍山分隊", "巷道名稱": "雅江街16至62及39至87號", "寬度(公尺)": 3.5, "地址": "台北市萬華區 雅江街16至62及39至87號", "TOWN_NAME": "萬華區", "SEC_NAME": "西門地區", "困難類別": "狹小巷道" }, "geometry": { "type": "Point", "coordinates": [ 121.5015079, 25.0426117 ] } },
{ "type": "Feature", "properties": { "分類": "紅區", "分隊名稱": "龍山分隊", "巷道名稱": "成都路27巷", "寬度(公尺)": 2.7, "地址": "台北市萬華區 成都路27巷", "TOWN_NAME": "萬華區", "SEC_NAME": "西門地區", "困難類別": "狹小巷道" }, "geometry": { "type": "Point", "coordinates": [ 121.5068303, 25.0430556 ] } },
{ "type": "Feature", "properties": { "分類": "紅區", "分隊名稱": "龍山分隊", "巷道名稱": "成都路105巷1至15及2至16號", "寬度(公尺)": 3.3, "地址": "台北市萬華區 成都路105巷1至15及2至16號", "TOWN_NAME": "萬華區", "SEC_NAME": "西門地區", "困難類別": "狹小巷道" }, "geometry": { "type": "Point", "coordinates": [ 121.504387, 25.043451 ] } },
{ "type": "Feature", "properties": { "分類": "紅區", "分隊名稱": "龍山分隊", "巷道名稱": "中華路1段114巷2至18及5至23號", "寬度(公尺)": 3.0, "地址": "台北市萬華區 中華路1段114巷2至18及5至23號", "TOWN_NAME": "萬華區", "SEC_NAME": "西門地區", "困難類別": "狹小巷道" }, "geometry": { "type": "Point", "coordinates": [ 121.5083367, 25.0437367 ] } },
{ "type": "Feature", "properties": { "分類": "紅區", "分隊名稱": "龍山分隊", "巷道名稱": "漢口街2段109巷2至24及7至21-2號", "寬度(公尺)": 4.0, "地址": "台北市萬華區 漢口街2段109巷2至24及7至21-2號", "TOWN_NAME": "萬華區", "SEC_NAME": "西門地區", "困難類別": "狹小巷道" }, "geometry": { "type": "Point", "coordinates": [ 121.5049774, 25.046557 ] } },
{ "type": "Feature", "properties": { "分類": "紅區", "分隊名稱": "龍山分隊", "巷道名稱": "康定路25巷1至43及2至42號", "寬度(公尺)": 3.8, "地址": "台北市萬華區 康定路25巷1至43及2至42號", "TOWN_NAME": "萬華區", "SEC_NAME": "西門地區", "困難類別": "狹小巷道" }, "geometry": { "type": "Point", "coordinates": [ 121.5027327, 25.0440444 ] } },
{ "type": "Feature", "properties": { "分類": "紅區", "分隊名稱": "龍山分隊", "巷道名稱": "峨眉街125巷", "寬度(公尺)": 3.0, "地址": "台北市萬華區 峨眉街125巷", "TOWN_NAME": "萬華區", "SEC_NAME": "西門地區", "困難類別": "狹小巷道" }, "geometry": { "type": "Point", "coordinates": [ 121.5025727, 25.0453137 ] } },
{ "type": "Feature", "properties": { "分類": "紅區", "分隊名稱": "龍山分隊", "巷道名稱": "西昌街33至63號", "寬度(公尺)": 4.0, "地址": "台北市萬華區 西昌街33至63號", "TOWN_NAME": "萬華區", "SEC_NAME": "西門地區", "困難類別": "狹小巷道" }, "geometry": { "type": "Point", "coordinates": [ 121.500722, 25.042607 ] } },
{ "type": "Feature", "properties": { "分類": "紅區", "分隊名稱": "龍山分隊", "巷道名稱": "內江街126巷", "寬度(公尺)": 3.0, "地址": "台北市萬華區 內江街126巷", "TOWN_NAME": "萬華區", "SEC_NAME": "西門地區", "困難類別": "狹小巷道" }, "geometry": { "type": "Point", "coordinates": [ 121.5031446, 25.0412592 ] } },
{ "type": "Feature", "properties": { "分類": "紅區", "分隊名稱": "龍山分隊", "巷道名稱": "漢口街2段109巷7-17及4-16號", "寬度(公尺)": 3.0, "地址": "台北市萬華區 漢口街2段109巷7-17及4-16號", "TOWN_NAME": "萬華區", "SEC_NAME": "西門地區", "困難類別": "狹小巷道" }, "geometry": { "type": "Point", "coordinates": [ 121.5045372, 25.0468256 ] } },
{ "type": "Feature", "properties": { "分類": "紅區", "分隊名稱": "龍山分隊", "巷道名稱": "中華路1段76巷", "寬度(公尺)": 3.3, "地址": "台北市萬華區 中華路1段76巷", "TOWN_NAME": "萬華區", "SEC_NAME": "西門地區", "困難類別": "狹小巷道" }, "geometry": { "type": "Point", "coordinates": [ 121.508381, 25.0457373 ] } },
{ "type": "Feature", "properties": { "分類": "黃區", "分隊名稱": "龍山分隊", "巷道名稱": "漢口街2段74巷", "寬度(公尺)": 4.1, "地址": "台北市萬華區 漢口街2段74巷", "TOWN_NAME": "萬華區", "SEC_NAME": "西門地區", "困難類別": "狹小巷道" }, "geometry": { "type": "Point", "coordinates": [ 121.5046518, 25.0457217 ] } },
{ "type": "Feature", "properties": { "分類": "黃區", "分隊名稱": "龍山分隊", "巷道名稱": "昆明街96巷", "寬度(公尺)": 4.0, "地址": "台北市萬華區 昆明街96巷", "TOWN_NAME": "萬華區", "SEC_NAME": "西門地區", "困難類別": "狹小巷道" }, "geometry": { "type": "Point", "coordinates": [ 121.5046257, 25.044808 ] } },
{ "type": "Feature", "properties": { "分類": "黃區", "分隊名稱": "龍山分隊", "巷道名稱": "隆昌街（西寧南路至昆明街）", "寬度(公尺)": 4.1, "地址": "台北市萬華區 隆昌街（西寧南路至昆明街）", "TOWN_NAME": "萬華區", "SEC_NAME": "西門地區", "困難類別": "狹小巷道" }, "geometry": { "type": "Point", "coordinates": [ 121.5047608, 25.0422992 ] } },
{ "type": "Feature", "properties": { "分類": "紅區", "分隊名稱": "龍山分隊", "巷道名稱": "永福街49巷4至12號", "寬度(公尺)": 2.5, "地址": "台北市萬華區 永福街49巷4至12號", "TOWN_NAME": "萬華區", "SEC_NAME": "龍山地區", "困難類別": "狹小巷道" }, "geometry": { "type": "Point", "coordinates": [ 121.5045642, 25.0384706 ] } },
{ "type": "Feature", "properties": { "分類": "紅區", "分隊名稱": "龍山分隊", "巷道名稱": "貴陽街2段114巷3至27及4至28號", "寬度(公尺)": 4.0, "地址": "台北市萬華區 貴陽街2段114巷3至27及4至28號", "TOWN_NAME": "萬華區", "SEC_NAME": "龍山地區", "困難類別": "狹小巷道" }, "geometry": { "type": "Point", "coordinates": [ 121.5026706, 25.0397122 ] } },
{ "type": "Feature", "properties": { "分類": "紅區", "分隊名稱": "龍山分隊", "巷道名稱": "昆明街320巷2弄1號至11號及4至6號", "寬度(公尺)": 2.5, "地址": "台北市萬華區 昆明街320巷2弄1號至11號及4至6號", "TOWN_NAME": "萬華區", "SEC_NAME": "龍山地區", "困難類別": "狹小巷道" }, "geometry": { "type": "Point", "coordinates": [ 121.5031715, 25.0355095 ] } },
{ "type": "Feature", "properties": { "分類": "紅區", "分隊名稱": "龍山分隊", "巷道名稱": "昆明街201巷", "寬度(公尺)": 3.0, "地址": "台北市萬華區 昆明街201巷", "TOWN_NAME": "萬華區", "SEC_NAME": "龍山地區", "困難類別": "狹小巷道" }, "geometry": { "type": "Point", "coordinates": [ 121.5046921, 25.0389461 ] } },
{ "type": "Feature", "properties": { "分類": "紅區", "分隊名稱": "龍山分隊", "巷道名稱": "康定路278巷(從西昌街進入至9、10號)", "寬度(公尺)": 4.0, "地址": "台北市萬華區 康定路278巷(從西昌街進入至9、10號)", "TOWN_NAME": "萬華區", "SEC_NAME": "龍山地區", "困難類別": "狹小巷道" }, "geometry": { "type": "Point", "coordinates": [ 121.5014269, 25.0369503 ] } },
{ "type": "Feature", "properties": { "分類": "黃區", "分隊名稱": "龍山分隊", "巷道名稱": "南寧路48巷", "寬度(公尺)": 4.1, "地址": "台北市萬華區 南寧路48巷", "TOWN_NAME": "萬華區", "SEC_NAME": "龍山地區", "困難類別": "狹小巷道" }, "geometry": { "type": "Point", "coordinates": [ 121.5047943, 25.0350138 ] } },
{ "type": "Feature", "properties": { "分類": "紅區", "分隊名稱": "雙園分隊", "巷道名稱": "西園路1段256巷", "寬度(公尺)": 3.1, "地址": "台北市萬華區 西園路1段256巷", "TOWN_NAME": "萬華區", "SEC_NAME": "大理地區", "困難類別": "狹小巷道" }, "geometry": { "type": "Point", "coordinates": [ 121.4978821, 25.0338475 ] } },
{ "type": "Feature", "properties": { "分類": "紅區", "分隊名稱": "雙園分隊", "巷道名稱": "艋舺大道86巷", "寬度(公尺)": 3.0, "地址": "台北市萬華區 艋舺大道86巷", "TOWN_NAME": "萬華區", "SEC_NAME": "大理地區", "困難類別": "狹小巷道" }, "geometry": { "type": "Point", "coordinates": [ 121.5031515, 25.0330265 ] } },
{ "type": "Feature", "properties": { "分類": "紅區", "分隊名稱": "雙園分隊", "巷道名稱": "中華路2段44巷", "寬度(公尺)": 3.7, "地址": "台北市萬華區 中華路2段44巷", "TOWN_NAME": "萬華區", "SEC_NAME": "大理地區", "困難類別": "狹小巷道" }, "geometry": { "type": "Point", "coordinates": [ 121.5045171, 25.0327657 ] } },
{ "type": "Feature", "properties": { "分類": "紅區", "分隊名稱": "雙園分隊", "巷道名稱": "大理街130巷", "寬度(公尺)": 3.6, "地址": "台北市萬華區 大理街130巷", "TOWN_NAME": "萬華區", "SEC_NAME": "大理地區", "困難類別": "狹小巷道" }, "geometry": { "type": "Point", "coordinates": [ 121.4968166, 25.0336818 ] } },
{ "type": "Feature", "properties": { "分類": "紅區", "分隊名稱": "雙園分隊", "巷道名稱": "德昌街147巷", "寬度(公尺)": 4.0, "地址": "台北市萬華區 德昌街147巷", "TOWN_NAME": "萬華區", "SEC_NAME": "東園地區", "困難類別": "狹小巷道" }, "geometry": { "type": "Point", "coordinates": [ 121.4959211, 25.0233168 ] } },
{ "type": "Feature", "properties": { "分類": "紅區", "分隊名稱": "雙園分隊", "巷道名稱": "長泰街73巷", "寬度(公尺)": 3.0, "地址": "台北市萬華區 長泰街73巷", "TOWN_NAME": "萬華區", "SEC_NAME": "東園地區", "困難類別": "狹小巷道" }, "geometry": { "type": "Point", "coordinates": [ 121.5000511, 25.0224191 ] } },
{ "type": "Feature", "properties": { "分類": "紅區", "分隊名稱": "雙園分隊", "巷道名稱": "長泰街316巷", "寬度(公尺)": 2.9, "地址": "台北市萬華區 長泰街316巷", "TOWN_NAME": "萬華區", "SEC_NAME": "東園地區", "困難類別": "狹小巷道" }, "geometry": { "type": "Point", "coordinates": [ 121.4925559, 25.021296 ] } },
{ "type": "Feature", "properties": { "分類": "紅區", "分隊名稱": "雙園分隊", "巷道名稱": "東園街160巷", "寬度(公尺)": 3.8, "地址": "台北市萬華區 東園街160巷", "TOWN_NAME": "萬華區", "SEC_NAME": "東園地區", "困難類別": "狹小巷道" }, "geometry": { "type": "Point", "coordinates": [ 121.4975423, 25.0224801 ] } },
{ "type": "Feature", "properties": { "分類": "黃區", "分隊名稱": "木柵分隊", "巷道名稱": "秀明路1段79巷1弄", "寬度(公尺)": 4.2, "地址": "台北市文山區 秀明路1段79巷1弄", "TOWN_NAME": "文山區", "SEC_NAME": "木柵地區", "困難類別": "狹小巷道" }, "geometry": { "type": "Point", "coordinates": [ 121.5652671, 24.9902905 ] } },
{ "type": "Feature", "properties": { "分類": "紅區", "分隊名稱": "木柵分隊", "巷道名稱": "木新路3段74巷", "寬度(公尺)": 4.0, "地址": "台北市文山區 木新路3段74巷", "TOWN_NAME": "文山區", "SEC_NAME": "木柵地區", "困難類別": "狹小巷道" }, "geometry": { "type": "Point", "coordinates": [ 121.5631037, 24.9835455 ] } },
{ "type": "Feature", "properties": { "分類": "紅區", "分隊名稱": "木柵分隊", "巷道名稱": "集英街", "寬度(公尺)": 3.5, "地址": "台北市文山區 集英街", "TOWN_NAME": "文山區", "SEC_NAME": "木柵地區", "困難類別": "狹小巷道" }, "geometry": { "type": "Point", "coordinates": [ 121.5693966, 24.9884159 ] } },
{ "type": "Feature", "properties": { "分類": "紅區", "分隊名稱": "木柵分隊", "巷道名稱": "木柵路3段85巷4、6號及木柵路3段81、83號", "寬度(公尺)": 3.0, "地址": "台北市文山區 木柵路3段85巷4、6號及木柵路3段81、83號", "TOWN_NAME": "文山區", "SEC_NAME": "木柵地區", "困難類別": "狹小巷道" }, "geometry": { "type": "Point", "coordinates": [ 121.5675315, 24.9892611 ] } },
{ "type": "Feature", "properties": { "分類": "紅區", "分隊名稱": "木柵分隊", "巷道名稱": "指南路1段96巷", "寬度(公尺)": 3.2, "地址": "台北市文山區 指南路1段96巷", "TOWN_NAME": "文山區", "SEC_NAME": "木柵地區", "困難類別": "狹小巷道" }, "geometry": { "type": "Point", "coordinates": [ 121.5713352, 24.9872948 ] } },
{ "type": "Feature", "properties": { "分類": "紅區", "分隊名稱": "寶橋分隊", "巷道名稱": "辛亥路7段20巷", "寬度(公尺)": 2.6, "地址": "台北市文山區 辛亥路7段20巷", "TOWN_NAME": "文山區", "SEC_NAME": "木柵地區", "困難類別": "狹小巷道" }, "geometry": { "type": "Point", "coordinates": [ 121.5538592, 24.9866549 ] } },
{ "type": "Feature", "properties": { "分類": "黃區", "分隊名稱": "木柵分隊", "巷道名稱": "開元街", "寬度(公尺)": 4.8, "地址": "台北市文山區 開元街", "TOWN_NAME": "文山區", "SEC_NAME": "木柵地區", "困難類別": "狹小巷道" }, "geometry": { "type": "Point", "coordinates": [ 121.5694272, 24.9890415 ] } },
{ "type": "Feature", "properties": { "分類": "黃區", "分隊名稱": "寶橋分隊", "巷道名稱": "忠順街1段121巷3弄", "寬度(公尺)": 4.5, "地址": "台北市文山區 忠順街1段121巷3弄", "TOWN_NAME": "文山區", "SEC_NAME": "木柵地區", "困難類別": "狹小巷道" }, "geometry": { "type": "Point", "coordinates": [ 121.5594728, 24.9844551 ] } },
{ "type": "Feature", "properties": { "分類": "黃區", "分隊名稱": "寶橋分隊", "巷道名稱": "忠順街1段41巷3弄", "寬度(公尺)": 4.5, "地址": "台北市文山區 忠順街1段41巷3弄", "TOWN_NAME": "文山區", "SEC_NAME": "木柵地區", "困難類別": "狹小巷道" }, "geometry": { "type": "Point", "coordinates": [ 121.5580685, 24.9842121 ] } },
{ "type": "Feature", "properties": { "分類": "黃區", "分隊名稱": "寶橋分隊", "巷道名稱": "興隆路4段8巷", "寬度(公尺)": 4.7, "地址": "台北市文山區 興隆路4段8巷", "TOWN_NAME": "文山區", "SEC_NAME": "木柵地區", "困難類別": "狹小巷道" }, "geometry": { "type": "Point", "coordinates": [ 121.5592232, 24.9893405 ] } },
{ "type": "Feature", "properties": { "分類": "紅區", "分隊名稱": "寶橋分隊", "巷道名稱": "木柵路1段191巷(13、14、15及16號)", "寬度(公尺)": 3.2, "地址": "台北市文山區 木柵路1段191巷(13、14、15及16號)", "TOWN_NAME": "文山區", "SEC_NAME": "木柵地區", "困難類別": "狹小巷道" }, "geometry": { "type": "Point", "coordinates": [ 121.5512793, 24.988361 ] } },
{ "type": "Feature", "properties": { "分類": "黃區", "分隊名稱": "木柵分隊", "巷道名稱": "新光路1段32巷4弄", "寬度(公尺)": 4.4, "地址": "台北市文山區 新光路1段32巷4弄", "TOWN_NAME": "文山區", "SEC_NAME": "二格山地區", "困難類別": "狹小巷道" }, "geometry": { "type": "Point", "coordinates": [ 121.5731727, 24.9900789 ] } },
{ "type": "Feature", "properties": { "分類": "紅區", "分隊名稱": "木柵分隊", "巷道名稱": "秀明路2段112巷1弄", "寬度(公尺)": 3.7, "地址": "台北市文山區 秀明路2段112巷1弄", "TOWN_NAME": "文山區", "SEC_NAME": "二格山地區", "困難類別": "狹小巷道" }, "geometry": { "type": "Point", "coordinates": [ 121.5758758, 24.9895331 ] } },
{ "type": "Feature", "properties": { "分類": "紅區", "分隊名稱": "雙園分隊", "巷道名稱": "德昌街185巷2號至10號", "寬度(公尺)": 4.0, "地址": "台北市萬華區 德昌街185巷2號至10號", "TOWN_NAME": "萬華區", "SEC_NAME": "西園地區", "困難類別": "狹小巷道" }, "geometry": { "type": "Point", "coordinates": [ 121.4933101, 25.0224248 ] } },
{ "type": "Feature", "properties": { "分類": "紅區", "分隊名稱": "雙園分隊", "巷道名稱": "西藏路259巷", "寬度(公尺)": 4.0, "地址": "台北市萬華區 西藏路259巷", "TOWN_NAME": "萬華區", "SEC_NAME": "西園地區", "困難類別": "狹小巷道" }, "geometry": { "type": "Point", "coordinates": [ 121.4940537, 25.0279363 ] } },
{ "type": "Feature", "properties": { "分類": "紅區", "分隊名稱": "雙園分隊", "巷道名稱": "寶興街188巷", "寬度(公尺)": 3.3, "地址": "台北市萬華區 寶興街188巷", "TOWN_NAME": "萬華區", "SEC_NAME": "西園地區", "困難類別": "狹小巷道" }, "geometry": { "type": "Point", "coordinates": [ 121.4950209, 25.0232175 ] } },
{ "type": "Feature", "properties": { "分類": "紅區", "分隊名稱": "雙園分隊", "巷道名稱": "東園街73巷76弄", "寬度(公尺)": 3.3, "地址": "台北市萬華區 東園街73巷76弄", "TOWN_NAME": "萬華區", "SEC_NAME": "西園地區", "困難類別": "狹小巷道" }, "geometry": { "type": "Point", "coordinates": [ 121.498714, 25.0262655 ] } },
{ "type": "Feature", "properties": { "分類": "紅區", "分隊名稱": "木柵分隊", "巷道名稱": "興隆路3段229巷", "寬度(公尺)": 3.0, "地址": "台北市文山區 興隆路3段229巷", "TOWN_NAME": "文山區", "SEC_NAME": "興隆地區", "困難類別": "狹小巷道" }, "geometry": { "type": "Point", "coordinates": [ 121.5593452, 24.9933889 ] } },
{ "type": "Feature", "properties": { "分類": "紅區", "分隊名稱": "寶僑分隊", "巷道名稱": "景興路53巷5至17號", "寬度(公尺)": 3.3, "地址": "台北市文山區 景興路53巷5至17號", "TOWN_NAME": "文山區", "SEC_NAME": "興隆地區", "困難類別": "狹小巷道" }, "geometry": { "type": "Point", "coordinates": [ 121.544844, 24.9967212 ] } },
{ "type": "Feature", "properties": { "分類": "紅區", "分隊名稱": "萬芳分隊", "巷道名稱": "興隆路3段206巷", "寬度(公尺)": 3.0, "地址": "台北市文山區 興隆路3段206巷", "TOWN_NAME": "文山區", "SEC_NAME": "興隆地區", "困難類別": "狹小巷道" }, "geometry": { "type": "Point", "coordinates": [ 121.5590242, 24.9975568 ] } },
{ "type": "Feature", "properties": { "分類": "黃區", "分隊名稱": "萬芳分隊", "巷道名稱": "興德路20巷", "寬度(公尺)": 4.5, "地址": "台北市文山區 興德路20巷", "TOWN_NAME": "文山區", "SEC_NAME": "興隆地區", "困難類別": "狹小巷道" }, "geometry": { "type": "Point", "coordinates": [ 121.5562235, 25.0009366 ] } },
{ "type": "Feature", "properties": { "分類": "紅區", "分隊名稱": "景美分隊", "巷道名稱": "萬盛街61至155號", "寬度(公尺)": 3.4, "地址": "台北市文山區 萬盛街61至155號", "TOWN_NAME": "文山區", "SEC_NAME": "景美地區", "困難類別": "狹小巷道" }, "geometry": { "type": "Point", "coordinates": [ 121.5422869, 25.005757 ] } },
{ "type": "Feature", "properties": { "分類": "紅區", "分隊名稱": "景美分隊", "巷道名稱": "羅斯福路5段79巷", "寬度(公尺)": 3.0, "地址": "台北市文山區 羅斯福路5段79巷", "TOWN_NAME": "文山區", "SEC_NAME": "景美地區", "困難類別": "狹小巷道" }, "geometry": { "type": "Point", "coordinates": [ 121.5393696, 25.0061963 ] } },
{ "type": "Feature", "properties": { "分類": "紅區", "分隊名稱": "景美分隊", "巷道名稱": "景興路120巷", "寬度(公尺)": 3.3, "地址": "台北市文山區 景興路120巷", "TOWN_NAME": "文山區", "SEC_NAME": "景美地區", "困難類別": "狹小巷道" }, "geometry": { "type": "Point", "coordinates": [ 121.544, 24.9934304 ] } },
{ "type": "Feature", "properties": { "分類": "紅區", "分隊名稱": "景美分隊", "巷道名稱": "育英街17巷5弄", "寬度(公尺)": 3.6, "地址": "台北市文山區 育英街17巷5弄", "TOWN_NAME": "文山區", "SEC_NAME": "景美地區", "困難類別": "狹小巷道" }, "geometry": { "type": "Point", "coordinates": [ 121.5390578, 24.9902166 ] } },
{ "type": "Feature", "properties": { "分類": "紅區", "分隊名稱": "景美分隊", "巷道名稱": "汀州路4段23巷", "寬度(公尺)": 4.0, "地址": "台北市文山區 汀州路4段23巷", "TOWN_NAME": "文山區", "SEC_NAME": "景美地區", "困難類別": "狹小巷道" }, "geometry": { "type": "Point", "coordinates": [ 121.5371663, 25.009324 ] } },
{ "type": "Feature", "properties": { "分類": "紅區", "分隊名稱": "景美分隊", "巷道名稱": "育英街17巷9弄", "寬度(公尺)": 3.5, "地址": "台北市文山區 育英街17巷9弄", "TOWN_NAME": "文山區", "SEC_NAME": "景美地區", "困難類別": "狹小巷道" }, "geometry": { "type": "Point", "coordinates": [ 121.5382895, 24.9902075 ] } },
{ "type": "Feature", "properties": { "分類": "紅區", "分隊名稱": "景美分隊", "巷道名稱": "溪口街107巷1弄", "寬度(公尺)": 3.0, "地址": "台北市文山區 溪口街107巷1弄", "TOWN_NAME": "文山區", "SEC_NAME": "景美地區", "困難類別": "狹小巷道" }, "geometry": { "type": "Point", "coordinates": [ 121.5370675, 24.9961079 ] } },
{ "type": "Feature", "properties": { "分類": "紅區", "分隊名稱": "景美分隊", "巷道名稱": "溪口街107巷4弄", "寬度(公尺)": 3.0, "地址": "台北市文山區 溪口街107巷4弄", "TOWN_NAME": "文山區", "SEC_NAME": "景美地區", "困難類別": "狹小巷道" }, "geometry": { "type": "Point", "coordinates": [ 121.5375012, 24.9958274 ] } },
{ "type": "Feature", "properties": { "分類": "紅區", "分隊名稱": "景美分隊", "巷道名稱": "溪口街66巷6弄", "寬度(公尺)": 3.8, "地址": "台北市文山區 溪口街66巷6弄", "TOWN_NAME": "文山區", "SEC_NAME": "景美地區", "困難類別": "狹小巷道" }, "geometry": { "type": "Point", "coordinates": [ 121.5392533, 24.9959275 ] } },
{ "type": "Feature", "properties": { "分類": "紅區", "分隊名稱": "景美分隊", "巷道名稱": "溪口街91巷", "寬度(公尺)": 4.0, "地址": "台北市文山區 溪口街91巷", "TOWN_NAME": "文山區", "SEC_NAME": "景美地區", "困難類別": "狹小巷道" }, "geometry": { "type": "Point", "coordinates": [ 121.5380294, 24.9955813 ] } },
{ "type": "Feature", "properties": { "分類": "紅區", "分隊名稱": "景美分隊", "巷道名稱": "羅斯福路5段53巷", "寬度(公尺)": 2.6, "地址": "台北市文山區 羅斯福路5段53巷", "TOWN_NAME": "文山區", "SEC_NAME": "景美地區", "困難類別": "狹小巷道" }, "geometry": { "type": "Point", "coordinates": [ 121.5394662, 25.0065258 ] } },
{ "type": "Feature", "properties": { "分類": "紅區", "分隊名稱": "景美分隊", "巷道名稱": "育英街57巷", "寬度(公尺)": 4.0, "地址": "台北市文山區 育英街57巷", "TOWN_NAME": "文山區", "SEC_NAME": "景美地區", "困難類別": "狹小巷道" }, "geometry": { "type": "Point", "coordinates": [ 121.5383321, 24.9920254 ] } },
{ "type": "Feature", "properties": { "分類": "紅區", "分隊名稱": "景美分隊", "巷道名稱": "羅斯福路5段92巷1弄", "寬度(公尺)": 3.7, "地址": "台北市文山區 羅斯福路5段92巷1弄", "TOWN_NAME": "文山區", "SEC_NAME": "景美地區", "困難類別": "狹小巷道" }, "geometry": { "type": "Point", "coordinates": [ 121.5385655, 25.0066641 ] } },
{ "type": "Feature", "properties": { "分類": "紅區", "分隊名稱": "景美分隊", "巷道名稱": "羅斯福路6段232巷7~18號", "寬度(公尺)": 3.6, "地址": "台北市文山區 羅斯福路6段232巷7~18號", "TOWN_NAME": "文山區", "SEC_NAME": "景美地區", "困難類別": "狹小巷道" }, "geometry": { "type": "Point", "coordinates": [ 121.5400034, 24.9928466 ] } },
{ "type": "Feature", "properties": { "分類": "紅區", "分隊名稱": "景美分隊", "巷道名稱": "車前路29巷", "寬度(公尺)": 3.7, "地址": "台北市文山區 車前路29巷", "TOWN_NAME": "文山區", "SEC_NAME": "景美地區", "困難類別": "狹小巷道" }, "geometry": { "type": "Point", "coordinates": [ 121.5402933, 24.9906765 ] } },
{ "type": "Feature", "properties": { "分類": "紅區", "分隊名稱": "安和分隊", "巷道名稱": "通化街181巷", "寬度(公尺)": 3.0, "地址": "台北市大安區 通化街181巷", "TOWN_NAME": "大安區", "SEC_NAME": "安和地區", "困難類別": "狹小巷道" }, "geometry": { "type": "Point", "coordinates": [ 121.5533569, 25.0271771 ] } },
{ "type": "Feature", "properties": { "分類": "紅區", "分隊名稱": "安和分隊", "巷道名稱": "通化街182巷", "寬度(公尺)": 3.0, "地址": "台北市大安區 通化街182巷", "TOWN_NAME": "大安區", "SEC_NAME": "安和地區", "困難類別": "狹小巷道" }, "geometry": { "type": "Point", "coordinates": [ 121.552845, 25.0272961 ] } },
{ "type": "Feature", "properties": { "分類": "紅區", "分隊名稱": "安和分隊", "巷道名稱": "延吉街241巷", "寬度(公尺)": 2.8, "地址": "台北市大安區 延吉街241巷", "TOWN_NAME": "大安區", "SEC_NAME": "安和地區", "困難類別": "狹小巷道" }, "geometry": { "type": "Point", "coordinates": [ 121.5562344, 25.0360586 ] } },
{ "type": "Feature", "properties": { "分類": "紅區", "分隊名稱": "金華分隊", "巷道名稱": "復興南路2段210巷1弄", "寬度(公尺)": 3.7, "地址": "台北市大安區 復興南路2段210巷1弄", "TOWN_NAME": "大安區", "SEC_NAME": "瑞安地區", "困難類別": "狹小巷道" }, "geometry": { "type": "Point", "coordinates": [ 121.5431011, 25.0273627 ] } },
{ "type": "Feature", "properties": { "分類": "紅區", "分隊名稱": "金華分隊", "巷道名稱": "和平東路2段153巷", "寬度(公尺)": 3.4, "地址": "台北市大安區 和平東路2段153巷", "TOWN_NAME": "大安區", "SEC_NAME": "瑞安地區", "困難類別": "狹小巷道" }, "geometry": { "type": "Point", "coordinates": [ 121.5412433, 25.0254584 ] } },
{ "type": "Feature", "properties": { "分類": "紅區", "分隊名稱": "安和分隊", "巷道名稱": "四維路124巷", "寬度(公尺)": 3.5, "地址": "台北市大安區 四維路124巷", "TOWN_NAME": "大安區", "SEC_NAME": "瑞安地區", "困難類別": "狹小巷道" }, "geometry": { "type": "Point", "coordinates": [ 121.547316, 25.0318057 ] } },
{ "type": "Feature", "properties": { "分類": "紅區", "分隊名稱": "安和分隊", "巷道名稱": "復興南路1段79巷", "寬度(公尺)": 2.6, "地址": "台北市大安區 復興南路1段79巷", "TOWN_NAME": "大安區", "SEC_NAME": "敦南地區", "困難類別": "狹小巷道" }, "geometry": { "type": "Point", "coordinates": [ 121.5451859, 25.0446538 ] } },
{ "type": "Feature", "properties": { "分類": "紅區", "分隊名稱": "安和分隊", "巷道名稱": "和平東路2段283巷", "寬度(公尺)": 3.4, "地址": "台北市大安區 和平東路2段283巷", "TOWN_NAME": "大安區", "SEC_NAME": "臥龍地區", "困難類別": "狹小巷道" }, "geometry": { "type": "Point", "coordinates": [ 121.5444525, 25.025134 ] } },
{ "type": "Feature", "properties": { "分類": "紅區", "分隊名稱": "安和分隊", "巷道名稱": "和平東路3段606巷", "寬度(公尺)": 3.5, "地址": "台北市大安區 和平東路3段606巷", "TOWN_NAME": "大安區", "SEC_NAME": "臥龍地區", "困難類別": "狹小巷道" }, "geometry": { "type": "Point", "coordinates": [ 121.5611163, 25.0130152 ] } },
{ "type": "Feature", "properties": { "分類": "紅區", "分隊名稱": "安和分隊", "巷道名稱": "嘉興街376巷", "寬度(公尺)": 3.3, "地址": "台北市大安區 嘉興街376巷", "TOWN_NAME": "大安區", "SEC_NAME": "臥龍地區", "困難類別": "狹小巷道" }, "geometry": { "type": "Point", "coordinates": [ 121.551715, 25.0223067 ] } },
{ "type": "Feature", "properties": { "分類": "紅區", "分隊名稱": "安和分隊", "巷道名稱": "和平東路3段72巷", "寬度(公尺)": 3.7, "地址": "台北市大安區 和平東路3段72巷", "TOWN_NAME": "大安區", "SEC_NAME": "臥龍地區", "困難類別": "狹小巷道" }, "geometry": { "type": "Point", "coordinates": [ 121.550615, 25.0238706 ] } },
{ "type": "Feature", "properties": { "分類": "紅區", "分隊名稱": "金華分隊", "巷道名稱": "師大路49巷", "寬度(公尺)": 3.5, "地址": "台北市大安區 師大路49巷", "TOWN_NAME": "大安區", "SEC_NAME": "和平地區", "困難類別": "狹小巷道" }, "geometry": { "type": "Point", "coordinates": [ 121.5289879, 25.0242704 ] } },
{ "type": "Feature", "properties": { "分類": "紅區", "分隊名稱": "金華分隊", "巷道名稱": "金山南路2段231巷", "寬度(公尺)": 3.5, "地址": "台北市大安區 金山南路2段231巷", "TOWN_NAME": "大安區", "SEC_NAME": "和平地區", "困難類別": "狹小巷道" }, "geometry": { "type": "Point", "coordinates": [ 121.5268164, 25.0273268 ] } },
{ "type": "Feature", "properties": { "分類": "黃區", "分隊名稱": "金華分隊", "巷道名稱": "永康街7巷(信義路2段198巷至信義路2段228巷)", "寬度(公尺)": 4.7, "地址": "台北市大安區 永康街7巷(信義路2段198巷至信義路2段228巷)", "TOWN_NAME": "大安區", "SEC_NAME": "和平地區", "困難類別": "狹小巷道" }, "geometry": { "type": "Point", "coordinates": [ 121.5303532, 25.0331604 ] } },
{ "type": "Feature", "properties": { "分類": "黃區", "分隊名稱": "金華分隊", "巷道名稱": "金山南路2段159巷", "寬度(公尺)": 4.3, "地址": "台北市大安區 金山南路2段159巷", "TOWN_NAME": "大安區", "SEC_NAME": "和平地區", "困難類別": "狹小巷道" }, "geometry": { "type": "Point", "coordinates": [ 121.5275758, 25.0290572 ] } },
{ "type": "Feature", "properties": { "分類": "黃區", "分隊名稱": "金華分隊", "巷道名稱": "金山南路2段185巷", "寬度(公尺)": 4.6, "地址": "台北市大安區 金山南路2段185巷", "TOWN_NAME": "大安區", "SEC_NAME": "和平地區", "困難類別": "狹小巷道" }, "geometry": { "type": "Point", "coordinates": [ 121.5274236, 25.0283306 ] } },
{ "type": "Feature", "properties": { "分類": "黃區", "分隊名稱": "金華分隊", "巷道名稱": "潮州街60巷", "寬度(公尺)": 4.6, "地址": "台北市大安區 潮州街60巷", "TOWN_NAME": "大安區", "SEC_NAME": "和平地區", "困難類別": "狹小巷道" }, "geometry": { "type": "Point", "coordinates": [ 121.5237564, 25.0285111 ] } },
{ "type": "Feature", "properties": { "分類": "黃區", "分隊名稱": "金華分隊", "巷道名稱": "羅斯福路2段81巷(羅斯福路2段至同巷16弄)", "寬度(公尺)": 4.7, "地址": "台北市大安區 羅斯福路2段81巷(羅斯福路2段至同巷16弄)", "TOWN_NAME": "大安區", "SEC_NAME": "和平地區", "困難類別": "狹小巷道" }, "geometry": { "type": "Point", "coordinates": [ 121.5234807, 25.0258154 ] } },
{ "type": "Feature", "properties": { "分類": "黃區", "分隊名稱": "金華分隊", "巷道名稱": "和平東路1段183巷3弄", "寬度(公尺)": 4.1, "地址": "台北市大安區 和平東路1段183巷3弄", "TOWN_NAME": "大安區", "SEC_NAME": "和平地區", "困難類別": "狹小巷道" }, "geometry": { "type": "Point", "coordinates": [ 121.533203, 25.02685 ] } },
{ "type": "Feature", "properties": { "分類": "紅區", "分隊名稱": "金華分隊", "巷道名稱": "信義路2段10巷3弄", "寬度(公尺)": 3.8, "地址": "台北市大安區 信義路2段10巷3弄", "TOWN_NAME": "大安區", "SEC_NAME": "和平地區", "困難類別": "狹小巷道" }, "geometry": { "type": "Point", "coordinates": [ 121.5250876, 25.0346095 ] } },
{ "type": "Feature", "properties": { "分類": "紅區", "分隊名稱": "金華分隊", "巷道名稱": "和平東路1段157巷", "寬度(公尺)": 3.3, "地址": "台北市大安區 和平東路1段157巷", "TOWN_NAME": "大安區", "SEC_NAME": "和平地區", "困難類別": "狹小巷道" }, "geometry": { "type": "Point", "coordinates": [ 121.5315739, 25.026722 ] } },
{ "type": "Feature", "properties": { "分類": "紅區", "分隊名稱": "金華分隊", "巷道名稱": "泰順街2巷", "寬度(公尺)": 3.5, "地址": "台北市大安區 泰順街2巷", "TOWN_NAME": "大安區", "SEC_NAME": "和平地區", "困難類別": "狹小巷道" }, "geometry": { "type": "Point", "coordinates": [ 121.5304833, 25.0257569 ] } },
{ "type": "Feature", "properties": { "分類": "紅區", "分隊名稱": "金華分隊", "巷道名稱": "信義路2段10巷", "寬度(公尺)": 3.9, "地址": "台北市大安區 信義路2段10巷", "TOWN_NAME": "大安區", "SEC_NAME": "和平地區", "困難類別": "狹小巷道" }, "geometry": { "type": "Point", "coordinates": [ 121.5246888, 25.034333 ] } },
{ "type": "Feature", "properties": { "分類": "紅區", "分隊名稱": "金華分隊", "巷道名稱": "羅斯福路3段17巷1弄", "寬度(公尺)": 3.3, "地址": "台北市大安區 羅斯福路3段17巷1弄", "TOWN_NAME": "大安區", "SEC_NAME": "和平地區", "困難類別": "狹小巷道" }, "geometry": { "type": "Point", "coordinates": [ 121.5254529, 25.0237419 ] } },
{ "type": "Feature", "properties": { "分類": "紅區", "分隊名稱": "金華分隊", "巷道名稱": "新生南路3段14巷", "寬度(公尺)": 3.7, "地址": "台北市大安區 新生南路3段14巷", "TOWN_NAME": "大安區", "SEC_NAME": "和平地區", "困難類別": "狹小巷道" }, "geometry": { "type": "Point", "coordinates": [ 121.5345026, 25.0248263 ] } },
{ "type": "Feature", "properties": { "分類": "紅區", "分隊名稱": "金華分隊", "巷道名稱": "潮州街73巷", "寬度(公尺)": 4.0, "地址": "台北市大安區 潮州街73巷", "TOWN_NAME": "大安區", "SEC_NAME": "和平地區", "困難類別": "狹小巷道" }, "geometry": { "type": "Point", "coordinates": [ 121.5256409, 25.0293004 ] } },
{ "type": "Feature", "properties": { "分類": "紅區", "分隊名稱": "金華分隊", "巷道名稱": "和平東路1段11巷", "寬度(公尺)": 4.0, "地址": "台北市大安區 和平東路1段11巷", "TOWN_NAME": "大安區", "SEC_NAME": "和平地區", "困難類別": "狹小巷道" }, "geometry": { "type": "Point", "coordinates": [ 121.5226001, 25.0278187 ] } },
{ "type": "Feature", "properties": { "分類": "黃區", "分隊名稱": "金華分隊", "巷道名稱": "浦城街13巷", "寬度(公尺)": 4.1, "地址": "台北市大安區 浦城街13巷", "TOWN_NAME": "大安區", "SEC_NAME": "和平地區", "困難類別": "狹小巷道" }, "geometry": { "type": "Point", "coordinates": [ 121.5277425, 25.0244532 ] } },
{ "type": "Feature", "properties": { "分類": "黃區", "分隊名稱": "金華分隊", "巷道名稱": "師大路68巷接浦城街21巷", "寬度(公尺)": 5.1, "地址": "台北市大安區 師大路68巷接浦城街21巷", "TOWN_NAME": "大安區", "SEC_NAME": "和平地區", "困難類別": "狹小巷道" }, "geometry": { "type": "Point", "coordinates": [ 121.5279511, 25.0241313 ] } },
{ "type": "Feature", "properties": { "分類": "黃區", "分隊名稱": "金華分隊", "巷道名稱": "金山南路2段203巷", "寬度(公尺)": 4.5, "地址": "台北市大安區 金山南路2段203巷", "TOWN_NAME": "大安區", "SEC_NAME": "和平地區", "困難類別": "狹小巷道" }, "geometry": { "type": "Point", "coordinates": [ 121.5269724, 25.0279579 ] } },
{ "type": "Feature", "properties": { "分類": "紅區", "分隊名稱": "信義分隊", "巷道名稱": "松山路119巷17弄(東西向)", "寬度(公尺)": 3.6, "地址": "台北市信義區 松山路119巷17弄(東西向)", "TOWN_NAME": "信義區", "SEC_NAME": "五分埔地區", "困難類別": "狹小巷道" }, "geometry": { "type": "Point", "coordinates": [ 121.5795781, 25.0477949 ] } },
{ "type": "Feature", "properties": { "分類": "黃區", "分隊名稱": "信義分隊", "巷道名稱": "永吉路443巷13弄", "寬度(公尺)": 4.1, "地址": "台北市信義區 永吉路443巷13弄", "TOWN_NAME": "信義區", "SEC_NAME": "五分埔地區", "困難類別": "狹小巷道" }, "geometry": { "type": "Point", "coordinates": [ 121.5783576, 25.0470401 ] } },
{ "type": "Feature", "properties": { "分類": "紅區", "分隊名稱": "信義分隊", "巷道名稱": "林口街10巷(3-1號.5-1號)；林口街24巷(2-1號.4-1號)", "寬度(公尺)": 2.9, "地址": "台北市信義區 林口街10巷(3-1號.5-1號)；林口街24巷(2-1號.4-1號)", "TOWN_NAME": "信義區", "SEC_NAME": "福德地區", "困難類別": "狹小巷道" }, "geometry": { "type": "Point", "coordinates": [ 121.5795899, 25.0371539 ] } },
{ "type": "Feature", "properties": { "分類": "紅區", "分隊名稱": "莊敬分隊", "巷道名稱": "吳興街118巷", "寬度(公尺)": 3.7, "地址": "台北市信義區 吳興街118巷", "TOWN_NAME": "信義區", "SEC_NAME": "六張犁地區", "困難類別": "狹小巷道" }, "geometry": { "type": "Point", "coordinates": [ 121.5606208, 25.0296911 ] } },
{ "type": "Feature", "properties": { "分類": "紅區", "分隊名稱": "莊敬分隊", "巷道名稱": "崇德街63巷", "寬度(公尺)": 2.9, "地址": "台北市信義區 崇德街63巷", "TOWN_NAME": "信義區", "SEC_NAME": "六張犁地區", "困難類別": "狹小巷道" }, "geometry": { "type": "Point", "coordinates": [ 121.5548808, 25.0247948 ] } },
{ "type": "Feature", "properties": { "分類": "紅區", "分隊名稱": "莊敬分隊", "巷道名稱": "吳興街600巷58弄", "寬度(公尺)": 3.4, "地址": "台北市信義區 吳興街600巷58弄", "TOWN_NAME": "信義區", "SEC_NAME": "吳興地區", "困難類別": "狹小巷道" }, "geometry": { "type": "Point", "coordinates": [ 121.5701549, 25.019637 ] } },
{ "type": "Feature", "properties": { "分類": "紅區", "分隊名稱": "莊敬分隊", "巷道名稱": "吳興街600巷86弄", "寬度(公尺)": 2.8, "地址": "台北市信義區 吳興街600巷86弄", "TOWN_NAME": "信義區", "SEC_NAME": "吳興地區", "困難類別": "狹小巷道" }, "geometry": { "type": "Point", "coordinates": [ 121.5708038, 25.018498 ] } },
{ "type": "Feature", "properties": { "分類": "紅區", "分隊名稱": "莊敬分隊", "巷道名稱": "信義路5段150巷426弄", "寬度(公尺)": 4.0, "地址": "台北市信義區 信義路5段150巷426弄", "TOWN_NAME": "信義區", "SEC_NAME": "吳興地區", "困難類別": "狹小巷道" }, "geometry": { "type": "Point", "coordinates": [ 121.5714884, 25.0242909 ] } },
{ "type": "Feature", "properties": { "分類": "紅區", "分隊名稱": "南港分隊", "巷道名稱": "南港路1段137巷10弄", "寬度(公尺)": 3.6, "地址": "台北市南港區 南港路1段137巷10弄", "TOWN_NAME": "南港區", "SEC_NAME": "三重埔地區", "困難類別": "狹小巷道" }, "geometry": { "type": "Point", "coordinates": [ 121.6133113, 25.054419 ] } },
{ "type": "Feature", "properties": { "分類": "紅區", "分隊名稱": "南港分隊", "巷道名稱": "重陽路302號", "寬度(公尺)": 3.5, "地址": "台北市南港區 重陽路302號", "TOWN_NAME": "南港區", "SEC_NAME": "新庄仔地區", "困難類別": "狹小巷道" }, "geometry": { "type": "Point", "coordinates": [ 121.605093, 25.0576649 ] } },
{ "type": "Feature", "properties": { "分類": "紅區", "分隊名稱": "松江分隊", "巷道名稱": "中山北路1段96巷", "寬度(公尺)": 3.7, "地址": "台北市中山區 中山北路1段96巷", "TOWN_NAME": "中山區", "SEC_NAME": "林森地區", "困難類別": "狹小巷道" }, "geometry": { "type": "Point", "coordinates": [ 121.5203585, 25.0497151 ] } },
{ "type": "Feature", "properties": { "分類": "紅區", "分隊名稱": "松江分隊", "巷道名稱": "中山北路2段36巷", "寬度(公尺)": 3.1, "地址": "台北市中山區 中山北路2段36巷", "TOWN_NAME": "中山區", "SEC_NAME": "林森地區", "困難類別": "狹小巷道" }, "geometry": { "type": "Point", "coordinates": [ 121.5216287, 25.0543324 ] } },
{ "type": "Feature", "properties": { "分類": "紅區", "分隊名稱": "松江分隊", "巷道名稱": "中山北路2段84巷", "寬度(公尺)": 3.2, "地址": "台北市中山區 中山北路2段84巷", "TOWN_NAME": "中山區", "SEC_NAME": "林森地區", "困難類別": "狹小巷道" }, "geometry": { "type": "Point", "coordinates": [ 121.5217887, 25.0572302 ] } },
{ "type": "Feature", "properties": { "分類": "紅區", "分隊名稱": "松江分隊", "巷道名稱": "南京西路12巷13弄", "寬度(公尺)": 3.5, "地址": "台北市中山區 南京西路12巷13弄", "TOWN_NAME": "中山區", "SEC_NAME": "林森地區", "困難類別": "狹小巷道" }, "geometry": { "type": "Point", "coordinates": [ 121.5218381, 25.0516717 ] } },
{ "type": "Feature", "properties": { "分類": "紅區", "分隊名稱": "松江分隊", "巷道名稱": "市民大道2段5巷", "寬度(公尺)": 3.0, "地址": "台北市中山區 市民大道2段5巷", "TOWN_NAME": "中山區", "SEC_NAME": "林森地區", "困難類別": "狹小巷道" }, "geometry": { "type": "Point", "coordinates": [ 121.5215972, 25.0484189 ] } },
{ "type": "Feature", "properties": { "分類": "黃區", "分隊名稱": "松江分隊", "巷道名稱": "民生西路66巷", "寬度(公尺)": 5.2, "地址": "台北市中山區 民生西路66巷", "TOWN_NAME": "中山區", "SEC_NAME": "林森地區", "困難類別": "狹小巷道" }, "geometry": { "type": "Point", "coordinates": [ 121.5207924, 25.0571176 ] } },
{ "type": "Feature", "properties": { "分類": "紅區", "分隊名稱": "松江分隊", "巷道名稱": "八德路2段137巷", "寬度(公尺)": 3.4, "地址": "台北市中山區 八德路2段137巷", "TOWN_NAME": "中山區", "SEC_NAME": "朱厝崙地區", "困難類別": "狹小巷道" }, "geometry": { "type": "Point", "coordinates": [ 121.5373634, 25.0469388 ] } },
{ "type": "Feature", "properties": { "分類": "紅區", "分隊名稱": "松江分隊", "巷道名稱": "八德路2段267巷", "寬度(公尺)": 3.4, "地址": "台北市中山區 八德路2段267巷", "TOWN_NAME": "中山區", "SEC_NAME": "朱厝崙地區", "困難類別": "狹小巷道" }, "geometry": { "type": "Point", "coordinates": [ 121.541356, 25.047392 ] } },
{ "type": "Feature", "properties": { "分類": "紅區", "分隊名稱": "松江分隊", "巷道名稱": "龍江路38巷", "寬度(公尺)": 3.8, "地址": "台北市中山區 龍江路38巷", "TOWN_NAME": "中山區", "SEC_NAME": "朱厝崙地區", "困難類別": "狹小巷道" }, "geometry": { "type": "Point", "coordinates": [ 121.5399194, 25.0488507 ] } },
{ "type": "Feature", "properties": { "分類": "紅區", "分隊名稱": "松江分隊", "巷道名稱": "遼寧街76巷", "寬度(公尺)": 3.8, "地址": "台北市中山區 遼寧街76巷", "TOWN_NAME": "中山區", "SEC_NAME": "朱厝崙地區", "困難類別": "狹小巷道" }, "geometry": { "type": "Point", "coordinates": [ 121.5414249, 25.051139 ] } },
{ "type": "Feature", "properties": { "分類": "紅區", "分隊名稱": "圓山分隊", "巷道名稱": "錦州橋下", "寬度(公尺)": 3.8, "地址": "台北市中山區 錦州橋下", "TOWN_NAME": "中山區", "SEC_NAME": "下埤頭地區", "困難類別": "狹小巷道" }, "geometry": { "type": "Point", "coordinates": [ 121.5443536, 25.0756921 ] } },
{ "type": "Feature", "properties": { "分類": "紅區", "分隊名稱": "圓山分隊", "巷道名稱": "合江街71巷", "寬度(公尺)": 3.7, "地址": "台北市中山區 合江街71巷", "TOWN_NAME": "中山區", "SEC_NAME": "下埤頭地區", "困難類別": "狹小巷道" }, "geometry": { "type": "Point", "coordinates": [ 121.5399323, 25.0584911 ] } },
{ "type": "Feature", "properties": { "分類": "紅區", "分隊名稱": "圓山分隊", "巷道名稱": "民生西路45巷3弄", "寬度(公尺)": 3.8, "地址": "台北市中山區 民生西路45巷3弄", "TOWN_NAME": "中山區", "SEC_NAME": "圓山地區", "困難類別": "狹小巷道" }, "geometry": { "type": "Point", "coordinates": [ 121.5212631, 25.0579915 ] } },
{ "type": "Feature", "properties": { "分類": "紅區", "分隊名稱": "圓山分隊", "巷道名稱": "民生西路45巷5弄", "寬度(公尺)": 2.87, "地址": "台北市中山區 民生西路45巷5弄", "TOWN_NAME": "中山區", "SEC_NAME": "圓山地區", "困難類別": "狹小巷道" }, "geometry": { "type": "Point", "coordinates": [ 121.5212614, 25.0583865 ] } },
{ "type": "Feature", "properties": { "分類": "紅區", "分隊名稱": "圓山分隊", "巷道名稱": "民生西路45巷7弄", "寬度(公尺)": 3.0, "地址": "台北市中山區 民生西路45巷7弄", "TOWN_NAME": "中山區", "SEC_NAME": "圓山地區", "困難類別": "狹小巷道" }, "geometry": { "type": "Point", "coordinates": [ 121.5212828, 25.0587537 ] } },
{ "type": "Feature", "properties": { "分類": "紅區", "分隊名稱": "大直分隊", "巷道名稱": "北安路559巷", "寬度(公尺)": 3.4, "地址": "台北市中山區 北安路559巷", "TOWN_NAME": "中山區", "SEC_NAME": "大直地區", "困難類別": "狹小巷道" }, "geometry": { "type": "Point", "coordinates": [ 121.5476607, 25.0803812 ] } },
{ "type": "Feature", "properties": { "分類": "黃區", "分隊名稱": "大直分隊", "巷道名稱": "北安路759巷", "寬度(公尺)": 5.1, "地址": "台北市中山區 北安路759巷", "TOWN_NAME": "中山區", "SEC_NAME": "大直地區", "困難類別": "狹小巷道" }, "geometry": { "type": "Point", "coordinates": [ 121.5534058, 25.0862508 ] } },
{ "type": "Feature", "properties": { "分類": "紅區", "分隊名稱": "中崙分隊", "巷道名稱": "寧安街68巷", "寬度(公尺)": 3.0, "地址": "台北市松山區 寧安街68巷", "TOWN_NAME": "松山區", "SEC_NAME": "中崙地區", "困難類別": "狹小巷道" }, "geometry": { "type": "Point", "coordinates": [ 121.5539276, 25.0511505 ] } },
{ "type": "Feature", "properties": { "分類": "紅區", "分隊名稱": "中崙分隊", "巷道名稱": "光復南路66巷(八德路3段158巷以東)", "寬度(公尺)": 3.9, "地址": "台北市松山區 光復南路66巷(八德路3段158巷以東)", "TOWN_NAME": "松山區", "SEC_NAME": "中崙地區", "困難類別": "狹小巷道" }, "geometry": { "type": "Point", "coordinates": [ 121.5554788, 25.0451123 ] } },
{ "type": "Feature", "properties": { "分類": "紅區", "分隊名稱": "八德分隊", "巷道名稱": "南京東路5段291巷44弄", "寬度(公尺)": 3.7, "地址": "台北市松山區 南京東路5段291巷44弄", "TOWN_NAME": "松山區", "SEC_NAME": "本鎮地區", "困難類別": "狹小巷道" }, "geometry": { "type": "Point", "coordinates": [ 121.5651348, 25.0533872 ] } },
{ "type": "Feature", "properties": { "分類": "紅區", "分隊名稱": "八德分隊", "巷道名稱": "南京東路5段291巷41弄", "寬度(公尺)": 3.7, "地址": "台北市松山區 南京東路5段291巷41弄", "TOWN_NAME": "松山區", "SEC_NAME": "本鎮地區", "困難類別": "狹小巷道" }, "geometry": { "type": "Point", "coordinates": [ 121.5669122, 25.0533689 ] } },
{ "type": "Feature", "properties": { "分類": "紅區", "分隊名稱": "八德分隊", "巷道名稱": "南京東路5段291巷38弄", "寬度(公尺)": 3.7, "地址": "台北市松山區 南京東路5段291巷38弄", "TOWN_NAME": "松山區", "SEC_NAME": "本鎮地區", "困難類別": "狹小巷道" }, "geometry": { "type": "Point", "coordinates": [ 121.5651252, 25.0531253 ] } },
{ "type": "Feature", "properties": { "分類": "紅區", "分隊名稱": "八德分隊", "巷道名稱": "南京東路5段291巷47弄", "寬度(公尺)": 3.6, "地址": "台北市松山區 南京東路5段291巷47弄", "TOWN_NAME": "松山區", "SEC_NAME": "本鎮地區", "困難類別": "狹小巷道" }, "geometry": { "type": "Point", "coordinates": [ 121.5669175, 25.0536492 ] } },
{ "type": "Feature", "properties": { "分類": "紅區", "分隊名稱": "八德分隊", "巷道名稱": "八德路4段181巷", "寬度(公尺)": 3.5, "地址": "台北市松山區 八德路4段181巷", "TOWN_NAME": "松山區", "SEC_NAME": "本鎮地區", "困難類別": "狹小巷道" }, "geometry": { "type": "Point", "coordinates": [ 121.563184, 25.0492095 ] } },
{ "type": "Feature", "properties": { "分類": "紅區", "分隊名稱": "八德分隊", "巷道名稱": "饒河街61巷12弄", "寬度(公尺)": 4.0, "地址": "台北市松山區 饒河街61巷12弄", "TOWN_NAME": "松山區", "SEC_NAME": "本鎮地區", "困難類別": "狹小巷道" }, "geometry": { "type": "Point", "coordinates": [ 121.5726486, 25.0505449 ] } },
{ "type": "Feature", "properties": { "分類": "紅區", "分隊名稱": "八德分隊", "巷道名稱": "八德路4段72巷14弄", "寬度(公尺)": 3.8, "地址": "台北市松山區 八德路4段72巷14弄", "TOWN_NAME": "松山區", "SEC_NAME": "本鎮地區", "困難類別": "狹小巷道" }, "geometry": { "type": "Point", "coordinates": [ 121.5598074, 25.0466534 ] } },
{ "type": "Feature", "properties": { "分類": "紅區", "分隊名稱": "八德分隊", "巷道名稱": "八德路4段106巷10弄", "寬度(公尺)": 3.8, "地址": "台北市松山區 八德路4段106巷10弄", "TOWN_NAME": "松山區", "SEC_NAME": "本鎮地區", "困難類別": "狹小巷道" }, "geometry": { "type": "Point", "coordinates": [ 121.560692, 25.0467545 ] } },
{ "type": "Feature", "properties": { "分類": "紅區", "分隊名稱": "八德分隊", "巷道名稱": "八德路4段72巷10弄", "寬度(公尺)": 3.8, "地址": "台北市松山區 八德路4段72巷10弄", "TOWN_NAME": "松山區", "SEC_NAME": "本鎮地區", "困難類別": "狹小巷道" }, "geometry": { "type": "Point", "coordinates": [ 121.5598259, 25.0471782 ] } },
{ "type": "Feature", "properties": { "分類": "紅區", "分隊名稱": "八德分隊", "巷道名稱": "八德路4段106巷6弄", "寬度(公尺)": 3.8, "地址": "台北市松山區 八德路4段106巷6弄", "TOWN_NAME": "松山區", "SEC_NAME": "本鎮地區", "困難類別": "狹小巷道" }, "geometry": { "type": "Point", "coordinates": [ 121.5607352, 25.0472803 ] } },
{ "type": "Feature", "properties": { "分類": "紅區", "分隊名稱": "中崙分隊", "巷道名稱": "民族東路668巷2弄", "寬度(公尺)": 3.0, "地址": "台北市松山區 民族東路668巷2弄", "TOWN_NAME": "松山區", "SEC_NAME": "東社地區", "困難類別": "狹小巷道" }, "geometry": { "type": "Point", "coordinates": [ 121.5456304, 25.0650477 ] } },
{ "type": "Feature", "properties": { "分類": "紅區", "分隊名稱": "中崙分隊", "巷道名稱": "民族東路668巷1弄", "寬度(公尺)": 3.0, "地址": "台北市松山區 民族東路668巷1弄", "TOWN_NAME": "松山區", "SEC_NAME": "東社地區", "困難類別": "狹小巷道" }, "geometry": { "type": "Point", "coordinates": [ 121.5466956, 25.0642195 ] } },
{ "type": "Feature", "properties": { "分類": "紅區", "分隊名稱": "內湖分隊", "巷道名稱": "新明路475巷", "寬度(公尺)": 3.1, "地址": "台北市內湖區 新明路475巷", "TOWN_NAME": "內湖區", "SEC_NAME": "洲尾地區", "困難類別": "狹小巷道" }, "geometry": { "type": "Point", "coordinates": [ 121.5800364, 25.0540162 ] } },
{ "type": "Feature", "properties": { "分類": "紅區", "分隊名稱": "內湖分隊", "巷道名稱": "內湖路1段715巷", "寬度(公尺)": 3.1, "地址": "台北市內湖區 內湖路1段715巷", "TOWN_NAME": "內湖區", "SEC_NAME": "西湖地區", "困難類別": "狹小巷道" }, "geometry": { "type": "Point", "coordinates": [ 121.5781303, 25.0803108 ] } },
{ "type": "Feature", "properties": { "分類": "紅區", "分隊名稱": "內湖分隊", "巷道名稱": "內湖路1段91巷", "寬度(公尺)": 4.0, "地址": "台北市內湖區 內湖路1段91巷", "TOWN_NAME": "內湖區", "SEC_NAME": "西湖地區", "困難類別": "狹小巷道" }, "geometry": { "type": "Point", "coordinates": [ 121.5626339, 25.0882537 ] } },
{ "type": "Feature", "properties": { "分類": "紅區", "分隊名稱": "內湖分隊", "巷道名稱": "環山路1段59巷12弄", "寬度(公尺)": 3.6, "地址": "台北市內湖區 環山路1段59巷12弄", "TOWN_NAME": "內湖區", "SEC_NAME": "西湖地區", "困難類別": "狹小巷道" }, "geometry": { "type": "Point", "coordinates": [ 121.5685715, 25.0857073 ] } },
{ "type": "Feature", "properties": { "分類": "紅區", "分隊名稱": "內湖分隊", "巷道名稱": "內湖路1段737巷8弄", "寬度(公尺)": 3.3, "地址": "台北市內湖區 內湖路1段737巷8弄", "TOWN_NAME": "內湖區", "SEC_NAME": "西湖地區", "困難類別": "狹小巷道" }, "geometry": { "type": "Point", "coordinates": [ 121.5780592, 25.0795544 ] } },
{ "type": "Feature", "properties": { "分類": "紅區", "分隊名稱": "內湖分隊", "巷道名稱": "內湖路2段179巷3弄", "寬度(公尺)": 3.7, "地址": "台北市內湖區 內湖路2段179巷3弄", "TOWN_NAME": "內湖區", "SEC_NAME": "金龍地區", "困難類別": "狹小巷道" }, "geometry": { "type": "Point", "coordinates": [ 121.5880751, 25.0820831 ] } },
{ "type": "Feature", "properties": { "分類": "黃區", "分隊名稱": "大湖分隊", "巷道名稱": "大湖街131巷", "寬度(公尺)": 4.1, "地址": "台北市內湖區 大湖街131巷", "TOWN_NAME": "內湖區", "SEC_NAME": "金龍地區", "困難類別": "狹小巷道" }, "geometry": { "type": "Point", "coordinates": [ 121.5982245, 25.0876038 ] } },
{ "type": "Feature", "properties": { "分類": "紅區", "分隊名稱": "延平分隊", "巷道名稱": "太原路23巷", "寬度(公尺)": 3.6, "地址": "台北市大同區 太原路23巷", "TOWN_NAME": "大同區", "SEC_NAME": "建成地區", "困難類別": "狹小巷道" }, "geometry": { "type": "Point", "coordinates": [ 121.5158977, 25.0502911 ] } },
{ "type": "Feature", "properties": { "分類": "紅區", "分隊名稱": "延平分隊", "巷道名稱": "鄭州路29巷", "寬度(公尺)": 3.8, "地址": "台北市大同區 鄭州路29巷", "TOWN_NAME": "大同區", "SEC_NAME": "建成地區", "困難類別": "狹小巷道" }, "geometry": { "type": "Point", "coordinates": [ 121.5143349, 25.049955 ] } },
{ "type": "Feature", "properties": { "分類": "紅區", "分隊名稱": "延平分隊", "巷道名稱": "重慶北路1段89巷", "寬度(公尺)": 3.0, "地址": "台北市大同區 重慶北路1段89巷", "TOWN_NAME": "大同區", "SEC_NAME": "建成地區", "困難類別": "狹小巷道" }, "geometry": { "type": "Point", "coordinates": [ 121.5152433, 25.0532044 ] } },
{ "type": "Feature", "properties": { "分類": "紅區", "分隊名稱": "延平分隊", "巷道名稱": "太原路76巷", "寬度(公尺)": 2.7, "地址": "台北市大同區 太原路76巷", "TOWN_NAME": "大同區", "SEC_NAME": "建成地區", "困難類別": "狹小巷道" }, "geometry": { "type": "Point", "coordinates": [ 121.5151326, 25.0525127 ] } },
{ "type": "Feature", "properties": { "分類": "黃區", "分隊名稱": "大同分隊", "巷道名稱": "重慶北路2段97巷", "寬度(公尺)": 4.6, "地址": "台北市大同區 重慶北路2段97巷", "TOWN_NAME": "大同區", "SEC_NAME": "建成地區", "困難類別": "狹小巷道" }, "geometry": { "type": "Point", "coordinates": [ 121.5144867, 25.0566434 ] } },
{ "type": "Feature", "properties": { "分類": "紅區", "分隊名稱": "延平分隊", "巷道名稱": "南京西路250巷", "寬度(公尺)": 3.6, "地址": "台北市大同區 南京西路250巷", "TOWN_NAME": "大同區", "SEC_NAME": "建成地區", "困難類別": "狹小巷道" }, "geometry": { "type": "Point", "coordinates": [ 121.5154888, 25.0534376 ] } },
{ "type": "Feature", "properties": { "分類": "紅區", "分隊名稱": "延平分隊", "巷道名稱": "重慶北路1段26巷", "寬度(公尺)": 3.3, "地址": "台北市大同區 重慶北路1段26巷", "TOWN_NAME": "大同區", "SEC_NAME": "建成地區", "困難類別": "狹小巷道" }, "geometry": { "type": "Point", "coordinates": [ 121.5125044, 25.0510622 ] } },
{ "type": "Feature", "properties": { "分類": "紅區", "分隊名稱": "延平分隊", "巷道名稱": "延平北路1段69巷", "寬度(公尺)": 3.1, "地址": "台北市大同區 延平北路1段69巷", "TOWN_NAME": "大同區", "SEC_NAME": "建成地區", "困難類別": "狹小巷道" }, "geometry": { "type": "Point", "coordinates": [ 121.5124919, 25.0513773 ] } },
{ "type": "Feature", "properties": { "分類": "紅區", "分隊名稱": "延平分隊", "巷道名稱": "南京西路64巷9弄", "寬度(公尺)": 3.5, "地址": "台北市大同區 南京西路64巷9弄", "TOWN_NAME": "大同區", "SEC_NAME": "建成地區", "困難類別": "狹小巷道" }, "geometry": { "type": "Point", "coordinates": [ 121.5192089, 25.0523462 ] } },
{ "type": "Feature", "properties": { "分類": "紅區", "分隊名稱": "大同分隊", "巷道名稱": "承德路2段63巷", "寬度(公尺)": 2.7, "地址": "台北市大同區 承德路2段63巷", "TOWN_NAME": "大同區", "SEC_NAME": "建成地區", "困難類別": "狹小巷道" }, "geometry": { "type": "Point", "coordinates": [ 121.5186295, 25.0555613 ] } },
{ "type": "Feature", "properties": { "分類": "紅區", "分隊名稱": "延平分隊", "巷道名稱": "承德路1段77巷", "寬度(公尺)": 3.8, "地址": "台北市大同區 承德路1段77巷", "TOWN_NAME": "大同區", "SEC_NAME": "建成地區", "困難類別": "狹小巷道" }, "geometry": { "type": "Point", "coordinates": [ 121.5182301, 25.0520885 ] } },
{ "type": "Feature", "properties": { "分類": "黃區", "分隊名稱": "延平分隊", "巷道名稱": "長安西路145巷", "寬度(公尺)": 4.8, "地址": "台北市大同區 長安西路145巷", "TOWN_NAME": "大同區", "SEC_NAME": "建成地區", "困難類別": "狹小巷道" }, "geometry": { "type": "Point", "coordinates": [ 121.5149731, 25.0520248 ] } },
{ "type": "Feature", "properties": { "分類": "黃區", "分隊名稱": "延平分隊", "巷道名稱": "太原路79巷", "寬度(公尺)": 4.1, "地址": "台北市大同區 太原路79巷", "TOWN_NAME": "大同區", "SEC_NAME": "建成地區", "困難類別": "狹小巷道" }, "geometry": { "type": "Point", "coordinates": [ 121.5162734, 25.0517105 ] } },
{ "type": "Feature", "properties": { "分類": "黃區", "分隊名稱": "延平分隊", "巷道名稱": "太原路97巷", "寬度(公尺)": 4.3, "地址": "台北市大同區 太原路97巷", "TOWN_NAME": "大同區", "SEC_NAME": "建成地區", "困難類別": "狹小巷道" }, "geometry": { "type": "Point", "coordinates": [ 121.5166471, 25.0520494 ] } },
{ "type": "Feature", "properties": { "分類": "黃區", "分隊名稱": "大同分隊", "巷道名稱": "承德路2段75巷", "寬度(公尺)": 5.1, "地址": "台北市大同區 承德路2段75巷", "TOWN_NAME": "大同區", "SEC_NAME": "建成地區", "困難類別": "狹小巷道" }, "geometry": { "type": "Point", "coordinates": [ 121.5190026, 25.0557697 ] } },
{ "type": "Feature", "properties": { "分類": "黃區", "分隊名稱": "大同分隊", "巷道名稱": "南京西路107巷", "寬度(公尺)": 4.0, "地址": "台北市大同區 南京西路107巷", "TOWN_NAME": "大同區", "SEC_NAME": "建成地區", "困難類別": "狹小巷道" }, "geometry": { "type": "Point", "coordinates": [ 121.515689, 25.0545181 ] } },
{ "type": "Feature", "properties": { "分類": "黃區", "分隊名稱": "延平分隊", "巷道名稱": "南京西路18巷", "寬度(公尺)": 4.0, "地址": "台北市大同區 南京西路18巷", "TOWN_NAME": "大同區", "SEC_NAME": "建成地區", "困難類別": "狹小巷道" }, "geometry": { "type": "Point", "coordinates": [ 121.5202064, 25.0514578 ] } },
{ "type": "Feature", "properties": { "分類": "紅區", "分隊名稱": "延平分隊", "巷道名稱": "天水路51巷", "寬度(公尺)": 3.1, "地址": "台北市大同區 天水路51巷", "TOWN_NAME": "大同區", "SEC_NAME": "延平地區", "困難類別": "狹小巷道" }, "geometry": { "type": "Point", "coordinates": [ 121.5127297, 25.0532942 ] } },
{ "type": "Feature", "properties": { "分類": "紅區", "分隊名稱": "大同分隊", "巷道名稱": "延平北路4段147巷", "寬度(公尺)": 2.9, "地址": "台北市大同區 延平北路4段147巷", "TOWN_NAME": "大同區", "SEC_NAME": "蘭州地區", "困難類別": "狹小巷道" }, "geometry": { "type": "Point", "coordinates": [ 121.5117501, 25.0724625 ] } },
{ "type": "Feature", "properties": { "分類": "黃區", "分隊名稱": "大同分隊", "巷道名稱": "慶昌橋", "寬度(公尺)": 4.7, "地址": "台北市大同區 慶昌橋", "TOWN_NAME": "大同區", "SEC_NAME": "蘭州地區", "困難類別": "狹小巷道" }, "geometry": { "type": "Point", "coordinates": [ 121.5134937, 25.0764297 ] } },
{ "type": "Feature", "properties": { "分類": "紅區", "分隊名稱": "大同分隊", "巷道名稱": "伊寧街(75巷口至105號)", "寬度(公尺)": 3.1, "地址": "台北市大同區 伊寧街(75巷口至105號)", "TOWN_NAME": "大同區", "SEC_NAME": "蘭州地區", "困難類別": "狹小巷道" }, "geometry": { "type": "Point", "coordinates": [ 121.5104051, 25.0654013 ] } },
{ "type": "Feature", "properties": { "分類": "黃區", "分隊名稱": "大同分隊", "巷道名稱": "重慶北路3段9巷", "寬度(公尺)": 5.0, "地址": "台北市大同區 重慶北路3段9巷", "TOWN_NAME": "大同區", "SEC_NAME": "蘭州地區", "困難類別": "狹小巷道" }, "geometry": { "type": "Point", "coordinates": [ 121.514438, 25.0642906 ] } },
{ "type": "Feature", "properties": { "分類": "黃區", "分隊名稱": "金華分隊", "巷道名稱": "泰順街50巷", "寬度(公尺)": 4.7, "地址": "台北市大安區 泰順街50巷", "TOWN_NAME": "大安區", "SEC_NAME": "學府地區", "困難類別": "狹小巷道" }, "geometry": { "type": "Point", "coordinates": [ 121.5303296, 25.0231474 ] } },
{ "type": "Feature", "properties": { "分類": "紅區", "分隊名稱": "金華分隊", "巷道名稱": "溫州街45巷", "寬度(公尺)": 3.4, "地址": "台北市大安區 溫州街45巷", "TOWN_NAME": "大安區", "SEC_NAME": "學府地區", "困難類別": "狹小巷道" }, "geometry": { "type": "Point", "coordinates": [ 121.5333117, 25.021583 ] } },
{ "type": "Feature", "properties": { "分類": "黃區", "分隊名稱": "金華分隊", "巷道名稱": "復興南路2段340巷", "寬度(公尺)": 4.5, "地址": "台北市大安區 復興南路2段340巷", "TOWN_NAME": "大安區", "SEC_NAME": "學府地區", "困難類別": "狹小巷道" }, "geometry": { "type": "Point", "coordinates": [ 121.5428514, 25.0226679 ] } },
{ "type": "Feature", "properties": { "分類": "黃區", "分隊名稱": "安和分隊", "巷道名稱": "和平東路2段96巷17弄", "寬度(公尺)": 4.4, "地址": "台北市大安區 和平東路2段96巷17弄", "TOWN_NAME": "大安區", "SEC_NAME": "學府地區", "困難類別": "狹小巷道" }, "geometry": { "type": "Point", "coordinates": [ 121.5411156, 25.0231065 ] } },
{ "type": "Feature", "properties": { "分類": "紅區", "分隊名稱": "大同分隊", "巷道名稱": "蘭州街124巷", "寬度(公尺)": 3.2, "地址": "台北市大同區 蘭州街124巷", "TOWN_NAME": "大同區", "SEC_NAME": "大龍地區", "困難類別": "狹小巷道" }, "geometry": { "type": "Point", "coordinates": [ 121.5153198, 25.0652299 ] } },
{ "type": "Feature", "properties": { "分類": "紅區", "分隊名稱": "大同分隊", "巷道名稱": "蘭州街61巷", "寬度(公尺)": 3.0, "地址": "台北市大同區 蘭州街61巷", "TOWN_NAME": "大同區", "SEC_NAME": "大龍地區", "困難類別": "狹小巷道" }, "geometry": { "type": "Point", "coordinates": [ 121.5152231, 25.0636837 ] } },
{ "type": "Feature", "properties": { "分類": "黃區", "分隊名稱": "大同分隊", "巷道名稱": "昌吉街110巷", "寬度(公尺)": 5.0, "地址": "台北市大同區 昌吉街110巷", "TOWN_NAME": "大同區", "SEC_NAME": "大龍地區", "困難類別": "狹小巷道" }, "geometry": { "type": "Point", "coordinates": [ 121.5146458, 25.0652486 ] } },
{ "type": "Feature", "properties": { "分類": "黃區", "分隊名稱": "天母分隊", "巷道名稱": "中山北路7段232巷19弄", "寬度(公尺)": 4.8, "地址": "台北市士林區 中山北路7段232巷19弄", "TOWN_NAME": "士林區", "SEC_NAME": "天母地區", "困難類別": "狹小巷道" }, "geometry": { "type": "Point", "coordinates": [ 121.5346404, 25.1270816 ] } },
{ "type": "Feature", "properties": { "分類": "紅區", "分隊名稱": "天母分隊", "巷道名稱": "中山北路7段114巷34弄", "寬度(公尺)": 3.3, "地址": "台北市士林區 中山北路7段114巷34弄", "TOWN_NAME": "士林區", "SEC_NAME": "天母地區", "困難類別": "狹小巷道" }, "geometry": { "type": "Point", "coordinates": [ 121.5346146, 25.1225288 ] } },
{ "type": "Feature", "properties": { "分類": "紅區", "分隊名稱": "天母分隊", "巷道名稱": "天母東路90巷", "寬度(公尺)": 3.5, "地址": "台北市士林區 天母東路90巷", "TOWN_NAME": "士林區", "SEC_NAME": "天母地區", "困難類別": "狹小巷道" }, "geometry": { "type": "Point", "coordinates": [ 121.5365361, 25.1177347 ] } },
{ "type": "Feature", "properties": { "分類": "黃區", "分隊名稱": "金華分隊", "巷道名稱": "新生南路1段145巷", "寬度(公尺)": 5.1, "地址": "台北市大安區 新生南路1段145巷", "TOWN_NAME": "大安區", "SEC_NAME": "新生地區", "困難類別": "狹小巷道" }, "geometry": { "type": "Point", "coordinates": [ 121.5335511, 25.0357291 ] } },
{ "type": "Feature", "properties": { "分類": "黃區", "分隊名稱": "金華分隊", "巷道名稱": "新生南路1段151巷", "寬度(公尺)": 4.65, "地址": "台北市大安區 新生南路1段151巷", "TOWN_NAME": "大安區", "SEC_NAME": "新生地區", "困難類別": "狹小巷道" }, "geometry": { "type": "Point", "coordinates": [ 121.5335443, 25.0353259 ] } },
{ "type": "Feature", "properties": { "分類": "黃區", "分隊名稱": "金華分隊", "巷道名稱": "新生南路1段143巷", "寬度(公尺)": 5.3, "地址": "台北市大安區 新生南路1段143巷", "TOWN_NAME": "大安區", "SEC_NAME": "新生地區", "困難類別": "狹小巷道" }, "geometry": { "type": "Point", "coordinates": [ 121.5341572, 25.0361824 ] } },
{ "type": "Feature", "properties": { "分類": "黃區", "分隊名稱": "金華分隊", "巷道名稱": "新生南路1段157巷", "寬度(公尺)": 5.4, "地址": "台北市大安區 新生南路1段157巷", "TOWN_NAME": "大安區", "SEC_NAME": "新生地區", "困難類別": "狹小巷道" }, "geometry": { "type": "Point", "coordinates": [ 121.5356919, 25.0349662 ] } },
{ "type": "Feature", "properties": { "分類": "黃區", "分隊名稱": "金華分隊", "巷道名稱": "新生南路1段139巷6弄", "寬度(公尺)": 5.4, "地址": "台北市大安區 新生南路1段139巷6弄", "TOWN_NAME": "大安區", "SEC_NAME": "新生地區", "困難類別": "狹小巷道" }, "geometry": { "type": "Point", "coordinates": [ 121.533571, 25.0361405 ] } },
{ "type": "Feature", "properties": { "分類": "黃區", "分隊名稱": "金華分隊", "巷道名稱": "新生南路1段133巷", "寬度(公尺)": 5.4, "地址": "台北市大安區 新生南路1段133巷", "TOWN_NAME": "大安區", "SEC_NAME": "新生地區", "困難類別": "狹小巷道" }, "geometry": { "type": "Point", "coordinates": [ 121.5333701, 25.0373798 ] } },
{ "type": "Feature", "properties": { "分類": "黃區", "分隊名稱": "金華分隊", "巷道名稱": "新生南路1段165巷", "寬度(公尺)": 5.4, "地址": "台北市大安區 新生南路1段165巷", "TOWN_NAME": "大安區", "SEC_NAME": "新生地區", "困難類別": "狹小巷道" }, "geometry": { "type": "Point", "coordinates": [ 121.5345299, 25.0341745 ] } },
{ "type": "Feature", "properties": { "分類": "紅區", "分隊名稱": "社子分隊", "巷道名稱": "葫蘆街11巷", "寬度(公尺)": 3.5, "地址": "台北市士林區 葫蘆街11巷", "TOWN_NAME": "士林區", "SEC_NAME": "社子地區", "困難類別": "狹小巷道" }, "geometry": { "type": "Point", "coordinates": [ 121.5102947, 25.0795655 ] } },
{ "type": "Feature", "properties": { "分類": "紅區", "分隊名稱": "社子分隊", "巷道名稱": "延平北路5段224巷", "寬度(公尺)": 2.9, "地址": "台北市士林區 延平北路5段224巷", "TOWN_NAME": "士林區", "SEC_NAME": "社子地區", "困難類別": "狹小巷道" }, "geometry": { "type": "Point", "coordinates": [ 121.510946, 25.0840975 ] } },
{ "type": "Feature", "properties": { "分類": "紅區", "分隊名稱": "劍潭分隊", "巷道名稱": "安平街", "寬度(公尺)": 3.0, "地址": "台北市士林區 安平街", "TOWN_NAME": "士林區", "SEC_NAME": "街上地區", "困難類別": "狹小巷道" }, "geometry": { "type": "Point", "coordinates": [ 121.5256491, 25.0884499 ] } },
{ "type": "Feature", "properties": { "分類": "紅區", "分隊名稱": "劍潭分隊", "巷道名稱": "中正路201巷", "寬度(公尺)": 3.4, "地址": "台北市士林區 中正路201巷", "TOWN_NAME": "士林區", "SEC_NAME": "街上地區", "困難類別": "狹小巷道" }, "geometry": { "type": "Point", "coordinates": [ 121.5270839, 25.0944153 ] } },
{ "type": "Feature", "properties": { "分類": "紅區", "分隊名稱": "劍潭分隊", "巷道名稱": "幸福街11巷", "寬度(公尺)": 3.6, "地址": "台北市士林區 幸福街11巷", "TOWN_NAME": "士林區", "SEC_NAME": "街上地區", "困難類別": "狹小巷道" }, "geometry": { "type": "Point", "coordinates": [ 121.5289061, 25.096761 ] } },
{ "type": "Feature", "properties": { "分類": "紅區", "分隊名稱": "劍潭分隊", "巷道名稱": "中正路223巷", "寬度(公尺)": 3.6, "地址": "台北市士林區 中正路223巷", "TOWN_NAME": "士林區", "SEC_NAME": "街上地區", "困難類別": "狹小巷道" }, "geometry": { "type": "Point", "coordinates": [ 121.5262931, 25.095225 ] } },
{ "type": "Feature", "properties": { "分類": "黃區", "分隊名稱": "劍潭分隊", "巷道名稱": "美德街", "寬度(公尺)": 4.6, "地址": "台北市士林區 美德街", "TOWN_NAME": "士林區", "SEC_NAME": "街上地區", "困難類別": "狹小巷道" }, "geometry": { "type": "Point", "coordinates": [ 121.5251406, 25.0952937 ] } },
{ "type": "Feature", "properties": { "分類": "黃區", "分隊名稱": "劍潭分隊", "巷道名稱": "福壽街", "寬度(公尺)": 5.3, "地址": "台北市士林區 福壽街", "TOWN_NAME": "士林區", "SEC_NAME": "街上地區", "困難類別": "狹小巷道" }, "geometry": { "type": "Point", "coordinates": [ 121.5255527, 25.0963482 ] } },
{ "type": "Feature", "properties": { "分類": "黃區", "分隊名稱": "劍潭分隊", "巷道名稱": "中正路235巷", "寬度(公尺)": 4.1, "地址": "台北市士林區 中正路235巷", "TOWN_NAME": "士林區", "SEC_NAME": "街上地區", "困難類別": "狹小巷道" }, "geometry": { "type": "Point", "coordinates": [ 121.5262941, 25.0941828 ] } },
{ "type": "Feature", "properties": { "分類": "黃區", "分隊名稱": "劍潭分隊", "巷道名稱": "中正路213巷", "寬度(公尺)": 4.1, "地址": "台北市士林區 中正路213巷", "TOWN_NAME": "士林區", "SEC_NAME": "街上地區", "困難類別": "狹小巷道" }, "geometry": { "type": "Point", "coordinates": [ 121.5268697, 25.093718 ] } },
{ "type": "Feature", "properties": { "分類": "黃區", "分隊名稱": "劍潭分隊", "巷道名稱": "中正路365巷", "寬度(公尺)": 4.0, "地址": "台北市士林區 中正路365巷", "TOWN_NAME": "士林區", "SEC_NAME": "街上地區", "困難類別": "狹小巷道" }, "geometry": { "type": "Point", "coordinates": [ 121.5220475, 25.0938313 ] } },
{ "type": "Feature", "properties": { "分類": "紅區", "分隊名稱": "劍潭分隊", "巷道名稱": "小西街33號至57-1號", "寬度(公尺)": 2.9, "地址": "台北市士林區 小西街33號至57-1號", "TOWN_NAME": "士林區", "SEC_NAME": "街上地區", "困難類別": "狹小巷道" }, "geometry": { "type": "Point", "coordinates": [ 121.5233342, 25.0899044 ] } },
{ "type": "Feature", "properties": { "分類": "紅區", "分隊名稱": "雙溪分隊", "巷道名稱": "故宮路15巷", "寬度(公尺)": 3.5, "地址": "台北市士林區 故宮路15巷", "TOWN_NAME": "士林區", "SEC_NAME": "陽明山士林地區", "困難類別": "狹小巷道" }, "geometry": { "type": "Point", "coordinates": [ 121.5475694, 25.0976569 ] } },
{ "type": "Feature", "properties": { "分類": "紅區", "分隊名稱": "山仔后分隊", "巷道名稱": "格致路55巷", "寬度(公尺)": 3.5, "地址": "台北市士林區 格致路55巷", "TOWN_NAME": "士林區", "SEC_NAME": "陽明山士林地區", "困難類別": "狹小巷道" }, "geometry": { "type": "Point", "coordinates": [ 121.5456355, 25.137981 ] } },
{ "type": "Feature", "properties": { "分類": "紅區", "分隊名稱": "山仔后分隊", "巷道名稱": "仰德大道2段88巷", "寬度(公尺)": 3.7, "地址": "台北市士林區 仰德大道2段88巷", "TOWN_NAME": "士林區", "SEC_NAME": "陽明山士林地區", "困難類別": "狹小巷道" }, "geometry": { "type": "Point", "coordinates": [ 121.5455913, 25.1069275 ] } },
{ "type": "Feature", "properties": { "分類": "紅區", "分隊名稱": "山仔后分隊", "巷道名稱": "華岡路1巷", "寬度(公尺)": 4.0, "地址": "台北市士林區 華岡路1巷", "TOWN_NAME": "士林區", "SEC_NAME": "陽明山士林地區", "困難類別": "狹小巷道" }, "geometry": { "type": "Point", "coordinates": [ 121.5431613, 25.1377982 ] } },
{ "type": "Feature", "properties": { "分類": "紅區", "分隊名稱": "雙溪分隊", "巷道名稱": "中社路2段185巷", "寬度(公尺)": 3.9, "地址": "台北市士林區 中社路2段185巷", "TOWN_NAME": "士林區", "SEC_NAME": "陽明山士林地區", "困難類別": "狹小巷道" }, "geometry": { "type": "Point", "coordinates": [ 121.5701017, 25.1077247 ] } },
{ "type": "Feature", "properties": { "分類": "黃區", "分隊名稱": "山仔后分隊", "巷道名稱": "愛富二街長生巷", "寬度(公尺)": 4.6, "地址": "台北市士林區 愛富二街長生巷", "TOWN_NAME": "士林區", "SEC_NAME": "陽明山士林地區", "困難類別": "狹小巷道" }, "geometry": { "type": "Point", "coordinates": [ 121.5452457, 25.1388864 ] } },
{ "type": "Feature", "properties": { "分類": "紅區", "分隊名稱": "山仔后分隊", "巷道名稱": "建業路11巷", "寬度(公尺)": 2.9, "地址": "台北市士林區 建業路11巷", "TOWN_NAME": "士林區", "SEC_NAME": "陽明山士林地區", "困難類別": "狹小巷道" }, "geometry": { "type": "Point", "coordinates": [ 121.5474534, 25.1359709 ] } },
{ "type": "Feature", "properties": { "分類": "黃區", "分隊名稱": "山仔后分隊", "巷道名稱": "新安路56巷", "寬度(公尺)": 4.1, "地址": "台北市士林區 新安路56巷", "TOWN_NAME": "士林區", "SEC_NAME": "陽明山士林地區", "困難類別": "狹小巷道" }, "geometry": { "type": "Point", "coordinates": [ 121.5556045, 25.1208682 ] } },
{ "type": "Feature", "properties": { "分類": "紅區", "分隊名稱": "雙溪分隊", "巷道名稱": "德行東路46巷4弄", "寬度(公尺)": 4.0, "地址": "台北市士林區 德行東路46巷4弄", "TOWN_NAME": "士林區", "SEC_NAME": "蘭雅地區", "困難類別": "狹小巷道" }, "geometry": { "type": "Point", "coordinates": [ 121.5262519, 25.1066073 ] } },
{ "type": "Feature", "properties": { "分類": "紅區", "分隊名稱": "石牌分隊", "巷道名稱": "明德路331巷", "寬度(公尺)": 3.8, "地址": "台北市北投區 明德路331巷", "TOWN_NAME": "北投區", "SEC_NAME": "石牌地區", "困難類別": "狹小巷道" }, "geometry": { "type": "Point", "coordinates": [ 121.5190749, 25.1160271 ] } },
{ "type": "Feature", "properties": { "分類": "黃區", "分隊名稱": "陽明山分隊", "巷道名稱": "行義路180巷", "寬度(公尺)": 5.2, "地址": "台北市北投區 行義路180巷", "TOWN_NAME": "北投區", "SEC_NAME": "石牌地區", "困難類別": "狹小巷道" }, "geometry": { "type": "Point", "coordinates": [ 121.5287232, 25.1322312 ] } },
{ "type": "Feature", "properties": { "分類": "黃區", "分隊名稱": "陽明山分隊", "巷道名稱": "行義路58巷", "寬度(公尺)": 4.6, "地址": "台北市北投區 行義路58巷", "TOWN_NAME": "北投區", "SEC_NAME": "石牌地區", "困難類別": "狹小巷道" }, "geometry": { "type": "Point", "coordinates": [ 121.528492, 25.125984 ] } },
{ "type": "Feature", "properties": { "分類": "黃區", "分隊名稱": "陽明山分隊", "巷道名稱": "行義路5巷", "寬度(公尺)": 4.3, "地址": "台北市北投區 行義路5巷", "TOWN_NAME": "北投區", "SEC_NAME": "石牌地區", "困難類別": "狹小巷道" }, "geometry": { "type": "Point", "coordinates": [ 121.5255961, 25.1244401 ] } },
{ "type": "Feature", "properties": { "分類": "紅區", "分隊名稱": "陽明山分隊", "巷道名稱": "行義路112巷", "寬度(公尺)": 3.5, "地址": "台北市北投區 行義路112巷", "TOWN_NAME": "北投區", "SEC_NAME": "石牌地區", "困難類別": "狹小巷道" }, "geometry": { "type": "Point", "coordinates": [ 121.5296214, 25.1278036 ] } },
{ "type": "Feature", "properties": { "分類": "紅區", "分隊名稱": "光明分隊", "巷道名稱": "中正街49巷31弄", "寬度(公尺)": 3.9, "地址": "台北市北投區 中正街49巷31弄", "TOWN_NAME": "北投區", "SEC_NAME": "舊北投地區", "困難類別": "狹小巷道" }, "geometry": { "type": "Point", "coordinates": [ 121.5004101, 25.1313634 ] } },
{ "type": "Feature", "properties": { "分類": "紅區", "分隊名稱": "光明分隊", "巷道名稱": "大同街125巷", "寬度(公尺)": 3.8, "地址": "台北市北投區 大同街125巷", "TOWN_NAME": "北投區", "SEC_NAME": "舊北投地區", "困難類別": "狹小巷道" }, "geometry": { "type": "Point", "coordinates": [ 121.4980292, 25.1347584 ] } },
{ "type": "Feature", "properties": { "分類": "紅區", "分隊名稱": "秀山分隊", "巷道名稱": "中華街", "寬度(公尺)": 3.7, "地址": "台北市北投區 中華街", "TOWN_NAME": "北投區", "SEC_NAME": "大屯地區", "困難類別": "狹小巷道" }, "geometry": { "type": "Point", "coordinates": [ 121.5020423, 25.1418421 ] } },
{ "type": "Feature", "properties": { "分類": "紅區", "分隊名稱": "秀山分隊", "巷道名稱": "光華一巷", "寬度(公尺)": 3.0, "地址": "台北市北投區 光華一巷", "TOWN_NAME": "北投區", "SEC_NAME": "大屯地區", "困難類別": "狹小巷道" }, "geometry": { "type": "Point", "coordinates": [ 121.4993606, 25.1435012 ] } },
{ "type": "Feature", "properties": { "分類": "紅區", "分隊名稱": "秀山分隊", "巷道名稱": "杏林三路", "寬度(公尺)": 3.2, "地址": "台北市北投區 杏林三路", "TOWN_NAME": "北投區", "SEC_NAME": "大屯地區", "困難類別": "狹小巷道" }, "geometry": { "type": "Point", "coordinates": [ 121.4975191, 25.1414548 ] } },
{ "type": "Feature", "properties": { "分類": "紅區", "分隊名稱": "秀山分隊", "巷道名稱": "杏林三路10巷", "寬度(公尺)": 3.8, "地址": "台北市北投區 杏林三路10巷", "TOWN_NAME": "北投區", "SEC_NAME": "大屯地區", "困難類別": "狹小巷道" }, "geometry": { "type": "Point", "coordinates": [ 121.4980845, 25.1415878 ] } },
{ "type": "Feature", "properties": { "分類": "黃區", "分隊名稱": "秀山分隊", "巷道名稱": "中和街474巷(458巷45弄口起至474巷65弄口)", "寬度(公尺)": 4.5, "地址": "台北市北投區 中和街474巷(458巷45弄口起至474巷65弄口)", "TOWN_NAME": "北投區", "SEC_NAME": "大屯地區", "困難類別": "狹小巷道" }, "geometry": { "type": "Point", "coordinates": [ 121.4953211, 25.1452761 ] } },
{ "type": "Feature", "properties": { "分類": "紅區", "分隊名稱": "秀山分隊", "巷道名稱": "稻香路73巷", "寬度(公尺)": 3.1, "地址": "台北市北投區 稻香路73巷", "TOWN_NAME": "北投區", "SEC_NAME": "關渡地區", "困難類別": "狹小巷道" }, "geometry": { "type": "Point", "coordinates": [ 121.4891143, 25.1405884 ] } },
{ "type": "Feature", "properties": { "分類": "紅區", "分隊名稱": "關渡分隊", "巷道名稱": "中央北路4段583巷11弄", "寬度(公尺)": 3.1, "地址": "台北市北投區 中央北路4段583巷11弄", "TOWN_NAME": "北投區", "SEC_NAME": "關渡地區", "困難類別": "狹小巷道" }, "geometry": { "type": "Point", "coordinates": [ 121.4662805, 25.1254721 ] } },
{ "type": "Feature", "properties": { "分類": "黃區", "分隊名稱": "關渡分隊", "巷道名稱": "知行路202巷", "寬度(公尺)": 4.8, "地址": "台北市北投區 知行路202巷", "TOWN_NAME": "北投區", "SEC_NAME": "關渡地區", "困難類別": "狹小巷道" }, "geometry": { "type": "Point", "coordinates": [ 121.4672389, 25.119161 ] } },
{ "type": "Feature", "properties": { "分類": "黃區", "分隊名稱": "關渡分隊", "巷道名稱": "西安橋(北投路1段)", "寬度(公尺)": 4.2, "地址": "台北市北投區 西安橋(北投路1段)", "TOWN_NAME": "北投區", "SEC_NAME": "關渡地區", "困難類別": "狹小巷道" }, "geometry": { "type": "Point", "coordinates": [ 121.5022064, 25.121698 ] } },
{ "type": "Feature", "properties": { "分類": "黃區", "分隊名稱": "秀山分隊", "巷道名稱": "石仙路（15號右側圍牆處至24號）", "寬度(公尺)": 5.3, "地址": "台北市北投區 石仙路（15號右側圍牆處至24號）", "TOWN_NAME": "北投區", "SEC_NAME": "關渡地區", "困難類別": "狹小巷道" }, "geometry": { "type": "Point", "coordinates": [ 121.4891203, 25.1418447 ] } },
{ "type": "Feature", "properties": { "分類": "紅區", "分隊名稱": "萬芳分隊", "巷道名稱": "木柵路4段159巷", "寬度(公尺)": 4.0, "地址": "台北市文山區 木柵路4段159巷", "TOWN_NAME": "文山區", "SEC_NAME": "萬芳地區", "困難類別": "狹小巷道" }, "geometry": { "type": "Point", "coordinates": [ 121.5775778, 25.0027468 ] } },
{ "type": "Feature", "properties": { "分類": "紅區", "分隊名稱": "萬芳分隊", "巷道名稱": "萬芳路26巷", "寬度(公尺)": 2.6, "地址": "台北市文山區 萬芳路26巷", "TOWN_NAME": "文山區", "SEC_NAME": "萬芳地區", "困難類別": "狹小巷道" }, "geometry": { "type": "Point", "coordinates": [ 121.5698541, 24.9958165 ] } },
{ "type": "Feature", "properties": { "分類": "紅區", "分隊名稱": "萬芳分隊", "巷道名稱": "木柵路4段33巷", "寬度(公尺)": 3.6, "地址": "台北市文山區 木柵路4段33巷", "TOWN_NAME": "文山區", "SEC_NAME": "萬芳地區", "困難類別": "狹小巷道" }, "geometry": { "type": "Point", "coordinates": [ 121.5710043, 24.9944818 ] } },
{ "type": "Feature", "properties": { "分類": "紅區", "分隊名稱": "內湖分隊", "巷道名稱": "康寧路3段180巷", "寬度(公尺)": 3.9, "地址": "台北市內湖區 康寧路3段180巷", "TOWN_NAME": "內湖區", "SEC_NAME": "東湖地區", "困難類別": "狹小巷道" }, "geometry": { "type": "Point", "coordinates": [ 121.611361, 25.0690975 ] } },
{ "type": "Feature", "properties": { "分類": "紅區", "分隊名稱": "內湖分隊", "巷道名稱": "民權東路6段280巷45弄", "寬度(公尺)": 3.7, "地址": "台北市內湖區 民權東路6段280巷45弄", "TOWN_NAME": "內湖區", "SEC_NAME": "東湖地區", "困難類別": "狹小巷道" }, "geometry": { "type": "Point", "coordinates": [ 121.6056478, 25.0698803 ] } },
{ "type": "Feature", "properties": { "分類": "紅區", "分隊名稱": "泉州分隊", "巷道名稱": "中華路2段443巷1-32號", "寬度(公尺)": 3.5, "地址": "台北市中正區 中華路2段443巷1-32號", "TOWN_NAME": "中正區", "SEC_NAME": "崁頂地區", "困難類別": "狹小巷道" }, "geometry": { "type": "Point", "coordinates": [ 121.5095169, 25.0252204 ] } },
{ "type": "Feature", "properties": { "分類": "紅區", "分隊名稱": "泉州分隊", "巷道名稱": "大埔街21巷", "寬度(公尺)": 3.4, "地址": "台北市中正區 大埔街21巷", "TOWN_NAME": "中正區", "SEC_NAME": "崁頂地區", "困難類別": "狹小巷道" }, "geometry": { "type": "Point", "coordinates": [ 121.5059635, 25.0322778 ] } },
{ "type": "Feature", "properties": { "分類": "紅區", "分隊名稱": "泉州分隊", "巷道名稱": "中華路2段441巷", "寬度(公尺)": 3.7, "地址": "台北市中正區 中華路2段441巷", "TOWN_NAME": "中正區", "SEC_NAME": "崁頂地區", "困難類別": "狹小巷道" }, "geometry": { "type": "Point", "coordinates": [ 121.5091222, 25.0256667 ] } },
{ "type": "Feature", "properties": { "分類": "黃區", "分隊名稱": "泉州分隊", "巷道名稱": "汀州路1段140巷及140巷13弄", "寬度(公尺)": 4.0, "地址": "台北市中正區 汀州路1段140巷及140巷13弄", "TOWN_NAME": "中正區", "SEC_NAME": "崁頂地區", "困難類別": "狹小巷道" }, "geometry": { "type": "Point", "coordinates": [ 121.5062763, 25.0289303 ] } },
{ "type": "Feature", "properties": { "分類": "黃區", "分隊名稱": "泉州分隊", "巷道名稱": "和平西路2段98巷2弄", "寬度(公尺)": 4.2, "地址": "台北市中正區 和平西路2段98巷2弄", "TOWN_NAME": "中正區", "SEC_NAME": "崁頂地區", "困難類別": "狹小巷道" }, "geometry": { "type": "Point", "coordinates": [ 121.5096301, 25.0293698 ] } },
{ "type": "Feature", "properties": { "分類": "紅區", "分隊名稱": "雙園分隊", "巷道名稱": "西藏路135號旁與131號中間巷道", "寬度(公尺)": 2.9, "地址": "台北市萬華區 西藏路135號旁與131號中間巷道", "TOWN_NAME": "萬華區", "SEC_NAME": "青年地區", "困難類別": "狹小巷道" }, "geometry": { "type": "Point", "coordinates": [ 121.5017782, 25.0294403 ] } },
{ "type": "Feature", "properties": { "分類": "紅區", "分隊名稱": "雙園分隊", "巷道名稱": "萬大路277巷48號前", "寬度(公尺)": 3.6, "地址": "台北市萬華區 萬大路277巷48號前", "TOWN_NAME": "萬華區", "SEC_NAME": "青年地區", "困難類別": "狹小巷道" }, "geometry": { "type": "Point", "coordinates": [ 121.502932, 25.0253803 ] } },
{ "type": "Feature", "properties": { "分類": "黃區", "分隊名稱": "松江分隊", "巷道名稱": "建國北路2段64巷", "寬度(公尺)": 4.9, "地址": "台北市中山區 建國北路2段64巷", "TOWN_NAME": "中山區", "SEC_NAME": "長春地區", "困難類別": "狹小巷道" }, "geometry": { "type": "Point", "coordinates": [ 121.5359485, 25.0543369 ] } },
{ "type": "Feature", "properties": { "分類": "黃區", "分隊名稱": "內湖分隊", "巷道名稱": "成功路2段312巷", "寬度(公尺)": 5.3, "地址": "台北市內湖區 成功路2段312巷", "TOWN_NAME": "內湖區", "SEC_NAME": "灣仔地區", "困難類別": "狹小巷道" }, "geometry": { "type": "Point", "coordinates": [ 121.5894352, 25.0670263 ] } },
{ "type": "Feature", "properties": { "分類": "黃區", "分隊名稱": "雙溪分隊", "巷道名稱": "芝玉路1段", "寬度(公尺)": 4.6, "地址": "台北市士林區 芝玉路1段", "TOWN_NAME": "士林區", "SEC_NAME": "芝山岩地區", "困難類別": "狹小巷道" }, "geometry": { "type": "Point", "coordinates": [ 121.5353998, 25.1051669 ] } },
{ "type": "Feature", "properties": { "分類": "紅區", "分隊名稱": "光明分隊", "巷道名稱": "大同街174巷", "寬度(公尺)": 3.0, "地址": "台北市北投區 大同街174巷", "TOWN_NAME": "北投區", "SEC_NAME": "新北投地區", "困難類別": "狹小巷道" }, "geometry": { "type": "Point", "coordinates": [ 121.4997195, 25.1361811 ] } }
]
}
