{
  "type": "FeatureCollection",
  "features": [
 {
   "type": "Feature",
   "geometry": {
      "type": "Point",
      "coordinates":  [ 121.56560601739471,25.024876010150123 ]
   },
   "properties": {
   "地址":" 臺北市信義區吳興街394巷60號",
   "面積":718.5,
   "容留人數":958,
   "無障礙設施":""
   }
 },
 {
   "type": "Feature",
   "geometry": {
      "type": "Point",
      "coordinates":  [ 121.56811103297775,25.024147999949818 ]
   },
   "properties": {
   "地址":" 臺北市信義區吳興街434號",
   "面積":121.5,
   "容留人數":162,
   "無障礙設施":""
   }
 },
 {
   "type": "Feature",
   "geometry": {
      "type": "Point",
      "coordinates":  [ 121.56849098464869,25.024159986071368 ]
   },
   "properties": {
   "地址":" 臺北市信義區吳興街443號",
   "面積":223.5,
   "容留人數":298,
   "無障礙設施":""
   }
 },
 {
   "type": "Feature",
   "geometry": {
      "type": "Point",
      "coordinates":  [ 121.53009298328783,25.037998005299826 ]
   },
   "properties": {
   "地址":"100臺北市中正區三愛里仁愛路二段74號5樓之3",
   "面積":1046.62,
   "容留人數":1395,
   "無障礙設施":"有"
   }
 },
 {
   "type": "Feature",
   "geometry": {
      "type": "Point",
      "coordinates":  [ 121.52602499421965,25.040674011707623 ]
   },
   "properties": {
   "地址":"100臺北市中正區文北里杭州南路一段53號14樓之1",
   "面積":2327.95,
   "容留人數":3104,
   "無障礙設施":"有"
   }
 },
 {
   "type": "Feature",
   "geometry": {
      "type": "Point",
      "coordinates":  [ 121.52693602327582,25.039359016827945 ]
   },
   "properties": {
   "地址":"100臺北市中正區文北里杭州南路一段71巷16號3樓",
   "面積":1279.82,
   "容留人數":1706,
   "無障礙設施":"有"
   }
 },
 {
   "type": "Feature",
   "geometry": {
      "type": "Point",
      "coordinates":  [ 121.52866303060608,25.03869198497324 ]
   },
   "properties": {
   "地址":"100臺北市中正區文北里金山南路一段57號3樓",
   "面積":845.35,
   "容留人數":1127,
   "無障礙設施":"有"
   }
 },
 {
   "type": "Feature",
   "geometry": {
      "type": "Point",
      "coordinates":  [ 121.52369499277495,25.04544800848022 ]
   },
   "properties": {
   "地址":"100臺北市中正區梅花里林森北路7之1號",
   "面積":367.83,
   "容留人數":490,
   "無障礙設施":"有"
   }
 },
 {
   "type": "Feature",
   "geometry": {
      "type": "Point",
      "coordinates":  [ 121.536286036268,25.012249008292443 ]
   },
   "properties": {
   "地址":"100臺北市中正區水源里羅斯福路四段170號3樓",
   "面積":192.21,
   "容留人數":256,
   "無障礙設施":"有"
   }
 },
 {
   "type": "Feature",
   "geometry": {
      "type": "Point",
      "coordinates":  [ 121.51224221173311,25.028484419467148 ]
   },
   "properties": {
   "地址":"100臺北市中正區永功里和平西路二段52巷2之1號",
   "面積":27.45,
   "容留人數":37,
   "無障礙設施":"有"
   }
 },
 {
   "type": "Feature",
   "geometry": {
      "type": "Point",
      "coordinates":  [ 121.51819931413894,25.032474079650115 ]
   },
   "properties": {
   "地址":"100臺北市中正區龍福里羅斯福路一段8號2樓",
   "面積":2344.61,
   "容留人數":3126,
   "無障礙設施":"有"
   }
 },
 {
   "type": "Feature",
   "geometry": {
      "type": "Point",
      "coordinates":  [ 121.51847600076275,25.056716010466545 ]
   },
   "properties": {
   "地址":"103臺北市大同區光能里承德路二段109巷3號",
   "面積":242.95,
   "容留人數":324,
   "無障礙設施":"有"
   }
 },
 {
   "type": "Feature",
   "geometry": {
      "type": "Point",
      "coordinates":  [ 121.51846300881283,25.05457799651407 ]
   },
   "properties": {
   "地址":"103臺北市大同區光能里承德路二段33之1號",
   "面積":268,
   "容留人數":357,
   "無障礙設施":"有"
   }
 },
 {
   "type": "Feature",
   "geometry": {
      "type": "Point",
      "coordinates":  [ 121.51045099902456,25.062146016891177 ]
   },
   "properties": {
   "地址":"103臺北市大同區南芳里延平北路二段272巷17號",
   "面積":321.49,
   "容留人數":429,
   "無障礙設施":"有"
   }
 },
 {
   "type": "Feature",
   "geometry": {
      "type": "Point",
      "coordinates":  [ 121.51007829652964,25.068590485142238 ]
   },
   "properties": {
   "地址":"103臺北市大同區國順里民族西路322號",
   "面積":1859.03,
   "容留人數":2479,
   "無障礙設施":"有"
   }
 },
 {
   "type": "Feature",
   "geometry": {
      "type": "Point",
      "coordinates":  [ 121.51138600032374,25.058191979796717 ]
   },
   "properties": {
   "地址":"103臺北市大同區大有里延平北路二段170號",
   "面積":335.45,
   "容留人數":447,
   "無障礙設施":"有"
   }
 },
 {
   "type": "Feature",
   "geometry": {
      "type": "Point",
      "coordinates":  [ 121.51719398867209,25.050694996049018 ]
   },
   "properties": {
   "地址":"103臺北市大同區建明里承德路一段23號",
   "面積":1490.99,
   "容留人數":1988,
   "無障礙設施":"有"
   }
 },
 {
   "type": "Feature",
   "geometry": {
      "type": "Point",
      "coordinates":  [ 121.51740102168054,25.0529840099872 ]
   },
   "properties": {
   "地址":"103臺北市大同區建泰里承德路一段86號",
   "面積":216.56,
   "容留人數":289,
   "無障礙設施":"有"
   }
 },
 {
   "type": "Feature",
   "geometry": {
      "type": "Point",
      "coordinates":  [ 121.51603502292,25.051231982675958 ]
   },
   "properties": {
   "地址":"103臺北市大同區建泰里長安西路107號2樓之2",
   "面積":296.65,
   "容留人數":396,
   "無障礙設施":"有"
   }
 },
 {
   "type": "Feature",
   "geometry": {
      "type": "Point",
      "coordinates":  [ 121.5082420322617,25.05340499107419 ]
   },
   "properties": {
   "地址":"103臺北市大同區玉泉里南京西路448號",
   "面積":652.27,
   "容留人數":870,
   "無障礙設施":"有"
   }
 },
 {
   "type": "Feature",
   "geometry": {
      "type": "Point",
      "coordinates":  [ 121.5116060252821,25.050209013302904 ]
   },
   "properties": {
   "地址":"103臺北市大同區玉泉里鄭州路101號11樓之5",
   "面積":1222.68,
   "容留人數":1630,
   "無障礙設施":"有"
   }
 },
 {
   "type": "Feature",
   "geometry": {
      "type": "Point",
      "coordinates":  [ 121.51796897943967,25.058657007784888 ]
   },
   "properties": {
   "地址":"103臺北市大同區雙連里承德路二段112號6樓之1",
   "面積":77.42,
   "容留人數":103,
   "無障礙設施":"有"
   }
 },
 {
   "type": "Feature",
   "geometry": {
      "type": "Point",
      "coordinates":  [ 121.51737998310352,25.059284979970798 ]
   },
   "properties": {
   "地址":"103臺北市大同區雙連里興城街70號12樓之7",
   "面積":1797.3,
   "容留人數":2396,
   "無障礙設施":"有"
   }
 },
 {
   "type": "Feature",
   "geometry": {
      "type": "Point",
      "coordinates":  [ 121.53331599269683,25.055941983617814 ]
   },
   "properties": {
   "地址":"104臺北市中山區中央里松江路169號",
   "面積":806.71,
   "容留人數":1076,
   "無障礙設施":"有"
   }
 },
 {
   "type": "Feature",
   "geometry": {
      "type": "Point",
      "coordinates":  [ 121.52416102659151,25.057386017896874 ]
   },
   "properties": {
   "地址":"104臺北市中山區中山里中山北路二段77巷12號7樓之1",
   "面積":134.98,
   "容留人數":180,
   "無障礙設施":"有"
   }
 },
 {
   "type": "Feature",
   "geometry": {
      "type": "Point",
      "coordinates":  [ 121.52481297102048,25.05733199653092 ]
   },
   "properties": {
   "地址":"104臺北市中山區中山里中山北路二段77巷20之1號",
   "面積":319.98,
   "容留人數":427,
   "無障礙設施":"有"
   }
 },
 {
   "type": "Feature",
   "geometry": {
      "type": "Point",
      "coordinates":  [ 121.5374170064635,25.045656005407523 ]
   },
   "properties": {
   "地址":"104臺北市中山區埤頭里八德路二段146巷1弄8號2樓",
   "面積":1100.68,
   "容留人數":1468,
   "無障礙設施":"有"
   }
 },
 {
   "type": "Feature",
   "geometry": {
      "type": "Point",
      "coordinates":  [ 121.54042904245976,25.053324397459754 ]
   },
   "properties": {
   "地址":"104臺北市中山區復華里龍江路128號2樓",
   "面積":1338.87,
   "容留人數":1785,
   "無障礙設施":"有"
   }
 },
 {
   "type": "Feature",
   "geometry": {
      "type": "Point",
      "coordinates":  [ 121.55430201513428,25.0824380177457 ]
   },
   "properties": {
   "地址":"104臺北市中山區成功里敬業二路89號7樓",
   "面積":379.99,
   "容留人數":507,
   "無障礙設施":"有"
   }
 },
 {
   "type": "Feature",
   "geometry": {
      "type": "Point",
      "coordinates":  [ 121.53161102977191,25.063333984028233 ]
   },
   "properties": {
   "地址":"104臺北市中山區新福里民權東路二段71巷8號14樓之8",
   "面積":1056.11,
   "容留人數":1408,
   "無障礙設施":"有"
   }
 },
 {
   "type": "Feature",
   "geometry": {
      "type": "Point",
      "coordinates":  [ 121.5237560130301,25.066561980669647 ]
   },
   "properties": {
   "地址":"104臺北市中山區晴光里德惠街12號6樓之1",
   "面積":625.01,
   "容留人數":833,
   "無障礙設施":"有"
   }
 },
 {
   "type": "Feature",
   "geometry": {
      "type": "Point",
      "coordinates":  [ 121.52509803954752,25.06503098414514 ]
   },
   "properties": {
   "地址":"104臺北市中山區晴光里農安街33號7樓之1",
   "面積":288.88,
   "容留人數":385,
   "無障礙設施":"有"
   }
 },
 {
   "type": "Feature",
   "geometry": {
      "type": "Point",
      "coordinates":  [ 121.53516596254667,25.061171997832673 ]
   },
   "properties": {
   "地址":"104臺北市中山區松江里建國北路二段226巷55之1號",
   "面積":1544.15,
   "容留人數":2059,
   "無障礙設施":"有"
   }
 },
 {
   "type": "Feature",
   "geometry": {
      "type": "Point",
      "coordinates":  [ 121.52216998931124,25.048784005944057 ]
   },
   "properties": {
   "地址":"104臺北市中山區正得里中山北路一段33巷15號9樓之1",
   "面積":1288.42,
   "容留人數":1718,
   "無障礙設施":"有"
   }
 },
 {
   "type": "Feature",
   "geometry": {
      "type": "Point",
      "coordinates":  [ 121.54175698828965,25.05886601054057 ]
   },
   "properties": {
   "地址":"104臺北市中山區江山里民生東路三段65巷2之1號3樓",
   "面積":454.42,
   "容留人數":606,
   "無障礙設施":"有"
   }
 },
 {
   "type": "Feature",
   "geometry": {
      "type": "Point",
      "coordinates":  [ 121.52306903224581,25.062586988817245 ]
   },
   "properties": {
   "地址":"104臺北市中山區聚葉里民權東路一段2號",
   "面積":1755.06,
   "容留人數":2340,
   "無障礙設施":"有"
   }
 },
 {
   "type": "Feature",
   "geometry": {
      "type": "Point",
      "coordinates":  [ 121.55429002901275,25.082539019678975 ]
   },
   "properties": {
   "地址":"104臺北市中山區金泰里樂群三路200號",
   "面積":3938.63,
   "容留人數":5252,
   "無障礙設施":"有"
   }
 },
 {
   "type": "Feature",
   "geometry": {
      "type": "Point",
      "coordinates":  [ 121.56190165495799,25.07921652664705 ]
   },
   "properties": {
   "地址":"104臺北市中山區金泰里樂群二路266巷18號2樓",
   "面積":443.25,
   "容留人數":591,
   "無障礙設施":"有"
   }
 },
 {
   "type": "Feature",
   "geometry": {
      "type": "Point",
      "coordinates":  [ 121.52212003316828,25.062376016314317 ]
   },
   "properties": {
   "地址":"104臺北市中山區集英里民權西路10巷1號",
   "面積":1438.82,
   "容留人數":1918,
   "無障礙設施":"有"
   }
 },
 {
   "type": "Feature",
   "geometry": {
      "type": "Point",
      "coordinates":  [ 121.5445680271576,25.049116013128824 ]
   },
   "properties": {
   "地址":"105臺北市松山區中正里南京東路三段256巷55號",
   "面積":513.79,
   "容留人數":685,
   "無障礙設施":"有"
   }
 },
 {
   "type": "Feature",
   "geometry": {
      "type": "Point",
      "coordinates":  [ 121.54609864922533,25.049284035014832 ]
   },
   "properties": {
   "地址":"105臺北市松山區中正里敦化北路4巷25弄18號2樓",
   "面積":454.77,
   "容留人數":606,
   "無障礙設施":"有"
   }
 },
 {
   "type": "Feature",
   "geometry": {
      "type": "Point",
      "coordinates":  [ 121.57379597498749,25.05014199998702 ]
   },
   "properties": {
   "地址":"105臺北市松山區慈祐里八德路四段579號4樓",
   "面積":234.83,
   "容留人數":313,
   "無障礙設施":"有"
   }
 },
 {
   "type": "Feature",
   "geometry": {
      "type": "Point",
      "coordinates":  [ 121.57423996439866,25.05047601882856 ]
   },
   "properties": {
   "地址":"105臺北市松山區慈祐里饒河街121號",
   "面積":573.02,
   "容留人數":764,
   "無障礙設施":"有"
   }
 },
 {
   "type": "Feature",
   "geometry": {
      "type": "Point",
      "coordinates":  [ 121.54470059869622,25.054599622032818 ]
   },
   "properties": {
   "地址":"105臺北市松山區松基里長春路337號2樓",
   "面積":170.85,
   "容留人數":228,
   "無障礙設施":"有"
   }
 },
 {
   "type": "Feature",
   "geometry": {
      "type": "Point",
      "coordinates":  [ 121.5480040207263,25.04610799953626 ]
   },
   "properties": {
   "地址":"105臺北市松山區福成里敦化南路一段100巷11號3樓",
   "面積":137.07,
   "容留人數":183,
   "無障礙設施":"有"
   }
 },
 {
   "type": "Feature",
   "geometry": {
      "type": "Point",
      "coordinates":  [ 121.55377202739646,25.051058980194412 ]
   },
   "properties": {
   "地址":"105臺北市松山區美仁里南京東路四段52巷3號2樓",
   "面積":128.53,
   "容留人數":171,
   "無障礙設施":"有"
   }
 },
 {
   "type": "Feature",
   "geometry": {
      "type": "Point",
      "coordinates":  [ 121.56848000435554,25.057146002099458 ]
   },
   "properties": {
   "地址":"105臺北市松山區鵬程里延壽街18巷1號2樓",
   "面積":1134.8,
   "容留人數":1513,
   "無障礙設施":"有"
   }
 },
 {
   "type": "Feature",
   "geometry": {
      "type": "Point",
      "coordinates":  [ 121.5440900072195,25.033558991287634 ]
   },
   "properties": {
   "地址":"106臺北市大安區仁慈里信義路四段19巷1號2樓",
   "面積":53,
   "容留人數":71,
   "無障礙設施":"有"
   }
 },
 {
   "type": "Feature",
   "geometry": {
      "type": "Point",
      "coordinates":  [ 121.54039702449944,25.03367499682757 ]
   },
   "properties": {
   "地址":"106臺北市大安區和安里信義路三段143號",
   "面積":2324.87,
   "容留人數":3100,
   "無障礙設施":"有"
   }
 },
 {
   "type": "Feature",
   "geometry": {
      "type": "Point",
      "coordinates":  [ 121.54342096370806,25.035977002715683 ]
   },
   "properties": {
   "地址":"106臺北市大安區和安里復興南路一段342號13樓之8",
   "面積":239.64,
   "容留人數":320,
   "無障礙設施":"有"
   }
 },
 {
   "type": "Feature",
   "geometry": {
      "type": "Point",
      "coordinates":  [ 121.53736065657488,25.010806870820407 ]
   },
   "properties": {
   "地址":"106臺北市大安區學府里羅斯福路四段113巷8號",
   "面積":1936.03,
   "容留人數":2581,
   "無障礙設施":"有"
   }
 },
 {
   "type": "Feature",
   "geometry": {
      "type": "Point",
      "coordinates":  [ 121.5530129622449,25.01366798068102 ]
   },
   "properties": {
   "地址":"106臺北市大安區學府里辛亥路三段330號",
   "面積":4159.73,
   "容留人數":5546,
   "無障礙設施":"有"
   }
 },
 {
   "type": "Feature",
   "geometry": {
      "type": "Point",
      "coordinates":  [ 121.536219986871,25.03447199009102 ]
   },
   "properties": {
   "地址":"106臺北市大安區民炤里新生南路一段161巷32號3樓",
   "面積":587.86,
   "容留人數":784,
   "無障礙設施":"有"
   }
 },
 {
   "type": "Feature",
   "geometry": {
      "type": "Point",
      "coordinates":  [ 121.53647203069949,25.04160498969331 ]
   },
   "properties": {
   "地址":"106臺北市大安區民輝里忠孝東路三段98號2樓",
   "面積":249.29,
   "容留人數":332,
   "無障礙設施":"有"
   }
 },
 {
   "type": "Feature",
   "geometry": {
      "type": "Point",
      "coordinates":  [ 121.53329897743339,25.04122399028448 ]
   },
   "properties": {
   "地址":"106臺北市大安區民輝里新生南路一段97巷1號3樓",
   "面積":651.52,
   "容留人數":869,
   "無障礙設施":"有"
   }
 },
 {
   "type": "Feature",
   "geometry": {
      "type": "Point",
      "coordinates":  [ 121.54917497259993,25.032470014427076 ]
   },
   "properties": {
   "地址":"106臺北市大安區義安里敦化南路二段19號3樓",
   "面積":1329.15,
   "容留人數":1772,
   "無障礙設施":"有"
   }
 },
 {
   "type": "Feature",
   "geometry": {
      "type": "Point",
      "coordinates":  [ 121.54316227747282,25.03822623312836 ]
   },
   "properties": {
   "地址":"106臺北市大安區義村里仁愛路三段157號2樓",
   "面積":2636.74,
   "容留人數":3516,
   "無障礙設施":"有"
   }
 },
 {
   "type": "Feature",
   "geometry": {
      "type": "Point",
      "coordinates":  [ 121.550534430529,25.016637438488726 ]
   },
   "properties": {
   "地址":"106臺北市大安區黎元里臥龍街188巷43號2樓",
   "面積":775.58,
   "容留人數":1034,
   "無障礙設施":"有"
   }
 },
 {
   "type": "Feature",
   "geometry": {
      "type": "Point",
      "coordinates":  [ 121.55851501112733,25.017095005613328 ]
   },
   "properties": {
   "地址":"106臺北市大安區黎和里臥龍街291號2樓",
   "面積":1470.28,
   "容留人數":1960,
   "無障礙設施":"有"
   }
 },
 {
   "type": "Feature",
   "geometry": {
      "type": "Point",
      "coordinates":  [ 121.52791938815636,25.023622496530237 ]
   },
   "properties": {
   "地址":"106臺北市大安區龍坡里雲和街101號4樓",
   "面積":148.71,
   "容留人數":198,
   "無障礙設施":"有"
   }
 },
 {
   "type": "Feature",
   "geometry": {
      "type": "Point",
      "coordinates":  [ 121.53989796598438,25.023684019699544 ]
   },
   "properties": {
   "地址":"106臺北市大安區龍淵里和平東路二段76巷17弄1之2號",
   "面積":398.29,
   "容留人數":531,
   "無障礙設施":"有"
   }
 },
 {
   "type": "Feature",
   "geometry": {
      "type": "Point",
      "coordinates":  [ 121.54014598649934,25.02337598475785 ]
   },
   "properties": {
   "地址":"106臺北市大安區龍淵里和平東路二段76巷17弄3號2樓",
   "面積":846.96,
   "容留人數":1129,
   "無障礙設施":"有"
   }
 },
 {
   "type": "Feature",
   "geometry": {
      "type": "Point",
      "coordinates":  [ 121.54322809611597,25.026338191249565 ]
   },
   "properties": {
   "地址":"106臺北市大安區龍生里復興南路二段218號15樓之1",
   "面積":1145.34,
   "容留人數":1527,
   "無障礙設施":"有"
   }
 },
 {
   "type": "Feature",
   "geometry": {
      "type": "Point",
      "coordinates":  [ 121.50546263396129,25.039056324607216 ]
   },
   "properties": {
   "地址":"108臺北市萬華區仁德里柳州街9號",
   "面積":1113.15,
   "容留人數":1484,
   "無障礙設施":"有"
   }
 },
 {
   "type": "Feature",
   "geometry": {
      "type": "Point",
      "coordinates":  [ 121.49892739090086,25.022275315142366 ]
   },
   "properties": {
   "地址":"108臺北市萬華區全德里萬大路384號",
   "面積":315.64,
   "容留人數":421,
   "無障礙設施":"有"
   }
 },
 {
   "type": "Feature",
   "geometry": {
      "type": "Point",
      "coordinates":  [ 121.49469402688311,25.02433600603804 ]
   },
   "properties": {
   "地址":"108臺北市萬華區孝德里寶興街140巷5號2樓之1",
   "面積":1296.18,
   "容留人數":1728,
   "無障礙設施":"有"
   }
 },
 {
   "type": "Feature",
   "geometry": {
      "type": "Point",
      "coordinates":  [ 121.5032999783304,25.026037993387334 ]
   },
   "properties": {
   "地址":"108臺北市萬華區新安里西藏路125巷31號",
   "面積":1204.24,
   "容留人數":1606,
   "無障礙設施":"有"
   }
 },
 {
   "type": "Feature",
   "geometry": {
      "type": "Point",
      "coordinates":  [ 121.50588403526035,25.03956998933087 ]
   },
   "properties": {
   "地址":"108臺北市萬華區新起里貴陽街二段11號3樓",
   "面積":286.33,
   "容留人數":382,
   "無障礙設施":"有"
   }
 },
 {
   "type": "Feature",
   "geometry": {
      "type": "Point",
      "coordinates":  [ 121.49752803216575,25.025482985668575 ]
   },
   "properties": {
   "地址":"108臺北市萬華區日善里民和街100號14樓之3",
   "面積":1646.15,
   "容留人數":2195,
   "無障礙設施":"有"
   }
 },
 {
   "type": "Feature",
   "geometry": {
      "type": "Point",
      "coordinates":  [ 121.50586581143575,25.046878892786072 ]
   },
   "properties": {
   "地址":"108臺北市萬華區福星里開封街二段39號11樓之10",
   "面積":2425.19,
   "容留人數":3234,
   "無障礙設施":"有"
   }
 },
 {
   "type": "Feature",
   "geometry": {
      "type": "Point",
      "coordinates":  [ 121.49593203398211,25.033874989037344 ]
   },
   "properties": {
   "地址":"108臺北市萬華區糖蔀里大理街136號",
   "面積":922.25,
   "容留人數":1230,
   "無障礙設施":"有"
   }
 },
 {
   "type": "Feature",
   "geometry": {
      "type": "Point",
      "coordinates":  [ 121.50866498309591,25.044995008523102 ]
   },
   "properties": {
   "地址":"108臺北市萬華區萬壽里中華路一段88號1樓",
   "面積":1344.91,
   "容留人數":1793,
   "無障礙設施":"有"
   }
 },
 {
   "type": "Feature",
   "geometry": {
      "type": "Point",
      "coordinates":  [ 121.50439297850448,25.046153010356306 ]
   },
   "properties": {
   "地址":"108臺北市萬華區萬壽里漢口街二段88號",
   "面積":934.23,
   "容留人數":1246,
   "無障礙設施":"有"
   }
 },
 {
   "type": "Feature",
   "geometry": {
      "type": "Point",
      "coordinates":  [ 121.49917163279949,25.031239533371714 ]
   },
   "properties": {
   "地址":"108臺北市萬華區雙園里莒光路270號2樓",
   "面積":590.36,
   "容留人數":787,
   "無障礙設施":"有"
   }
 },
 {
   "type": "Feature",
   "geometry": {
      "type": "Point",
      "coordinates":  [ 121.50045473573239,25.032093225185164 ]
   },
   "properties": {
   "地址":"108臺北市萬華區雙園里萬大路26號",
   "面積":2220.63,
   "容留人數":2961,
   "無障礙設施":"有"
   }
 },
 {
   "type": "Feature",
   "geometry": {
      "type": "Point",
      "coordinates":  [ 121.57276701255364,25.045380995164336 ]
   },
   "properties": {
   "地址":"110臺北市信義區五全里永吉路202號4樓",
   "面積":1921.49,
   "容留人數":2562,
   "無障礙設施":"有"
   }
 },
 {
   "type": "Feature",
   "geometry": {
      "type": "Point",
      "coordinates":  [ 121.57433099186716,25.04687100418232 ]
   },
   "properties": {
   "地址":"110臺北市信義區五常里永吉路225巷9號10樓之1",
   "面積":1188.1,
   "容留人數":1584,
   "無障礙設施":"有"
   }
 },
 {
   "type": "Feature",
   "geometry": {
      "type": "Point",
      "coordinates":  [ 121.58257293712674,25.04046968944302 ]
   },
   "properties": {
   "地址":"110臺北市信義區大仁里大道路116之1號",
   "面積":6830.93,
   "容留人數":9108,
   "無障礙設施":"有"
   }
 },
 {
   "type": "Feature",
   "geometry": {
      "type": "Point",
      "coordinates":  [ 121.58084480112429,25.037010705938425 ]
   },
   "properties": {
   "地址":"110臺北市信義區大仁里福德街86號3樓",
   "面積":3261.56,
   "容留人數":4349,
   "無障礙設施":"有"
   }
 },
 {
   "type": "Feature",
   "geometry": {
      "type": "Point",
      "coordinates":  [ 121.58200495950041,25.042379016542057 ]
   },
   "properties": {
   "地址":"110臺北市信義區大道里忠孝東路五段790巷22弄17號3樓",
   "面積":71.97,
   "容留人數":96,
   "無障礙設施":"有"
   }
 },
 {
   "type": "Feature",
   "geometry": {
      "type": "Point",
      "coordinates":  [ 121.56648045605041,25.039205247516445 ]
   },
   "properties": {
   "地址":"110臺北市信義區廣居里松高路77號地下2層",
   "面積":10713.53,
   "容留人數":14285,
   "無障礙設施":"有"
   }
 },
 {
   "type": "Feature",
   "geometry": {
      "type": "Point",
      "coordinates":  [ 121.54532197934822,25.041892991886428 ]
   },
   "properties": {
   "地址":"110臺北市信義區新仁里忠孝東路四段515號",
   "面積":61939.92,
   "容留人數":82587,
   "無障礙設施":"有"
   }
 },
 {
   "type": "Feature",
   "geometry": {
      "type": "Point",
      "coordinates":  [ 121.55543483058115,25.023506636409035 ]
   },
   "properties": {
   "地址":"110臺北市信義區黎平里信安街170號",
   "面積":1292.94,
   "容留人數":1724,
   "無障礙設施":"有"
   }
 },
 {
   "type": "Feature",
   "geometry": {
      "type": "Point",
      "coordinates":  [ 121.55436798071224,25.025755984255 ]
   },
   "properties": {
   "地址":"110臺北市信義區黎順里基隆路二段155號",
   "面積":834.73,
   "容留人數":1113,
   "無障礙設施":"有"
   }
 },
 {
   "type": "Feature",
   "geometry": {
      "type": "Point",
      "coordinates":  [ 121.5228380269943,25.08619298463975 ]
   },
   "properties": {
   "地址":"111臺北市士林區前港里承德路四段170號",
   "面積":3681,
   "容留人數":4908,
   "無障礙設施":"有"
   }
 },
 {
   "type": "Feature",
   "geometry": {
      "type": "Point",
      "coordinates":  [ 121.52611810264634,25.117392826908166 ]
   },
   "properties": {
   "地址":"111臺北市士林區天壽里中山北路六段405巷88號13樓之2",
   "面積":843.95,
   "容留人數":1125,
   "無障礙設施":"有"
   }
 },
 {
   "type": "Feature",
   "geometry": {
      "type": "Point",
      "coordinates":  [ 121.53009700660135,25.12301900196961 ]
   },
   "properties": {
   "地址":"111臺北市士林區天母里中山北路七段141巷23號2樓",
   "面積":248.62,
   "容留人數":331,
   "無障礙設施":"有"
   }
 },
 {
   "type": "Feature",
   "geometry": {
      "type": "Point",
      "coordinates":  [ 121.5301097429564,25.12201789808085 ]
   },
   "properties": {
   "地址":"111臺北市士林區天母里中山北路七段81巷16弄5號2樓",
   "面積":814.09,
   "容留人數":1085,
   "無障礙設施":"有"
   }
 },
 {
   "type": "Feature",
   "geometry": {
      "type": "Point",
      "coordinates":  [ 121.53154003505199,25.108682008045108 ]
   },
   "properties": {
   "地址":"111臺北市士林區聖山里德行東路200號11樓",
   "面積":915.75,
   "容留人數":1221,
   "無障礙設施":"有"
   }
 },
 {
   "type": "Feature",
   "geometry": {
      "type": "Point",
      "coordinates":  [ 121.55717051562769,25.107631791927975 ]
   },
   "properties": {
   "地址":"111臺北市士林區臨溪里至善路二段421巷17號2樓",
   "面積":199.78,
   "容留人數":266,
   "無障礙設施":"有"
   }
 },
 {
   "type": "Feature",
   "geometry": {
      "type": "Point",
      "coordinates":  [ 121.50467502954632,25.138286009960936 ]
   },
   "properties": {
   "地址":"112臺北市北投區中心里泉源路19之1號",
   "面積":1876.34,
   "容留人數":2502,
   "無障礙設施":"有"
   }
 },
 {
   "type": "Feature",
   "geometry": {
      "type": "Point",
      "coordinates":  [ 121.5045574877682,25.120559617537346 ]
   },
   "properties": {
   "地址":"112臺北市北投區八仙里立農街一段187巷10弄7號",
   "面積":351.19,
   "容留人數":468,
   "無障礙設施":"有"
   }
 },
 {
   "type": "Feature",
   "geometry": {
      "type": "Point",
      "coordinates":  [ 121.50803938826702,25.11378794284193 ]
   },
   "properties": {
   "地址":"112臺北市北投區吉慶里承德路七段166之1號",
   "面積":1538.16,
   "容留人數":2051,
   "無障礙設施":"有"
   }
 },
 {
   "type": "Feature",
   "geometry": {
      "type": "Point",
      "coordinates":  [ 121.49659101920975,25.13466599170802 ]
   },
   "properties": {
   "地址":"112臺北市北投區大同里大業路520號13樓",
   "面積":1273.36,
   "容留人數":1698,
   "無障礙設施":"有"
   }
 },
 {
   "type": "Feature",
   "geometry": {
      "type": "Point",
      "coordinates":  [ 121.50420385680307,25.12921880831049 ]
   },
   "properties": {
   "地址":"112臺北市北投區奇岩里三合街一段82巷128號2樓",
   "面積":205.04,
   "容留人數":273,
   "無障礙設施":"有"
   }
 },
 {
   "type": "Feature",
   "geometry": {
      "type": "Point",
      "coordinates":  [ 121.51444080799264,25.104994439936878 ]
   },
   "properties": {
   "地址":"112臺北市北投區建民里文承路28號",
   "面積":910.49,
   "容留人數":1214,
   "無障礙設施":"有"
   }
 },
 {
   "type": "Feature",
   "geometry": {
      "type": "Point",
      "coordinates":  [ 121.52299996536362,25.118814010694066 ]
   },
   "properties": {
   "地址":"112臺北市北投區榮華里天母西路116號3樓",
   "面積":1090.63,
   "容留人數":1454,
   "無障礙設施":"有"
   }
 },
 {
   "type": "Feature",
   "geometry": {
      "type": "Point",
      "coordinates":  [ 121.51518803160411,25.116629980093165 ]
   },
   "properties": {
   "地址":"112臺北市北投區永明里義理街23號5樓",
   "面積":908.25,
   "容留人數":1211,
   "無障礙設施":"有"
   }
 },
 {
   "type": "Feature",
   "geometry": {
      "type": "Point",
      "coordinates":  [ 121.50370392855517,25.130192443205313 ]
   },
   "properties": {
   "地址":"112臺北市北投區清江里磺港路108號3樓",
   "面積":718.55,
   "容留人數":958,
   "無障礙設施":"有"
   }
 },
 {
   "type": "Feature",
   "geometry": {
      "type": "Point",
      "coordinates":  [ 121.48954415511766,25.140791094038104 ]
   },
   "properties": {
   "地址":"112臺北市北投區稻香里稻香路83號",
   "面積":1961.92,
   "容留人數":2616,
   "無障礙設施":"有"
   }
 },
 {
   "type": "Feature",
   "geometry": {
      "type": "Point",
      "coordinates":  [ 121.50735402843567,25.119501299380225 ]
   },
   "properties": {
   "地址":"112臺北市北投區立農里立農街一段333號3樓",
   "面積":551.52,
   "容留人數":735,
   "無障礙設施":"有"
   }
 },
 {
   "type": "Feature",
   "geometry": {
      "type": "Point",
      "coordinates":  [ 121.6123806413321,25.068988206362818 ]
   },
   "properties": {
   "地址":"114臺北市內湖區安湖里東湖路1號",
   "面積":2240.6,
   "容留人數":2987,
   "無障礙設施":"有"
   }
 },
 {
   "type": "Feature",
   "geometry": {
      "type": "Point",
      "coordinates":  [ 121.57806732277687,25.07434518180138 ]
   },
   "properties": {
   "地址":"114臺北市內湖區港墘里瑞光路180號",
   "面積":1256.42,
   "容留人數":1675,
   "無障礙設施":"有"
   }
 },
 {
   "type": "Feature",
   "geometry": {
      "type": "Point",
      "coordinates":  [ 121.57157301044629,25.077520019876545 ]
   },
   "properties": {
   "地址":"114臺北市內湖區港墘里瑞光路390號5樓",
   "面積":1662.19,
   "容留人數":2216,
   "無障礙設施":"有"
   }
 },
 {
   "type": "Feature",
   "geometry": {
      "type": "Point",
      "coordinates":  [ 121.58192559483443,25.06592397650152 ]
   },
   "properties": {
   "地址":"114臺北市內湖區湖元里新湖三路255號2樓",
   "面積":499.1,
   "容留人數":665,
   "無障礙設施":"有"
   }
 },
 {
   "type": "Feature",
   "geometry": {
      "type": "Point",
      "coordinates":  [ 121.57452742535511,25.071743981212755 ]
   },
   "properties": {
   "地址":"114臺北市內湖區湖元里舊宗路二段175號2樓",
   "面積":752.34,
   "容留人數":1003,
   "無障礙設施":"有"
   }
 },
 {
   "type": "Feature",
   "geometry": {
      "type": "Point",
      "coordinates":  [ 121.57985501945936,25.058798567364004 ]
   },
   "properties": {
   "地址":"114臺北市內湖區湖元里行善路266號10樓之26",
   "面積":9010.8,
   "容留人數":12014,
   "無障礙設施":"有"
   }
 },
 {
   "type": "Feature",
   "geometry": {
      "type": "Point",
      "coordinates":  [ 121.58871911540103,25.068827483369418 ]
   },
   "properties": {
   "地址":"114臺北市內湖區湖興里民權東路六段138號",
   "面積":1263.67,
   "容留人數":1685,
   "無障礙設施":"有"
   }
 },
 {
   "type": "Feature",
   "geometry": {
      "type": "Point",
      "coordinates":  [ 121.59358102574954,25.06250326831295 ]
   },
   "properties": {
   "地址":"114臺北市內湖區石潭里安康路20號4樓之3",
   "面積":3806.97,
   "容留人數":5076,
   "無障礙設施":"有"
   }
 },
 {
   "type": "Feature",
   "geometry": {
      "type": "Point",
      "coordinates":  [ 121.58579704509326,25.06490291873483 ]
   },
   "properties": {
   "地址":"114臺北市內湖區石潭里行善路365號3樓",
   "面積":1133.22,
   "容留人數":1511,
   "無障礙設施":"有"
   }
 },
 {
   "type": "Feature",
   "geometry": {
      "type": "Point",
      "coordinates":  [ 121.60652198805042,25.072909433068297 ]
   },
   "properties": {
   "地址":"114臺北市內湖區葫洲里康寧路三段2號",
   "面積":1313.03,
   "容留人數":1751,
   "無障礙設施":"有"
   }
 },
 {
   "type": "Feature",
   "geometry": {
      "type": "Point",
      "coordinates":  [ 121.57950497305927,25.054373017071924 ]
   },
   "properties": {
   "地址":"114臺北市內湖區行善里新明路428巷2號3樓",
   "面積":1440.5,
   "容留人數":1921,
   "無障礙設施":"有"
   }
 },
 {
   "type": "Feature",
   "geometry": {
      "type": "Point",
      "coordinates":  [ 121.57872403114044,25.053627991608167 ]
   },
   "properties": {
   "地址":"114臺北市內湖區行善里新明路458號2樓之1",
   "面積":529.43,
   "容留人數":706,
   "無障礙設施":"有"
   }
 },
 {
   "type": "Feature",
   "geometry": {
      "type": "Point",
      "coordinates":  [ 121.56300741205757,25.083358114270357 ]
   },
   "properties": {
   "地址":"114臺北市內湖區西康里內湖路一段98號1樓",
   "面積":847.44,
   "容留人數":1130,
   "無障礙設施":"有"
   }
 },
 {
   "type": "Feature",
   "geometry": {
      "type": "Point",
      "coordinates":  [ 121.56742104443327,25.080479767649244 ]
   },
   "properties": {
   "地址":"114臺北市內湖區西湖里基湖路3巷66號",
   "面積":20.57,
   "容留人數":27,
   "無障礙設施":"有"
   }
 },
 {
   "type": "Feature",
   "geometry": {
      "type": "Point",
      "coordinates":  [ 121.5667194086152,25.0814323934513 ]
   },
   "properties": {
   "地址":"114臺北市內湖區西湖里洲子街178號",
   "面積":1786.33,
   "容留人數":2382,
   "無障礙設施":"有"
   }
 },
 {
   "type": "Feature",
   "geometry": {
      "type": "Point",
      "coordinates":  [ 121.56617857613078,25.08044455071833 ]
   },
   "properties": {
   "地址":"114臺北市內湖區西湖里瑞光路641號2樓",
   "面積":1738.71,
   "容留人數":2318,
   "無障礙設施":"有"
   }
 },
 {
   "type": "Feature",
   "geometry": {
      "type": "Point",
      "coordinates":  [ 121.58252308718897,25.05956434855866 ]
   },
   "properties": {
   "地址":"114臺北市內湖區週美里新豐街28號3樓",
   "面積":845.68,
   "容留人數":1128,
   "無障礙設施":"有"
   }
 },
 {
   "type": "Feature",
   "geometry": {
      "type": "Point",
      "coordinates":  [ 121.61243556009036,25.05995824097857 ]
   },
   "properties": {
   "地址":"115臺北市南港區三重里三重路41巷19號8樓",
   "面積":648.17,
   "容留人數":864,
   "無障礙設施":"有"
   }
 },
 {
   "type": "Feature",
   "geometry": {
      "type": "Point",
      "coordinates":  [ 121.61966241971572,25.057803520494048 ]
   },
   "properties": {
   "地址":"115臺北市南港區三重里經貿一路166號",
   "面積":470.8,
   "容留人數":628,
   "無障礙設施":"有"
   }
 },
 {
   "type": "Feature",
   "geometry": {
      "type": "Point",
      "coordinates":  [ 121.61268035628314,25.06168294151604 ]
   },
   "properties": {
   "地址":"115臺北市南港區三重里重陽路523號4樓",
   "面積":634.13,
   "容留人數":846,
   "無障礙設施":"有"
   }
 },
 {
   "type": "Feature",
   "geometry": {
      "type": "Point",
      "coordinates":  [ 121.61009992251049,25.052350139479262 ]
   },
   "properties": {
   "地址":"115臺北市南港區中南里忠孝東路7段508號17樓之8",
   "面積":5903.76,
   "容留人數":7872,
   "無障礙設施":"有"
   }
 },
 {
   "type": "Feature",
   "geometry": {
      "type": "Point",
      "coordinates":  [ 121.59312699064293,25.046181005912914 ]
   },
   "properties": {
   "地址":"115臺北市南港區成福里東新街180巷2號2樓",
   "面積":948.68,
   "容留人數":1265,
   "無障礙設施":"有"
   }
 },
 {
   "type": "Feature",
   "geometry": {
      "type": "Point",
      "coordinates":  [ 121.60448773838789,25.056193398803558 ]
   },
   "properties": {
   "地址":"115臺北市南港區東新里東明街43號2樓之1",
   "面積":865.98,
   "容留人數":1155,
   "無障礙設施":"有"
   }
 },
 {
   "type": "Feature",
   "geometry": {
      "type": "Point",
      "coordinates":  [ 121.6172631183056,25.046440396532738 ]
   },
   "properties": {
   "地址":"115臺北市南港區舊庄里大坑街438號",
   "面積":1739.54,
   "容留人數":2319,
   "無障礙設施":"有"
   }
 },
 {
   "type": "Feature",
   "geometry": {
      "type": "Point",
      "coordinates":  [ 121.61877100431303,25.04121799722371 ]
   },
   "properties": {
   "地址":"115臺北市南港區舊莊里舊莊街一段65號",
   "面積":616.27,
   "容留人數":822,
   "無障礙設施":"有"
   }
 },
 {
   "type": "Feature",
   "geometry": {
      "type": "Point",
      "coordinates":  [ 121.59270403980867,25.055960004709647 ]
   },
   "properties": {
   "地址":"115臺北市南港區西新里成功路一段50號",
   "面積":3525.06,
   "容留人數":4700,
   "無障礙設施":"有"
   }
 },
 {
   "type": "Feature",
   "geometry": {
      "type": "Point",
      "coordinates":  [ 121.59232779444407,25.053869507283135 ]
   },
   "properties": {
   "地址":"115臺北市南港區西新里昆陽街16號14樓",
   "面積":5432.49,
   "容留人數":7243,
   "無障礙設施":"有"
   }
 },
 {
   "type": "Feature",
   "geometry": {
      "type": "Point",
      "coordinates":  [ 121.5937895490709,25.056388250736152 ]
   },
   "properties": {
   "地址":"115臺北市南港區重陽里向陽路198號",
   "面積":1627.35,
   "容留人數":2170,
   "無障礙設施":"有"
   }
 },
 {
   "type": "Feature",
   "geometry": {
      "type": "Point",
      "coordinates":  [ 121.60028657844121,25.058274783418447 ]
   },
   "properties": {
   "地址":"115臺北市南港區重陽里松河街616號2樓",
   "面積":1504.25,
   "容留人數":2006,
   "無障礙設施":"有"
   }
 },
 {
   "type": "Feature",
   "geometry": {
      "type": "Point",
      "coordinates":  [ 121.58008600658741,24.983448998529212 ]
   },
   "properties": {
   "地址":"116臺北市文山區指南里指南路三段57號4樓之5",
   "面積":662.35,
   "容留人數":883,
   "無障礙設施":"有"
   }
 },
 {
   "type": "Feature",
   "geometry": {
      "type": "Point",
      "coordinates":  [ 121.58039697519524,24.982772998038115 ]
   },
   "properties": {
   "地址":"116臺北市文山區指南里指南路三段77巷8號4樓",
   "面積":108.97,
   "容留人數":145,
   "無障礙設施":"有"
   }
 },
 {
   "type": "Feature",
   "geometry": {
      "type": "Point",
      "coordinates":  [ 121.580581971667,24.98270776520374 ]
   },
   "properties": {
   "地址":"116臺北市文山區指南里指南路三段77巷9號2樓",
   "面積":45.63,
   "容留人數":61,
   "無障礙設施":"有"
   }
 },
 {
   "type": "Feature",
   "geometry": {
      "type": "Point",
      "coordinates":  [ 121.5410445728535,24.996983506227764 ]
   },
   "properties": {
   "地址":"116臺北市文山區景仁里羅斯福路六段168之1號",
   "面積":1877.42,
   "容留人數":2503,
   "無障礙設施":"有"
   }
 },
 {
   "type": "Feature",
   "geometry": {
      "type": "Point",
      "coordinates":  [ 121.5730429,24.988065 ]
   },
   "properties": {
   "地址":"116臺北市文山區景仁里羅斯褔路六段166巷3號8樓",
   "面積":546.32,
   "容留人數":728,
   "無障礙設施":"有"
   }
 },
 {
   "type": "Feature",
   "geometry": {
      "type": "Point",
      "coordinates":  [ 121.57120202741174,24.987732989242176 ]
   },
   "properties": {
   "地址":"116臺北市文山區木新里指南路一段61號4樓",
   "面積":570.75,
   "容留人數":761,
   "無障礙設施":"有"
   }
 },
 {
   "type": "Feature",
   "geometry": {
      "type": "Point",
      "coordinates":  [ 121.56851001156889,24.988156987814307 ]
   },
   "properties": {
   "地址":"116臺北市文山區木柵里保儀路36號",
   "面積":1890.63,
   "容留人數":2521,
   "無障礙設施":"有"
   }
 },
 {
   "type": "Feature",
   "geometry": {
      "type": "Point",
      "coordinates":  [ 121.56726999281312,24.989567997394857 ]
   },
   "properties": {
   "地址":"116臺北市文山區木柵里木柵路三段85巷8弄3號6樓",
   "面積":239.98,
   "容留人數":320,
   "無障礙設施":"有"
   }
 },
 {
   "type": "Feature",
   "geometry": {
      "type": "Point",
      "coordinates":  [ 121.55720347710707,24.980929698720637 ]
   },
   "properties": {
   "地址":"116臺北市文山區樟文里木新路三段310巷9號地下1層",
   "面積":5653.31,
   "容留人數":7538,
   "無障礙設施":"有"
   }
 },
 {
   "type": "Feature",
   "geometry": {
      "type": "Point",
      "coordinates":  [ 121.54907908362759,25.000473104883213 ]
   },
   "properties": {
   "地址":"116臺北市文山區興安里興隆路二段88號",
   "面積":5224.57,
   "容留人數":6966,
   "無障礙設施":"有"
   }
 },
 {
   "type": "Feature",
   "geometry": {
      "type": "Point",
      "coordinates":  [ 121.5730429,24.988065 ]
   },
   "properties": {
   "地址":"116臺北市文山區興家里興隆路269巷5號",
   "面積":90.51,
   "容留人數":121,
   "無障礙設施":"有"
   }
 },
 {
   "type": "Feature",
   "geometry": {
      "type": "Point",
      "coordinates":  [ 121.5584470338926,24.99367098090876 ]
   },
   "properties": {
   "地址":"116臺北市文山區興德里興隆路三段304巷15號2樓",
   "面積":485.2,
   "容留人數":647,
   "無障礙設施":"有"
   }
 },
 {
   "type": "Feature",
   "geometry": {
      "type": "Point",
      "coordinates":  [ 121.54393015527347,25.000903979465246 ]
   },
   "properties": {
   "地址":"116臺北市文山區興豐里興順街106號2樓",
   "面積":366.32,
   "容留人數":488,
   "無障礙設施":"有"
   }
 },
 {
   "type": "Feature",
   "geometry": {
      "type": "Point",
      "coordinates":  [ 121.53555033993166,25.001482954172204 ]
   },
   "properties": {
   "地址":"116臺北市文山區萬和里汀州路四段281號2樓",
   "面積":2204.03,
   "容留人數":2939,
   "無障礙設施":"有"
   }
 },
 {
   "type": "Feature",
   "geometry": {
      "type": "Point",
      "coordinates":  [ 121.57369426554918,24.989470940326974 ]
   },
   "properties": {
   "地址":"116臺北市文山區萬興里新光路一段32巷27號",
   "面積":1140.98,
   "容留人數":1521,
   "無障礙設施":"有"
   }
 },
 {
   "type": "Feature",
   "geometry": {
      "type": "Point",
      "coordinates":  [ 121.57614351699837,24.99179450344283 ]
   },
   "properties": {
   "地址":"116臺北市文山區萬興里秀明路二段71號2樓",
   "面積":1338.98,
   "容留人數":1785,
   "無障礙設施":"有"
   }
 },
 {
   "type": "Feature",
   "geometry": {
      "type": "Point",
      "coordinates":  [ 121.57072607220938,24.996856513341775 ]
   },
   "properties": {
   "地址":"116臺北市文山區萬芳里萬芳路28號7樓之6",
   "面積":1281.55,
   "容留人數":1709,
   "無障礙設施":"有"
   }
 },
 {
   "type": "Feature",
   "geometry": {
      "type": "Point",
      "coordinates":  [ 121.54026500952443,25.050621989672365 ]
   },
   "properties": {
   "地址":"北市中山區龍江路62號",
   "面積":180,
   "容留人數":240,
   "無障礙設施":""
   }
 },
 {
   "type": "Feature",
   "geometry": {
      "type": "Point",
      "coordinates":  [ 121.56949002368816,25.02327800030973 ]
   },
   "properties": {
   "地址":"北市信義區吳興街494巷4號",
   "面積":210,
   "容留人數":280,
   "無障礙設施":""
   }
 },
 {
   "type": "Feature",
   "geometry": {
      "type": "Point",
      "coordinates":  [ 121.57890901974349,25.056271979145833 ]
   },
   "properties": {
   "地址":"台北市內湖區南京東路六段143號",
   "面積":766.5,
   "容留人數":1022,
   "無障礙設施":""
   }
 },
 {
   "type": "Feature",
   "geometry": {
      "type": "Point",
      "coordinates":  [ 113.53440680000006,34.75915690000005 ]
   },
   "properties": {
   "地址":"市民大道(中林段)",
   "面積":6199.5,
   "容留人數":8266,
   "無障礙設施":""
   }
 },
 {
   "type": "Feature",
   "geometry": {
      "type": "Point",
      "coordinates":  [ 113.53440680000006,34.75915690000005 ]
   },
   "properties": {
   "地址":"市民大道(公中段)",
   "面積":2299.5,
   "容留人數":3066,
   "無障礙設施":""
   }
 },
 {
   "type": "Feature",
   "geometry": {
      "type": "Point",
      "coordinates":  { }
   },
   "properties": {
   "地址":"市民大道(塔城段) 西寧北路-塔城街",
   "面積":3150,
   "容留人數":4200,
   "無障礙設施":""
   }
 },
 {
   "type": "Feature",
   "geometry": {
      "type": "Point",
      "coordinates":  [ 113.53440680000006,34.75915690000005 ]
   },
   "properties": {
   "地址":"市民大道(延吉段)",
   "面積":937.5,
   "容留人數":1250,
   "無障礙設施":""
   }
 },
 {
   "type": "Feature",
   "geometry": {
      "type": "Point",
      "coordinates":  [ 113.53440680000006,34.75915690000005 ]
   },
   "properties": {
   "地址":"市民大道(建復段)",
   "面積":2224.5,
   "容留人數":2966,
   "無障礙設施":""
   }
 },
 {
   "type": "Feature",
   "geometry": {
      "type": "Point",
      "coordinates":  [ 113.53440680000006,34.75915690000005 ]
   },
   "properties": {
   "地址":"市民大道(復敦段)",
   "面積":2674.5,
   "容留人數":3566,
   "無障礙設施":""
   }
 },
 {
   "type": "Feature",
   "geometry": {
      "type": "Point",
      "coordinates":  [ 113.53440680000006,34.75915690000005 ]
   },
   "properties": {
   "地址":"市民大道(敦延段)",
   "面積":2662.5,
   "容留人數":3550,
   "無障礙設施":""
   }
 },
 {
   "type": "Feature",
   "geometry": {
      "type": "Point",
      "coordinates":  [ 113.53440680000006,34.75915690000005 ]
   },
   "properties": {
   "地址":"市民大道(林金段)",
   "面積":12124.5,
   "容留人數":16166,
   "無障礙設施":""
   }
 },
 {
   "type": "Feature",
   "geometry": {
      "type": "Point",
      "coordinates":  { }
   },
   "properties": {
   "地址":"湖山路(陽明山公園大門口旁)",
   "面積":2196,
   "容留人數":2928,
   "無障礙設施":""
   }
 },
 {
   "type": "Feature",
   "geometry": {
      "type": "Point",
      "coordinates":  [ 121.5349010105873,25.04179500743831 ]
   },
   "properties": {
   "地址":"臺北大安區忠孝東路三段46號",
   "面積":1014.75,
   "容留人數":1353,
   "無障礙設施":""
   }
 },
 {
   "type": "Feature",
   "geometry": {
      "type": "Point",
      "coordinates":  [ 121.49414400639671,25.023383989475377 ]
   },
   "properties": {
   "地址":"臺北市108萬華區孝德里德昌街195號2樓",
   "面積":470.02,
   "容留人數":627,
   "無障礙設施":"有"
   }
 },
 {
   "type": "Feature",
   "geometry": {
      "type": "Point",
      "coordinates":  [ 121.53162100423668,25.054136395945278 ]
   },
   "properties": {
   "地址":"臺北市中山區一江街37號",
   "面積":591,
   "容留人數":788,
   "無障礙設施":""
   }
 },
 {
   "type": "Feature",
   "geometry": {
      "type": "Point",
      "coordinates":  [ 121.52881801199578,25.05764900010901 ]
   },
   "properties": {
   "地址":"臺北市中山區中原街46號",
   "面積":114.75,
   "容留人數":153,
   "無障礙設施":""
   }
 },
 {
   "type": "Feature",
   "geometry": {
      "type": "Point",
      "coordinates":  [ 121.52242899011935,25.05083400991319 ]
   },
   "properties": {
   "地址":"臺北市中山區中山北路一段101號",
   "面積":908.25,
   "容留人數":1211,
   "無障礙設施":""
   }
 },
 {
   "type": "Feature",
   "geometry": {
      "type": "Point",
      "coordinates":  [ 121.52120498079864,25.048449987102515 ]
   },
   "properties": {
   "地址":"臺北市中山區中山北路一段11號",
   "面積":728.25,
   "容留人數":971,
   "無障礙設施":""
   }
 },
 {
   "type": "Feature",
   "geometry": {
      "type": "Point",
      "coordinates":  [ 121.5227380308894,25.051355992933438 ]
   },
   "properties": {
   "地址":"臺北市中山區中山北路一段121巷1之1號",
   "面積":654,
   "容留人數":872,
   "無障礙設施":""
   }
 },
 {
   "type": "Feature",
   "geometry": {
      "type": "Point",
      "coordinates":  [ 121.52466000128754,25.050893018511545 ]
   },
   "properties": {
   "地址":"臺北市中山區中山北路一段121巷33號",
   "面積":509.25,
   "容留人數":679,
   "無障礙設施":""
   }
 },
 {
   "type": "Feature",
   "geometry": {
      "type": "Point",
      "coordinates":  [ 121.52137002047215,25.051070002397083 ]
   },
   "properties": {
   "地址":"臺北市中山區中山北路一段126巷15號",
   "面積":369.75,
   "容留人數":493,
   "無障礙設施":""
   }
 },
 {
   "type": "Feature",
   "geometry": {
      "type": "Point",
      "coordinates":  [ 121.524062036315,25.05132799737683 ]
   },
   "properties": {
   "地址":"臺北市中山區中山北路一段135巷26號",
   "面積":267,
   "容留人數":356,
   "無障礙設施":""
   }
 },
 {
   "type": "Feature",
   "geometry": {
      "type": "Point",
      "coordinates":  [ 121.52135602269385,25.048792010661586 ]
   },
   "properties": {
   "地址":"臺北市中山區中山北路一段27號",
   "面積":1169.25,
   "容留人數":1559,
   "無障礙設施":""
   }
 },
 {
   "type": "Feature",
   "geometry": {
      "type": "Point",
      "coordinates":  [ 121.52320196923017,25.048807014268263 ]
   },
   "properties": {
   "地址":"臺北市中山區中山北路一段53巷22號",
   "面積":549.75,
   "容留人數":733,
   "無障礙設施":""
   }
 },
 {
   "type": "Feature",
   "geometry": {
      "type": "Point",
      "coordinates":  [ 121.52364797029816,25.04880097929798 ]
   },
   "properties": {
   "地址":"臺北市中山區中山北路一段53巷26號",
   "面積":431.25,
   "容留人數":575,
   "無障礙設施":""
   }
 },
 {
   "type": "Feature",
   "geometry": {
      "type": "Point",
      "coordinates":  [ 121.52212699014791,25.049101009522147 ]
   },
   "properties": {
   "地址":"臺北市中山區中山北路一段53巷8號",
   "面積":891,
   "容留人數":1188,
   "無障礙設施":""
   }
 },
 {
   "type": "Feature",
   "geometry": {
      "type": "Point",
      "coordinates":  [ 121.52192699793818,25.04990198418959 ]
   },
   "properties": {
   "地址":"臺北市中山區中山北路一段59號",
   "面積":905.25,
   "容留人數":1207,
   "無障礙設施":""
   }
 },
 {
   "type": "Feature",
   "geometry": {
      "type": "Point",
      "coordinates":  [ 121.52420251701221,25.049729694169827 ]
   },
   "properties": {
   "地址":"臺北市中山區中山北路一段83巷32號",
   "面積":1876.5,
   "容留人數":2502,
   "無障礙設施":""
   }
 },
 {
   "type": "Feature",
   "geometry": {
      "type": "Point",
      "coordinates":  [ 121.52106802050076,25.049197988141884 ]
   },
   "properties": {
   "地址":"臺北市中山區中山北路一段84號",
   "面積":281.25,
   "容留人數":375,
   "無障礙設施":""
   }
 },
 {
   "type": "Feature",
   "geometry": {
      "type": "Point",
      "coordinates":  [ 121.52473803680613,25.07227998928738 ]
   },
   "properties": {
   "地址":"臺北市中山區中山北路三段181號",
   "面積":1464.75,
   "容留人數":1953,
   "無障礙設施":""
   }
 },
 {
   "type": "Feature",
   "geometry": {
      "type": "Point",
      "coordinates":  [ 121.5220000043148,25.064004201006142 ]
   },
   "properties": {
   "地址":"臺北市中山區中山北路三段2號",
   "面積":762,
   "容留人數":1016,
   "無障礙設施":""
   }
 },
 {
   "type": "Feature",
   "geometry": {
      "type": "Point",
      "coordinates":  [ 121.52204602096327,25.06581498545866 ]
   },
   "properties": {
   "地址":"臺北市中山區中山北路三段38號",
   "面積":387.75,
   "容留人數":517,
   "無障礙設施":""
   }
 },
 {
   "type": "Feature",
   "geometry": {
      "type": "Point",
      "coordinates":  [ 121.52306702058905,25.068186980238266 ]
   },
   "properties": {
   "地址":"臺北市中山區中山北路三段57號",
   "面積":306.75,
   "容留人數":409,
   "無障礙設施":""
   }
 },
 {
   "type": "Feature",
   "geometry": {
      "type": "Point",
      "coordinates":  [ 121.52256603423626,25.061017980361825 ]
   },
   "properties": {
   "地址":"臺北市中山區中山北路二段116巷1號",
   "面積":620.25,
   "容留人數":827,
   "無障礙設施":""
   }
 },
 {
   "type": "Feature",
   "geometry": {
      "type": "Point",
      "coordinates":  [ 121.52219773341074,25.06093751409135 ]
   },
   "properties": {
   "地址":"臺北市中山區中山北路二段116巷2號",
   "面積":778.5,
   "容留人數":1038,
   "無障礙設施":""
   }
 },
 {
   "type": "Feature",
   "geometry": {
      "type": "Point",
      "coordinates":  [ 121.52266888018823,25.061274508508518 ]
   },
   "properties": {
   "地址":"臺北市中山區中山北路二段120號",
   "面積":1752.75,
   "容留人數":2337,
   "無障礙設施":""
   }
 },
 {
   "type": "Feature",
   "geometry": {
      "type": "Point",
      "coordinates":  [ 121.52318797145188,25.061113995062712 ]
   },
   "properties": {
   "地址":"臺北市中山區中山北路二段123號",
   "面積":518.25,
   "容留人數":691,
   "無障礙設施":""
   }
 },
 {
   "type": "Feature",
   "geometry": {
      "type": "Point",
      "coordinates":  [ 121.52267097566403,25.061418006690886 ]
   },
   "properties": {
   "地址":"臺北市中山區中山北路二段126號",
   "面積":280.5,
   "容留人數":374,
   "無障礙設施":""
   }
 },
 {
   "type": "Feature",
   "geometry": {
      "type": "Point",
      "coordinates":  [ 121.52154000546852,25.061875993880392 ]
   },
   "properties": {
   "地址":"臺北市中山區中山北路二段128巷9號",
   "面積":294,
   "容留人數":392,
   "無障礙設施":""
   }
 },
 {
   "type": "Feature",
   "geometry": {
      "type": "Point",
      "coordinates":  [ 121.52316098172366,25.0614499836515 ]
   },
   "properties": {
   "地址":"臺北市中山區中山北路二段129號",
   "面積":1424.25,
   "容留人數":1899,
   "無障礙設施":""
   }
 },
 {
   "type": "Feature",
   "geometry": {
      "type": "Point",
      "coordinates":  [ 121.52254801314444,25.062127995799358 ]
   },
   "properties": {
   "地址":"臺北市中山區中山北路二段136號",
   "面積":646.5,
   "容留人數":862,
   "無障礙設施":""
   }
 },
 {
   "type": "Feature",
   "geometry": {
      "type": "Point",
      "coordinates":  [ 121.52307900671059,25.062050002190304 ]
   },
   "properties": {
   "地址":"臺北市中山區中山北路二段145號",
   "面積":922.5,
   "容留人數":1230,
   "無障礙設施":""
   }
 },
 {
   "type": "Feature",
   "geometry": {
      "type": "Point",
      "coordinates":  [ 121.52200696129444,25.052978980845296 ]
   },
   "properties": {
   "地址":"臺北市中山區中山北路二段16巷2-1號",
   "面積":677.25,
   "容留人數":903,
   "無障礙設施":""
   }
 },
 {
   "type": "Feature",
   "geometry": {
      "type": "Point",
      "coordinates":  [ 121.52281296510381,25.06300600015699 ]
   },
   "properties": {
   "地址":"臺北市中山區中山北路二段173號",
   "面積":1199.25,
   "容留人數":1599,
   "無障礙設施":""
   }
 },
 {
   "type": "Feature",
   "geometry": {
      "type": "Point",
      "coordinates":  [ 121.52270601201928,25.06340799623328 ]
   },
   "properties": {
   "地址":"臺北市中山區中山北路二段183號",
   "面積":976.5,
   "容留人數":1302,
   "無障礙設施":""
   }
 },
 {
   "type": "Feature",
   "geometry": {
      "type": "Point",
      "coordinates":  [ 121.52282000590247,25.052483987553273 ]
   },
   "properties": {
   "地址":"臺北市中山區中山北路二段1號",
   "面積":487.5,
   "容留人數":650,
   "無障礙設施":""
   }
 },
 {
   "type": "Feature",
   "geometry": {
      "type": "Point",
      "coordinates":  [ 121.52376095835297,25.053266019119533 ]
   },
   "properties": {
   "地址":"臺北市中山區中山北路二段27巷5-1號",
   "面積":714,
   "容留人數":952,
   "無障礙設施":""
   }
 },
 {
   "type": "Feature",
   "geometry": {
      "type": "Point",
      "coordinates":  [ 121.52374796640305,25.05309201080962 ]
   },
   "properties": {
   "地址":"臺北市中山區中山北路二段27巷6號",
   "面積":315,
   "容留人數":420,
   "無障礙設施":""
   }
 },
 {
   "type": "Feature",
   "geometry": {
      "type": "Point",
      "coordinates":  [ 121.52379297722308,25.053874000466365 ]
   },
   "properties": {
   "地址":"臺北市中山區中山北路二段39巷10號",
   "面積":373.5,
   "容留人數":498,
   "無障礙設施":""
   }
 },
 {
   "type": "Feature",
   "geometry": {
      "type": "Point",
      "coordinates":  [ 121.52175198379985,25.054589018716754 ]
   },
   "properties": {
   "地址":"臺北市中山區中山北路二段42巷18號",
   "面積":153,
   "容留人數":204,
   "無障礙設施":""
   }
 },
 {
   "type": "Feature",
   "geometry": {
      "type": "Point",
      "coordinates":  [ 121.52237702231963,25.054821993715507 ]
   },
   "properties": {
   "地址":"臺北市中山區中山北路二段42號",
   "面積":2784.75,
   "容留人數":3713,
   "無障礙設施":""
   }
 },
 {
   "type": "Feature",
   "geometry": {
      "type": "Point",
      "coordinates":  [ 121.52080298472231,25.055384712785198 ]
   },
   "properties": {
   "地址":"臺北市中山區中山北路二段44巷29號",
   "面積":1151.25,
   "容留人數":1535,
   "無障礙設施":""
   }
 },
 {
   "type": "Feature",
   "geometry": {
      "type": "Point",
      "coordinates":  [ 121.52156263660714,25.054842906563934 ]
   },
   "properties": {
   "地址":"臺北市中山區中山北路二段44巷2號",
   "面積":1836,
   "容留人數":2448,
   "無障礙設施":""
   }
 },
 {
   "type": "Feature",
   "geometry": {
      "type": "Point",
      "coordinates":  [ 121.52394100163315,25.055916712179737 ]
   },
   "properties": {
   "地址":"臺北市中山區中山北路二段59巷21號",
   "面積":1343.25,
   "容留人數":1791,
   "無障礙設施":""
   }
 },
 {
   "type": "Feature",
   "geometry": {
      "type": "Point",
      "coordinates":  [ 121.52455899935427,25.05611498609936 ]
   },
   "properties": {
   "地址":"臺北市中山區中山北路二段59巷45號",
   "面積":1699.5,
   "容留人數":2266,
   "無障礙設施":""
   }
 },
 {
   "type": "Feature",
   "geometry": {
      "type": "Point",
      "coordinates":  [ 121.52347178269338,25.05591009047623 ]
   },
   "properties": {
   "地址":"臺北市中山區中山北路二段59巷7-1號",
   "面積":298.5,
   "容留人數":398,
   "無障礙設施":""
   }
 },
 {
   "type": "Feature",
   "geometry": {
      "type": "Point",
      "coordinates":  [ 121.52229102399309,25.056768984094617 ]
   },
   "properties": {
   "地址":"臺北市中山區中山北路二段62巷3號",
   "面積":115.5,
   "容留人數":154,
   "無障礙設施":""
   }
 },
 {
   "type": "Feature",
   "geometry": {
      "type": "Point",
      "coordinates":  [ 121.52400403354505,25.05702400349874 ]
   },
   "properties": {
   "地址":"臺北市中山區中山北路二段65巷10號",
   "面積":953.25,
   "容留人數":1271,
   "無障礙設施":""
   }
 },
 {
   "type": "Feature",
   "geometry": {
      "type": "Point",
      "coordinates":  [ 121.52469696548053,25.0565479952174 ]
   },
   "properties": {
   "地址":"臺北市中山區中山北路二段65巷2弄58-1號",
   "面積":369.75,
   "容留人數":493,
   "無障礙設施":""
   }
 },
 {
   "type": "Feature",
   "geometry": {
      "type": "Point",
      "coordinates":  [ 121.52365299944006,25.057142020695437 ]
   },
   "properties": {
   "地址":"臺北市中山區中山北路二段65巷9號",
   "面積":1290.75,
   "容留人數":1721,
   "無障礙設施":""
   }
 },
 {
   "type": "Feature",
   "geometry": {
      "type": "Point",
      "coordinates":  [ 121.52160001989529,25.05712701708876 ]
   },
   "properties": {
   "地址":"臺北市中山區中山北路二段72巷17號",
   "面積":336,
   "容留人數":448,
   "無障礙設施":""
   }
 },
 {
   "type": "Feature",
   "geometry": {
      "type": "Point",
      "coordinates":  [ 121.5221859987463,25.057107990168547 ]
   },
   "properties": {
   "地址":"臺北市中山區中山北路二段72巷9號",
   "面積":422.25,
   "容留人數":563,
   "無障礙設施":""
   }
 },
 {
   "type": "Feature",
   "geometry": {
      "type": "Point",
      "coordinates":  [ 121.5236649855616,25.05755101566089 ]
   },
   "properties": {
   "地址":"臺北市中山區中山北路二段77巷17號",
   "面積":369.75,
   "容留人數":493,
   "無障礙設施":""
   }
 },
 {
   "type": "Feature",
   "geometry": {
      "type": "Point",
      "coordinates":  [ 121.52350941743867,25.057452989303258 ]
   },
   "properties": {
   "地址":"臺北市中山區中山北路二段77巷6-3號",
   "面積":549.75,
   "容留人數":733,
   "無障礙設施":""
   }
 },
 {
   "type": "Feature",
   "geometry": {
      "type": "Point",
      "coordinates":  [ 121.52352500777857,25.05892698888617 ]
   },
   "properties": {
   "地址":"臺北市中山區中山北路二段85巷1號",
   "面積":179.25,
   "容留人數":239,
   "無障礙設施":""
   }
 },
 {
   "type": "Feature",
   "geometry": {
      "type": "Point",
      "coordinates":  [ 121.52312896285349,25.058883989722887 ]
   },
   "properties": {
   "地址":"臺北市中山區中山北路二段89號",
   "面積":882.75,
   "容留人數":1177,
   "無障礙設施":""
   }
 },
 {
   "type": "Feature",
   "geometry": {
      "type": "Point",
      "coordinates":  [ 121.52446596022901,25.059378019096044 ]
   },
   "properties": {
   "地址":"臺北市中山區中山北路二段93巷17號",
   "面積":1103.25,
   "容留人數":1471,
   "無障礙設施":""
   }
 },
 {
   "type": "Feature",
   "geometry": {
      "type": "Point",
      "coordinates":  [ 121.52411400411472,25.059199400739374 ]
   },
   "properties": {
   "地址":"臺北市中山區中山北路二段93巷18號",
   "面積":710.25,
   "容留人數":947,
   "無障礙設施":""
   }
 },
 {
   "type": "Feature",
   "geometry": {
      "type": "Point",
      "coordinates":  [ 121.5245175927526,25.059258283609182 ]
   },
   "properties": {
   "地址":"臺北市中山區中山北路二段93巷30號",
   "面積":9571.5,
   "容留人數":12762,
   "無障礙設施":""
   }
 },
 {
   "type": "Feature",
   "geometry": {
      "type": "Point",
      "coordinates":  [ 121.52353095892983,25.05943401020926 ]
   },
   "properties": {
   "地址":"臺北市中山區中山北路二段93巷5號",
   "面積":431.25,
   "容留人數":575,
   "無障礙設施":""
   }
 },
 {
   "type": "Feature",
   "geometry": {
      "type": "Point",
      "coordinates":  [ 121.52372198250316,25.05941100188504 ]
   },
   "properties": {
   "地址":"臺北市中山區中山北路二段93巷7號",
   "面積":396.75,
   "容留人數":529,
   "無障礙設施":""
   }
 },
 {
   "type": "Feature",
   "geometry": {
      "type": "Point",
      "coordinates":  [ 121.52359197918491,25.05931201160854 ]
   },
   "properties": {
   "地址":"臺北市中山區中山北路二段93巷8號",
   "面積":1275,
   "容留人數":1700,
   "無障礙設施":""
   }
 },
 {
   "type": "Feature",
   "geometry": {
      "type": "Point",
      "coordinates":  [ 121.52440062049247,25.080402755265464 ]
   },
   "properties": {
   "地址":"臺北市中山區中山北路四段1號",
   "面積":6553.5,
   "容留人數":8738,
   "無障礙設施":""
   }
 },
 {
   "type": "Feature",
   "geometry": {
      "type": "Point",
      "coordinates":  [ 121.53791497533115,25.064651996393067 ]
   },
   "properties": {
   "地址":"臺北市中山區五常街11巷5號",
   "面積":2418,
   "容留人數":3224,
   "無障礙設施":""
   }
 },
 {
   "type": "Feature",
   "geometry": {
      "type": "Point",
      "coordinates":  [ 121.54223299657099,25.064189985890025 ]
   },
   "properties": {
   "地址":"臺北市中山區五常街16號",
   "面積":2616,
   "容留人數":3488,
   "無障礙設施":""
   }
 },
 {
   "type": "Feature",
   "geometry": {
      "type": "Point",
      "coordinates":  [ 121.53852098693073,25.064419985313165 ]
   },
   "properties": {
   "地址":"臺北市中山區五常街31號",
   "面積":209.25,
   "容留人數":279,
   "無障礙設施":""
   }
 },
 {
   "type": "Feature",
   "geometry": {
      "type": "Point",
      "coordinates":  [ 121.53757802282348,25.064429792139876 ]
   },
   "properties": {
   "地址":"臺北市中山區五常街3號",
   "面積":241.5,
   "容留人數":322,
   "無障礙設施":""
   }
 },
 {
   "type": "Feature",
   "geometry": {
      "type": "Point",
      "coordinates":  [ 121.53757802282348,25.064429792139876 ]
   },
   "properties": {
   "地址":"臺北市中山區五常街3號",
   "面積":241.5,
   "容留人數":322,
   "無障礙設施":""
   }
 },
 {
   "type": "Feature",
   "geometry": {
      "type": "Point",
      "coordinates":  [ 121.53381002206999,25.054150016537932 ]
   },
   "properties": {
   "地址":"臺北市中山區伊通街106巷21號",
   "面積":1199.25,
   "容留人數":1599,
   "無障礙設施":""
   }
 },
 {
   "type": "Feature",
   "geometry": {
      "type": "Point",
      "coordinates":  [ 121.5349920380558,25.054404994032538 ]
   },
   "properties": {
   "地址":"臺北市中山區伊通街129號",
   "面積":309,
   "容留人數":412,
   "無障礙設施":""
   }
 },
 {
   "type": "Feature",
   "geometry": {
      "type": "Point",
      "coordinates":  [ 121.53493504111418,25.04904200092379 ]
   },
   "properties": {
   "地址":"臺北市中山區伊通街21號",
   "面積":618,
   "容留人數":824,
   "無障礙設施":""
   }
 },
 {
   "type": "Feature",
   "geometry": {
      "type": "Point",
      "coordinates":  [ 121.53459180217914,25.04802309677379 ]
   },
   "properties": {
   "地址":"臺北市中山區伊通街2號",
   "面積":378,
   "容留人數":504,
   "無障礙設施":""
   }
 },
 {
   "type": "Feature",
   "geometry": {
      "type": "Point",
      "coordinates":  [ 121.5352517932352,25.050339519535356 ]
   },
   "properties": {
   "地址":"臺北市中山區伊通街31號",
   "面積":5198.25,
   "容留人數":6931,
   "無障礙設施":""
   }
 },
 {
   "type": "Feature",
   "geometry": {
      "type": "Point",
      "coordinates":  [ 121.53446297232733,25.051504017343518 ]
   },
   "properties": {
   "地址":"臺北市中山區伊通街52巷1號",
   "面積":242.25,
   "容留人數":323,
   "無障礙設施":""
   }
 },
 {
   "type": "Feature",
   "geometry": {
      "type": "Point",
      "coordinates":  [ 121.53620867130172,25.04581630930575 ]
   },
   "properties": {
   "地址":"臺北市中山區八德路二段100號",
   "面積":761.25,
   "容留人數":1015,
   "無障礙設施":""
   }
 },
 {
   "type": "Feature",
   "geometry": {
      "type": "Point",
      "coordinates":  [ 121.53760576692298,25.046066383387 ]
   },
   "properties": {
   "地址":"臺北市中山區八德路二段158號",
   "面積":5673.75,
   "容留人數":7565,
   "無障礙設施":""
   }
 },
 {
   "type": "Feature",
   "geometry": {
      "type": "Point",
      "coordinates":  [ 121.5381380177746,25.045543981271578 ]
   },
   "properties": {
   "地址":"臺北市中山區八德路二段174巷18號",
   "面積":1090.5,
   "容留人數":1454,
   "無障礙設施":""
   }
 },
 {
   "type": "Feature",
   "geometry": {
      "type": "Point",
      "coordinates":  [ 121.53966503289513,25.046709987822325 ]
   },
   "properties": {
   "地址":"臺北市中山區八德路二段203號",
   "面積":3167.25,
   "容留人數":4223,
   "無障礙設施":""
   }
 },
 {
   "type": "Feature",
   "geometry": {
      "type": "Point",
      "coordinates":  [ 121.54256005843291,25.046879595633072 ]
   },
   "properties": {
   "地址":"臺北市中山區八德路二段308號",
   "面積":10254,
   "容留人數":13672,
   "無障礙設施":""
   }
 },
 {
   "type": "Feature",
   "geometry": {
      "type": "Point",
      "coordinates":  [ 121.54292198901203,25.047443991083398 ]
   },
   "properties": {
   "地址":"臺北市中山區八德路二段317號",
   "面積":905.25,
   "容留人數":1207,
   "無障礙設施":""
   }
 },
 {
   "type": "Feature",
   "geometry": {
      "type": "Point",
      "coordinates":  [ 121.53541498889001,25.04534700654696 ]
   },
   "properties": {
   "地址":"臺北市中山區八德路二段66號",
   "面積":1200.75,
   "容留人數":1601,
   "無障礙設施":""
   }
 },
 {
   "type": "Feature",
   "geometry": {
      "type": "Point",
      "coordinates":  [ 121.53566502106173,25.045861990678063 ]
   },
   "properties": {
   "地址":"臺北市中山區八德路二段85號",
   "面積":102.75,
   "容留人數":137,
   "無障礙設施":""
   }
 },
 {
   "type": "Feature",
   "geometry": {
      "type": "Point",
      "coordinates":  [ 121.53884796497357,25.07863900395047 ]
   },
   "properties": {
   "地址":"臺北市中山區北安路305號",
   "面積":2038.5,
   "容留人數":2718,
   "無障礙設施":""
   }
 },
 {
   "type": "Feature",
   "geometry": {
      "type": "Point",
      "coordinates":  [ 121.54041001644936,25.0797630171663 ]
   },
   "properties": {
   "地址":"臺北市中山區北安路387號",
   "面積":26577.75,
   "容留人數":35437,
   "無障礙設施":""
   }
 },
 {
   "type": "Feature",
   "geometry": {
      "type": "Point",
      "coordinates":  [ 121.54283003953418,25.07940900748568 ]
   },
   "properties": {
   "地址":"臺北市中山區北安路420號",
   "面積":582,
   "容留人數":776,
   "無障礙設施":""
   }
 },
 {
   "type": "Feature",
   "geometry": {
      "type": "Point",
      "coordinates":  [ 121.54646200199915,25.07938801081822 ]
   },
   "properties": {
   "地址":"臺北市中山區北安路458巷41弄49號",
   "面積":436.5,
   "容留人數":582,
   "無障礙設施":""
   }
 },
 {
   "type": "Feature",
   "geometry": {
      "type": "Point",
      "coordinates":  [ 121.54566798431131,25.07823901953094 ]
   },
   "properties": {
   "地址":"臺北市中山區北安路458巷47弄13號",
   "面積":1629.75,
   "容留人數":2173,
   "無障礙設施":""
   }
 },
 {
   "type": "Feature",
   "geometry": {
      "type": "Point",
      "coordinates":  [ 121.5447966016572,25.078209305684183 ]
   },
   "properties": {
   "地址":"臺北市中山區北安路458巷47弄3號",
   "面積":2187,
   "容留人數":2916,
   "無障礙設施":""
   }
 },
 {
   "type": "Feature",
   "geometry": {
      "type": "Point",
      "coordinates":  [ 121.54682770443469,25.0797397992945 ]
   },
   "properties": {
   "地址":"臺北市中山區北安路534之1號",
   "面積":7614.75,
   "容留人數":10153,
   "無障礙設施":""
   }
 },
 {
   "type": "Feature",
   "geometry": {
      "type": "Point",
      "coordinates":  [ 121.54742801634012,25.079678988586963 ]
   },
   "properties": {
   "地址":"臺北市中山區北安路536號",
   "面積":2538.75,
   "容留人數":3385,
   "無障礙設施":""
   }
 },
 {
   "type": "Feature",
   "geometry": {
      "type": "Point",
      "coordinates":  [ 121.55016780903105,25.080628616307223 ]
   },
   "properties": {
   "地址":"臺北市中山區北安路578巷8弄30號",
   "面積":911.25,
   "容留人數":1215,
   "無障礙設施":""
   }
 },
 {
   "type": "Feature",
   "geometry": {
      "type": "Point",
      "coordinates":  [ 121.548892670101,25.080883090887625 ]
   },
   "properties": {
   "地址":"臺北市中山區北安路578巷8號",
   "面積":306.75,
   "容留人數":409,
   "無障礙設施":""
   }
 },
 {
   "type": "Feature",
   "geometry": {
      "type": "Point",
      "coordinates":  [ 121.55009798777758,25.080427995454713 ]
   },
   "properties": {
   "地址":"臺北市中山區北安路588巷30弄23號",
   "面積":881.25,
   "容留人數":1175,
   "無障礙設施":""
   }
 },
 {
   "type": "Feature",
   "geometry": {
      "type": "Point",
      "coordinates":  [ 121.54996999611609,25.081870018077026 ]
   },
   "properties": {
   "地址":"臺北市中山區北安路608巷10號",
   "面積":1735.5,
   "容留人數":2314,
   "無障礙設施":""
   }
 },
 {
   "type": "Feature",
   "geometry": {
      "type": "Point",
      "coordinates":  [ 121.55081899908873,25.08180899782191 ]
   },
   "properties": {
   "地址":"臺北市中山區北安路608巷16號",
   "面積":509.25,
   "容留人數":679,
   "無障礙設施":""
   }
 },
 {
   "type": "Feature",
   "geometry": {
      "type": "Point",
      "coordinates":  [ 121.55007309449377,25.08269051718849 ]
   },
   "properties": {
   "地址":"臺北市中山區北安路630巷18號",
   "面積":1985.25,
   "容留人數":2647,
   "無障礙設施":""
   }
 },
 {
   "type": "Feature",
   "geometry": {
      "type": "Point",
      "coordinates":  [ 121.55021986064975,25.083375994620553 ]
   },
   "properties": {
   "地址":"臺北市中山區北安路630巷25弄2號",
   "面積":3009,
   "容留人數":4012,
   "無障礙設施":""
   }
 },
 {
   "type": "Feature",
   "geometry": {
      "type": "Point",
      "coordinates":  [ 121.54917103310544,25.08442901311649 ]
   },
   "properties": {
   "地址":"臺北市中山區北安路655號",
   "面積":1915.5,
   "容留人數":2554,
   "無障礙設施":""
   }
 },
 {
   "type": "Feature",
   "geometry": {
      "type": "Point",
      "coordinates":  [ 121.54936113466943,25.085053800179182 ]
   },
   "properties": {
   "地址":"臺北市中山區北安路669號",
   "面積":150,
   "容留人數":200,
   "無障礙設施":""
   }
 },
 {
   "type": "Feature",
   "geometry": {
      "type": "Point",
      "coordinates":  [ 121.55288497058342,25.085974007419296 ]
   },
   "properties": {
   "地址":"臺北市中山區北安路761至771號",
   "面積":2811,
   "容留人數":3748,
   "無障礙設施":""
   }
 },
 {
   "type": "Feature",
   "geometry": {
      "type": "Point",
      "coordinates":  [ 121.55288497058342,25.085974007419296 ]
   },
   "properties": {
   "地址":"臺北市中山區北安路761號",
   "面積":2811,
   "容留人數":3748,
   "無障礙設施":""
   }
 },
 {
   "type": "Feature",
   "geometry": {
      "type": "Point",
      "coordinates":  [ 121.55378895884093,25.08505099224162 ]
   },
   "properties": {
   "地址":"臺北市中山區北安路780號",
   "面積":3020.25,
   "容留人數":4027,
   "無障礙設施":""
   }
 },
 {
   "type": "Feature",
   "geometry": {
      "type": "Point",
      "coordinates":  [ 121.55386900601621,25.08562301522383 ]
   },
   "properties": {
   "地址":"臺北市中山區北安路789號",
   "面積":465.75,
   "容留人數":621,
   "無障礙設施":""
   }
 },
 {
   "type": "Feature",
   "geometry": {
      "type": "Point",
      "coordinates":  [ 121.55436596905548,25.085797987452608 ]
   },
   "properties": {
   "地址":"臺北市中山區北安路805巷2號",
   "面積":718.5,
   "容留人數":958,
   "無障礙設施":""
   }
 },
 {
   "type": "Feature",
   "geometry": {
      "type": "Point",
      "coordinates":  [ 121.5523454133371,25.086013086418596 ]
   },
   "properties": {
   "地址":"臺北市中山區北安路829號",
   "面積":644.25,
   "容留人數":859,
   "無障礙設施":""
   }
 },
 {
   "type": "Feature",
   "geometry": {
      "type": "Point",
      "coordinates":  [ 121.52642598446755,25.051893985388745 ]
   },
   "properties": {
   "地址":"臺北市中山區南京東路一段108號",
   "面積":1047,
   "容留人數":1396,
   "無障礙設施":""
   }
 },
 {
   "type": "Feature",
   "geometry": {
      "type": "Point",
      "coordinates":  [ 121.52692303132591,25.050979980756992 ]
   },
   "properties": {
   "地址":"臺北市中山區南京東路一段132巷18號",
   "面積":883.5,
   "容留人數":1178,
   "無障礙設施":""
   }
 },
 {
   "type": "Feature",
   "geometry": {
      "type": "Point",
      "coordinates":  [ 121.52668003995285,25.050172007200388 ]
   },
   "properties": {
   "地址":"臺北市中山區南京東路一段132巷30號",
   "面積":459,
   "容留人數":612,
   "無障礙設施":""
   }
 },
 {
   "type": "Feature",
   "geometry": {
      "type": "Point",
      "coordinates":  [ 121.52694080096063,25.053073696351177 ]
   },
   "properties": {
   "地址":"臺北市中山區南京東路一段35號",
   "面積":33298.5,
   "容留人數":44398,
   "無障礙設施":""
   }
 },
 {
   "type": "Feature",
   "geometry": {
      "type": "Point",
      "coordinates":  [ 121.53998002481649,25.05164298929816 ]
   },
   "properties": {
   "地址":"臺北市中山區南京東路三段106號",
   "面積":739.5,
   "容留人數":986,
   "無障礙設施":""
   }
 },
 {
   "type": "Feature",
   "geometry": {
      "type": "Point",
      "coordinates":  [ 121.5406120203159,25.051722198283173 ]
   },
   "properties": {
   "地址":"臺北市中山區南京東路三段128號",
   "面積":1315.5,
   "容留人數":1754,
   "無障礙設施":""
   }
 },
 {
   "type": "Feature",
   "geometry": {
      "type": "Point",
      "coordinates":  [ 121.54261697155545,25.05168200705745 ]
   },
   "properties": {
   "地址":"臺北市中山區南京東路三段188號",
   "面積":472.5,
   "容留人數":630,
   "無障礙設施":""
   }
 },
 {
   "type": "Feature",
   "geometry": {
      "type": "Point",
      "coordinates":  [ 121.53828696419407,25.0516460067833 ]
   },
   "properties": {
   "地址":"臺北市中山區南京東路三段48巷36號",
   "面積":3210.75,
   "容留人數":4281,
   "無障礙設施":""
   }
 },
 {
   "type": "Feature",
   "geometry": {
      "type": "Point",
      "coordinates":  [ 121.5386830091191,25.052224986745145 ]
   },
   "properties": {
   "地址":"臺北市中山區南京東路三段77號",
   "面積":792,
   "容留人數":1056,
   "無障礙設施":""
   }
 },
 {
   "type": "Feature",
   "geometry": {
      "type": "Point",
      "coordinates":  [ 121.53887000937891,25.053239993310186 ]
   },
   "properties": {
   "地址":"臺北市中山區南京東路三段89巷15弄8號",
   "面積":279.75,
   "容留人數":373,
   "無障礙設施":""
   }
 },
 {
   "type": "Feature",
   "geometry": {
      "type": "Point",
      "coordinates":  [ 121.5382375109653,25.054205001822766 ]
   },
   "properties": {
   "地址":"臺北市中山區南京東路三段89巷27弄17號",
   "面積":2817,
   "容留人數":3756,
   "無障礙設施":""
   }
 },
 {
   "type": "Feature",
   "geometry": {
      "type": "Point",
      "coordinates":  [ 121.53814204108812,25.053677780113034 ]
   },
   "properties": {
   "地址":"臺北市中山區南京東路三段89巷27弄6號",
   "面積":594,
   "容留人數":792,
   "無障礙設施":""
   }
 },
 {
   "type": "Feature",
   "geometry": {
      "type": "Point",
      "coordinates":  [ 121.53216901306632,25.051839000103925 ]
   },
   "properties": {
   "地址":"臺北市中山區南京東路二段108號",
   "面積":1212.75,
   "容留人數":1617,
   "無障礙設施":""
   }
 },
 {
   "type": "Feature",
   "geometry": {
      "type": "Point",
      "coordinates":  [ 121.5355480096934,25.051724000392355 ]
   },
   "properties": {
   "地址":"臺北市中山區南京東路二段192號",
   "面積":1681.5,
   "容留人數":2242,
   "無障礙設施":""
   }
 },
 {
   "type": "Feature",
   "geometry": {
      "type": "Point",
      "coordinates":  [ 121.52886897396706,25.051581005124177 ]
   },
   "properties": {
   "地址":"臺北市中山區南京東路二段24巷8號",
   "面積":634.5,
   "容留人數":846,
   "無障礙設施":""
   }
 },
 {
   "type": "Feature",
   "geometry": {
      "type": "Point",
      "coordinates":  [ 121.52928303998397,25.05252401114093 ]
   },
   "properties": {
   "地址":"臺北市中山區南京東路二段41巷6號",
   "面積":1446.75,
   "容留人數":1929,
   "無障礙設施":""
   }
 },
 {
   "type": "Feature",
   "geometry": {
      "type": "Point",
      "coordinates":  [ 121.53108498152864,25.052269997565205 ]
   },
   "properties": {
   "地址":"臺北市中山區南京東路二段77號",
   "面積":1077,
   "容留人數":1436,
   "無障礙設施":""
   }
 },
 {
   "type": "Feature",
   "geometry": {
      "type": "Point",
      "coordinates":  [ 121.5212260193756,25.052310985071728 ]
   },
   "properties": {
   "地址":"臺北市中山區南京西路12號",
   "面積":1393.5,
   "容留人數":1858,
   "無障礙設施":""
   }
 },
 {
   "type": "Feature",
   "geometry": {
      "type": "Point",
      "coordinates":  [ 121.52063601721107,25.05240901142936 ]
   },
   "properties": {
   "地址":"臺北市中山區南京西路14號",
   "面積":2712.75,
   "容留人數":3617,
   "無障礙設施":""
   }
 },
 {
   "type": "Feature",
   "geometry": {
      "type": "Point",
      "coordinates":  [ 121.52095100913243,25.052697013622478 ]
   },
   "properties": {
   "地址":"臺北市中山區南京西路15號",
   "面積":2142,
   "容留人數":2856,
   "無障礙設施":""
   }
 },
 {
   "type": "Feature",
   "geometry": {
      "type": "Point",
      "coordinates":  [ 121.52039470221865,25.052744203737348 ]
   },
   "properties": {
   "地址":"臺北市中山區南京西路16號",
   "面積":28464,
   "容留人數":37952,
   "無障礙設施":""
   }
 },
 {
   "type": "Feature",
   "geometry": {
      "type": "Point",
      "coordinates":  [ 121.53868996609873,25.058632993632287 ]
   },
   "properties": {
   "地址":"臺北市中山區合江街102巷26號",
   "面積":380.25,
   "容留人數":507,
   "無障礙設施":""
   }
 },
 {
   "type": "Feature",
   "geometry": {
      "type": "Point",
      "coordinates":  [ 121.53840799887593,25.05862700057152 ]
   },
   "properties": {
   "地址":"臺北市中山區合江街102巷36號",
   "面積":206.25,
   "容留人數":275,
   "無障礙設施":""
   }
 },
 {
   "type": "Feature",
   "geometry": {
      "type": "Point",
      "coordinates":  [ 121.53916999769359,25.055357010595202 ]
   },
   "properties": {
   "地址":"臺北市中山區合江街27號",
   "面積":201,
   "容留人數":268,
   "無障礙設施":""
   }
 },
 {
   "type": "Feature",
   "geometry": {
      "type": "Point",
      "coordinates":  [ 121.53963997100465,25.056949991293692 ]
   },
   "properties": {
   "地址":"臺北市中山區合江街55巷9號",
   "面積":571.5,
   "容留人數":762,
   "無障礙設施":""
   }
 },
 {
   "type": "Feature",
   "geometry": {
      "type": "Point",
      "coordinates":  [ 121.52991302382662,25.053122981941854 ]
   },
   "properties": {
   "地址":"臺北市中山區吉林路100號",
   "面積":1134,
   "容留人數":1512,
   "無障礙設施":""
   }
 },
 {
   "type": "Feature",
   "geometry": {
      "type": "Point",
      "coordinates":  [ 121.52991000634148,25.049965016101467 ]
   },
   "properties": {
   "地址":"臺北市中山區吉林路10號",
   "面積":1404.75,
   "容留人數":1873,
   "無障礙設施":""
   }
 },
 {
   "type": "Feature",
   "geometry": {
      "type": "Point",
      "coordinates":  [ 121.5299229982914,25.05038201578445 ]
   },
   "properties": {
   "地址":"臺北市中山區吉林路12-5號",
   "面積":1357.5,
   "容留人數":1810,
   "無障礙設施":""
   }
 },
 {
   "type": "Feature",
   "geometry": {
      "type": "Point",
      "coordinates":  [ 121.52996306378856,25.055366817421913 ]
   },
   "properties": {
   "地址":"臺北市中山區吉林路136號",
   "面積":1130.25,
   "容留人數":1507,
   "無障礙設施":""
   }
 },
 {
   "type": "Feature",
   "geometry": {
      "type": "Point",
      "coordinates":  [ 121.52917197976689,25.05071100548409 ]
   },
   "properties": {
   "地址":"臺北市中山區吉林路14巷11號",
   "面積":212.25,
   "容留人數":283,
   "無障礙設施":""
   }
 },
 {
   "type": "Feature",
   "geometry": {
      "type": "Point",
      "coordinates":  [ 121.52949904162881,25.059021997758663 ]
   },
   "properties": {
   "地址":"臺北市中山區吉林路218巷15號",
   "面積":375.75,
   "容留人數":501,
   "無障礙設施":""
   }
 },
 {
   "type": "Feature",
   "geometry": {
      "type": "Point",
      "coordinates":  [ 121.52990799468472,25.048645997908267 ]
   },
   "properties": {
   "地址":"臺北市中山區吉林路2號",
   "面積":1445.25,
   "容留人數":1927,
   "無障礙設施":""
   }
 },
 {
   "type": "Feature",
   "geometry": {
      "type": "Point",
      "coordinates":  [ 121.53029498715432,25.048885804158118 ]
   },
   "properties": {
   "地址":"臺北市中山區吉林路5號",
   "面積":1341,
   "容留人數":1788,
   "無障礙設施":""
   }
 },
 {
   "type": "Feature",
   "geometry": {
      "type": "Point",
      "coordinates":  [ 121.53032591637702,25.05377559692309 ]
   },
   "properties": {
   "地址":"臺北市中山區吉林路63號",
   "面積":1040.25,
   "容留人數":1387,
   "無障礙設施":""
   }
 },
 {
   "type": "Feature",
   "geometry": {
      "type": "Point",
      "coordinates":  [ 121.52990296554282,25.04907401979392 ]
   },
   "properties": {
   "地址":"臺北市中山區吉林路6號",
   "面積":1249.5,
   "容留人數":1666,
   "無障礙設施":""
   }
 },
 {
   "type": "Feature",
   "geometry": {
      "type": "Point",
      "coordinates":  [ 121.53024000186952,25.054279600761035 ]
   },
   "properties": {
   "地址":"臺北市中山區吉林路71號",
   "面積":507.75,
   "容留人數":677,
   "無障礙設施":""
   }
 },
 {
   "type": "Feature",
   "geometry": {
      "type": "Point",
      "coordinates":  [ 121.5298672586353,25.04951629091498 ]
   },
   "properties": {
   "地址":"臺北市中山區吉林路8號",
   "面積":1376.25,
   "容留人數":1835,
   "無障礙設施":""
   }
 },
 {
   "type": "Feature",
   "geometry": {
      "type": "Point",
      "coordinates":  [ 121.5334309924084,25.053549997999127 ]
   },
   "properties": {
   "地址":"臺北市中山區四平街56號",
   "面積":252,
   "容留人數":336,
   "無障礙設施":""
   }
 },
 {
   "type": "Feature",
   "geometry": {
      "type": "Point",
      "coordinates":  [ 121.56254100686056,25.079303982238898 ]
   },
   "properties": {
   "地址":"臺北市中山區基湖路112巷51號",
   "面積":705.75,
   "容留人數":941,
   "無障礙設施":""
   }
 },
 {
   "type": "Feature",
   "geometry": {
      "type": "Point",
      "coordinates":  [ 121.56286538651347,25.079013214017735 ]
   },
   "properties": {
   "地址":"臺北市中山區基湖路112巷56號",
   "面積":804.75,
   "容留人數":1073,
   "無障礙設施":""
   }
 },
 {
   "type": "Feature",
   "geometry": {
      "type": "Point",
      "coordinates":  [ 121.56224001271755,25.079349998887324 ]
   },
   "properties": {
   "地址":"臺北市中山區基湖路112巷59號",
   "面積":1151.25,
   "容留人數":1535,
   "無障礙設施":""
   }
 },
 {
   "type": "Feature",
   "geometry": {
      "type": "Point",
      "coordinates":  [ 121.56240002324915,25.079115012231796 ]
   },
   "properties": {
   "地址":"臺北市中山區基湖路112巷60號",
   "面積":654.75,
   "容留人數":873,
   "無障礙設施":""
   }
 },
 {
   "type": "Feature",
   "geometry": {
      "type": "Point",
      "coordinates":  [ 121.56259599214542,25.07837597982882 ]
   },
   "properties": {
   "地址":"臺北市中山區基湖路120巷30弄1號",
   "面積":1016.25,
   "容留人數":1355,
   "無障礙設施":""
   }
 },
 {
   "type": "Feature",
   "geometry": {
      "type": "Point",
      "coordinates":  [ 121.56418997867229,25.07846998287293 ]
   },
   "properties": {
   "地址":"臺北市中山區基湖路135號",
   "面積":288.75,
   "容留人數":385,
   "無障礙設施":""
   }
 },
 {
   "type": "Feature",
   "geometry": {
      "type": "Point",
      "coordinates":  [ 121.56405997535404,25.07829999787654 ]
   },
   "properties": {
   "地址":"臺北市中山區基湖路139號",
   "面積":667.5,
   "容留人數":890,
   "無障礙設施":""
   }
 },
 {
   "type": "Feature",
   "geometry": {
      "type": "Point",
      "coordinates":  [ 121.56426097339215,25.077937983478392 ]
   },
   "properties": {
   "地址":"臺北市中山區基湖路145巷18號",
   "面積":594.75,
   "容留人數":793,
   "無障礙設施":""
   }
 },
 {
   "type": "Feature",
   "geometry": {
      "type": "Point",
      "coordinates":  [ 121.5647000174805,25.07767001403387 ]
   },
   "properties": {
   "地址":"臺北市中山區基湖路145巷28號",
   "面積":330,
   "容留人數":440,
   "無障礙設施":""
   }
 },
 {
   "type": "Feature",
   "geometry": {
      "type": "Point",
      "coordinates":  [ 121.56388999035761,25.077779984603538 ]
   },
   "properties": {
   "地址":"臺北市中山區基湖路151巷7號",
   "面積":525.75,
   "容留人數":701,
   "無障礙設施":""
   }
 },
 {
   "type": "Feature",
   "geometry": {
      "type": "Point",
      "coordinates":  [ 121.56516898496318,25.077073012980208 ]
   },
   "properties": {
   "地址":"臺北市中山區基湖路157巷13號",
   "面積":1221.75,
   "容留人數":1629,
   "無障礙設施":""
   }
 },
 {
   "type": "Feature",
   "geometry": {
      "type": "Point",
      "coordinates":  [ 121.56405243164119,25.076773108484588 ]
   },
   "properties": {
   "地址":"臺北市中山區基湖路157巷5號",
   "面積":2084.25,
   "容留人數":2779,
   "無障礙設施":""
   }
 },
 {
   "type": "Feature",
   "geometry": {
      "type": "Point",
      "coordinates":  [ 121.5628649674183,25.077676007094638 ]
   },
   "properties": {
   "地址":"臺北市中山區基湖路158號",
   "面積":2719.5,
   "容留人數":3626,
   "無障礙設施":""
   }
 },
 {
   "type": "Feature",
   "geometry": {
      "type": "Point",
      "coordinates":  [ 121.56605000680594,25.07733000213156 ]
   },
   "properties": {
   "地址":"臺北市中山區堤頂大道二段246巷12號",
   "面積":1020.75,
   "容留人數":1361,
   "無障礙設施":""
   }
 },
 {
   "type": "Feature",
   "geometry": {
      "type": "Point",
      "coordinates":  [ 121.56640003508255,25.07769000487295 ]
   },
   "properties": {
   "地址":"臺北市中山區堤頂大道二段246巷1號",
   "面積":637.5,
   "容留人數":850,
   "無障礙設施":""
   }
 },
 {
   "type": "Feature",
   "geometry": {
      "type": "Point",
      "coordinates":  [ 121.56617296932552,25.077787989321067 ]
   },
   "properties": {
   "地址":"臺北市中山區堤頂大道二段246巷6號",
   "面積":741,
   "容留人數":988,
   "無障礙設施":""
   }
 },
 {
   "type": "Feature",
   "geometry": {
      "type": "Point",
      "coordinates":  [ 121.56686196176656,25.077485989349654 ]
   },
   "properties": {
   "地址":"臺北市中山區堤頂大道二段246巷7號",
   "面積":2962.5,
   "容留人數":3950,
   "無障礙設施":""
   }
 },
 {
   "type": "Feature",
   "geometry": {
      "type": "Point",
      "coordinates":  [ 121.56519698051977,25.077800017352118 ]
   },
   "properties": {
   "地址":"臺北市中山區堤頂大道二段270號",
   "面積":1743.75,
   "容留人數":2325,
   "無障礙設施":""
   }
 },
 {
   "type": "Feature",
   "geometry": {
      "type": "Point",
      "coordinates":  [ 121.56459197474857,25.078275019805076 ]
   },
   "properties": {
   "地址":"臺北市中山區堤頂大道二段294號",
   "面積":623.25,
   "容留人數":831,
   "無障礙設施":""
   }
 },
 {
   "type": "Feature",
   "geometry": {
      "type": "Point",
      "coordinates":  [ 121.56332396043621,25.079360099080645 ]
   },
   "properties": {
   "地址":"臺北市中山區堤頂大道二段350號",
   "面積":2183.25,
   "容留人數":2911,
   "無障礙設施":""
   }
 },
 {
   "type": "Feature",
   "geometry": {
      "type": "Point",
      "coordinates":  [ 121.56294736152654,25.079827390182686 ]
   },
   "properties": {
   "地址":"臺北市中山區堤頂大道二段368號",
   "面積":1513.5,
   "容留人數":2018,
   "無障礙設施":""
   }
 },
 {
   "type": "Feature",
   "geometry": {
      "type": "Point",
      "coordinates":  [ 121.56117400227168,25.083085016851825 ]
   },
   "properties": {
   "地址":"臺北市中山區堤頂大道二段500號",
   "面積":1706.25,
   "容留人數":2275,
   "無障礙設施":""
   }
 },
 {
   "type": "Feature",
   "geometry": {
      "type": "Point",
      "coordinates":  [ 121.546583036681,25.081067995671674 ]
   },
   "properties": {
   "地址":"臺北市中山區大直街15號",
   "面積":2441.25,
   "容留人數":3255,
   "無障礙設施":""
   }
 },
 {
   "type": "Feature",
   "geometry": {
      "type": "Point",
      "coordinates":  [ 121.54510899518857,25.081374982875474 ]
   },
   "properties": {
   "地址":"臺北市中山區大直街20巷21號",
   "面積":1588.5,
   "容留人數":2118,
   "無障礙設施":""
   }
 },
 {
   "type": "Feature",
   "geometry": {
      "type": "Point",
      "coordinates":  [ 121.54638798979408,25.080554017368968 ]
   },
   "properties": {
   "地址":"臺北市中山區大直街2號",
   "面積":862.5,
   "容留人數":1150,
   "無障礙設施":""
   }
 },
 {
   "type": "Feature",
   "geometry": {
      "type": "Point",
      "coordinates":  [ 121.54482526776604,25.083931086158344 ]
   },
   "properties": {
   "地址":"臺北市中山區大直街62巷5弄14號",
   "面積":405.75,
   "容留人數":541,
   "無障礙設施":""
   }
 },
 {
   "type": "Feature",
   "geometry": {
      "type": "Point",
      "coordinates":  [ 121.52089300636243,25.06329400235009 ]
   },
   "properties": {
   "地址":"臺北市中山區天祥路59號",
   "面積":506.25,
   "容留人數":675,
   "無障礙設施":""
   }
 },
 {
   "type": "Feature",
   "geometry": {
      "type": "Point",
      "coordinates":  [ 121.52116097580694,25.060702988440497 ]
   },
   "properties": {
   "地址":"臺北市中山區天祥路5號",
   "面積":384.75,
   "容留人數":513,
   "無障礙設施":""
   }
 },
 {
   "type": "Feature",
   "geometry": {
      "type": "Point",
      "coordinates":  [ 121.52120104130415,25.06331399318917 ]
   },
   "properties": {
   "地址":"臺北市中山區天祥路61巷8號",
   "面積":168.75,
   "容留人數":225,
   "無障礙設施":""
   }
 },
 {
   "type": "Feature",
   "geometry": {
      "type": "Point",
      "coordinates":  [ 121.52052898030752,25.063965979527666 ]
   },
   "properties": {
   "地址":"臺北市中山區天祥路80號",
   "面積":2164.5,
   "容留人數":2886,
   "無障礙設施":""
   }
 },
 {
   "type": "Feature",
   "geometry": {
      "type": "Point",
      "coordinates":  [ 121.5421739879726,25.04565399375076 ]
   },
   "properties": {
   "地址":"臺北市中山區安東街15號",
   "面積":861.75,
   "容留人數":1149,
   "無障礙設施":""
   }
 },
 {
   "type": "Feature",
   "geometry": {
      "type": "Point",
      "coordinates":  [ 121.54064755958535,25.044810690472275 ]
   },
   "properties": {
   "地址":"臺北市中山區市民大道三段169號",
   "面積":880.5,
   "容留人數":1174,
   "無障礙設施":""
   }
 },
 {
   "type": "Feature",
   "geometry": {
      "type": "Point",
      "coordinates":  [ 121.5336277,25.0642508 ]
   },
   "properties": {
   "地址":"臺北市中山區建國北一段55號",
   "面積":362.25,
   "容留人數":483,
   "無障礙設施":""
   }
 },
 {
   "type": "Feature",
   "geometry": {
      "type": "Point",
      "coordinates":  [ 121.5369660553574,25.046472102902914 ]
   },
   "properties": {
   "地址":"臺北市中山區建國北路1段5號",
   "面積":1500.75,
   "容留人數":2001,
   "無障礙設施":""
   }
 },
 {
   "type": "Feature",
   "geometry": {
      "type": "Point",
      "coordinates":  [ 121.53617329967028,25.050742479530513 ]
   },
   "properties": {
   "地址":"臺北市中山區建國北路一段126號",
   "面積":3245.25,
   "容留人數":4327,
   "無障礙設施":""
   }
 },
 {
   "type": "Feature",
   "geometry": {
      "type": "Point",
      "coordinates":  [ 121.5359159752428,25.05103002071894 ]
   },
   "properties": {
   "地址":"臺北市中山區建國北路一段138巷5號",
   "面積":399,
   "容留人數":532,
   "無障礙設施":""
   }
 },
 {
   "type": "Feature",
   "geometry": {
      "type": "Point",
      "coordinates":  [ 121.53632098880428,25.051367979054973 ]
   },
   "properties": {
   "地址":"臺北市中山區建國北路一段150號",
   "面積":575.25,
   "容留人數":767,
   "無障礙設施":""
   }
 },
 {
   "type": "Feature",
   "geometry": {
      "type": "Point",
      "coordinates":  [ 121.53717401509044,25.046916015002367 ]
   },
   "properties": {
   "地址":"臺北市中山區建國北路一段15號",
   "面積":706.5,
   "容留人數":942,
   "無障礙設施":""
   }
 },
 {
   "type": "Feature",
   "geometry": {
      "type": "Point",
      "coordinates":  [ 121.53703101982222,25.047499982196598 ]
   },
   "properties": {
   "地址":"臺北市中山區建國北路一段29號",
   "面積":153.75,
   "容留人數":205,
   "無障礙設施":""
   }
 },
 {
   "type": "Feature",
   "geometry": {
      "type": "Point",
      "coordinates":  [ 121.53705499206535,25.048235997114446 ]
   },
   "properties": {
   "地址":"臺北市中山區建國北路一段41號",
   "面積":779.25,
   "容留人數":1039,
   "無障礙設施":""
   }
 },
 {
   "type": "Feature",
   "geometry": {
      "type": "Point",
      "coordinates":  [ 121.53518700112363,25.047966979932028 ]
   },
   "properties": {
   "地址":"臺北市中山區建國北路一段50巷25號",
   "面積":210.75,
   "容留人數":281,
   "無障礙設施":""
   }
 },
 {
   "type": "Feature",
   "geometry": {
      "type": "Point",
      "coordinates":  [ 121.53633196909743,25.048566998470832 ]
   },
   "properties": {
   "地址":"臺北市中山區建國北路一段58號",
   "面積":154.5,
   "容留人數":206,
   "無障礙設施":""
   }
 },
 {
   "type": "Feature",
   "geometry": {
      "type": "Point",
      "coordinates":  [ 121.53713797290675,25.050751992990612 ]
   },
   "properties": {
   "地址":"臺北市中山區建國北路一段63號",
   "面積":363,
   "容留人數":484,
   "無障礙設施":""
   }
 },
 {
   "type": "Feature",
   "geometry": {
      "type": "Point",
      "coordinates":  [ 121.53626600351942,25.049469016981064 ]
   },
   "properties": {
   "地址":"臺北市中山區建國北路一段80號",
   "面積":1986,
   "容留人數":2648,
   "無障礙設施":""
   }
 },
 {
   "type": "Feature",
   "geometry": {
      "type": "Point",
      "coordinates":  [ 121.5375859856315,25.063898002292916 ]
   },
   "properties": {
   "地址":"臺北市中山區建國北路三段39號",
   "面積":8697.75,
   "容留人數":11597,
   "無障礙設施":""
   }
 },
 {
   "type": "Feature",
   "geometry": {
      "type": "Point",
      "coordinates":  [ 121.5375859856315,25.063898002292916 ]
   },
   "properties": {
   "地址":"臺北市中山區建國北路三段39號",
   "面積":4335.75,
   "容留人數":5781,
   "無障礙設施":""
   }
 },
 {
   "type": "Feature",
   "geometry": {
      "type": "Point",
      "coordinates":  [ 121.53663899821072,25.064058012824532 ]
   },
   "properties": {
   "地址":"臺北市中山區建國北路三段40號",
   "面積":408.75,
   "容留人數":545,
   "無障礙設施":""
   }
 },
 {
   "type": "Feature",
   "geometry": {
      "type": "Point",
      "coordinates":  [ 121.53723000620363,25.064994983871003 ]
   },
   "properties": {
   "地址":"臺北市中山區建國北路三段71號",
   "面積":1051.5,
   "容留人數":1402,
   "無障礙設施":""
   }
 },
 {
   "type": "Feature",
   "geometry": {
      "type": "Point",
      "coordinates":  [ 121.53534701165529,25.058918020249777 ]
   },
   "properties": {
   "地址":"臺北市中山區建國北路二段116巷17號",
   "面積":866.25,
   "容留人數":1155,
   "無障礙設施":""
   }
 },
 {
   "type": "Feature",
   "geometry": {
      "type": "Point",
      "coordinates":  [ 121.53612401407963,25.059469004655014 ]
   },
   "properties": {
   "地址":"臺北市中山區建國北路二段184號",
   "面積":1774.5,
   "容留人數":2366,
   "無障礙設施":""
   }
 },
 {
   "type": "Feature",
   "geometry": {
      "type": "Point",
      "coordinates":  [ 121.53656699766248,25.060833997587125 ]
   },
   "properties": {
   "地址":"臺北市中山區建國北路二段220號",
   "面積":955.5,
   "容留人數":1274,
   "無障礙設施":""
   }
 },
 {
   "type": "Feature",
   "geometry": {
      "type": "Point",
      "coordinates":  [ 121.53659616668551,25.061313819634407 ]
   },
   "properties": {
   "地址":"臺北市中山區建國北路二段236號",
   "面積":2473.5,
   "容留人數":3298,
   "無障礙設施":""
   }
 },
 {
   "type": "Feature",
   "geometry": {
      "type": "Point",
      "coordinates":  [ 121.53744600784847,25.058623019167513 ]
   },
   "properties": {
   "地址":"臺北市中山區建國北路二段89號",
   "面積":509.25,
   "容留人數":679,
   "無障礙設施":""
   }
 },
 {
   "type": "Feature",
   "geometry": {
      "type": "Point",
      "coordinates":  [ 121.53724098649678,25.05342301216602 ]
   },
   "properties": {
   "地址":"臺北市中山區建國北路二段9-2號",
   "面積":1117.5,
   "容留人數":1490,
   "無障礙設施":""
   }
 },
 {
   "type": "Feature",
   "geometry": {
      "type": "Point",
      "coordinates":  [ 121.54371902418495,25.04894099899053 ]
   },
   "properties": {
   "地址":"臺北市中山區復興北路26號",
   "面積":1166.25,
   "容留人數":1555,
   "無障礙設施":""
   }
 },
 {
   "type": "Feature",
   "geometry": {
      "type": "Point",
      "coordinates":  [ 121.54337796454473,25.058779006385606 ]
   },
   "properties": {
   "地址":"臺北市中山區復興北路280巷11號",
   "面積":387,
   "容留人數":516,
   "無障礙設施":""
   }
 },
 {
   "type": "Feature",
   "geometry": {
      "type": "Point",
      "coordinates":  [ 121.54392396171761,25.05902899664781 ]
   },
   "properties": {
   "地址":"臺北市中山區復興北路286號",
   "面積":892.5,
   "容留人數":1190,
   "無障礙設施":""
   }
 },
 {
   "type": "Feature",
   "geometry": {
      "type": "Point",
      "coordinates":  [ 121.54334602949365,25.059179996633517 ]
   },
   "properties": {
   "地址":"臺北市中山區復興北路294巷13號",
   "面積":241.5,
   "容留人數":322,
   "無障礙設施":""
   }
 },
 {
   "type": "Feature",
   "geometry": {
      "type": "Point",
      "coordinates":  [ 121.54395128672195,25.059536185608962 ]
   },
   "properties": {
   "地址":"臺北市中山區復興北路338號",
   "面積":378,
   "容留人數":504,
   "無障礙設施":""
   }
 },
 {
   "type": "Feature",
   "geometry": {
      "type": "Point",
      "coordinates":  [ 121.54406301749128,25.06320900985189 ]
   },
   "properties": {
   "地址":"臺北市中山區復興北路428號",
   "面積":1221,
   "容留人數":1628,
   "無障礙設施":""
   }
 },
 {
   "type": "Feature",
   "geometry": {
      "type": "Point",
      "coordinates":  [ 121.54409998168427,25.064089989785145 ]
   },
   "properties": {
   "地址":"臺北市中山區復興北路448號",
   "面積":1112.25,
   "容留人數":1483,
   "無障礙設施":""
   }
 },
 {
   "type": "Feature",
   "geometry": {
      "type": "Point",
      "coordinates":  [ 121.54405396503586,25.064706017759022 ]
   },
   "properties": {
   "地址":"臺北市中山區復興北路472號",
   "面積":882.75,
   "容留人數":1177,
   "無障礙設施":""
   }
 },
 {
   "type": "Feature",
   "geometry": {
      "type": "Point",
      "coordinates":  [ 121.54364300032319,25.045792001786552 ]
   },
   "properties": {
   "地址":"臺北市中山區復興南路一段36-12號",
   "面積":779.25,
   "容留人數":1039,
   "無障礙設施":""
   }
 },
 {
   "type": "Feature",
   "geometry": {
      "type": "Point",
      "coordinates":  [ 121.54362497923131,25.045089011567214 ]
   },
   "properties": {
   "地址":"臺北市中山區復興南路一段52號",
   "面積":322.5,
   "容留人數":430,
   "無障礙設施":""
   }
 },
 {
   "type": "Feature",
   "geometry": {
      "type": "Point",
      "coordinates":  [ 121.5236700147035,25.066569985387176 ]
   },
   "properties": {
   "地址":"臺北市中山區德惠街10號",
   "面積":264.75,
   "容留人數":353,
   "無障礙設施":""
   }
 },
 {
   "type": "Feature",
   "geometry": {
      "type": "Point",
      "coordinates":  [ 121.5254860378455,25.066844995630362 ]
   },
   "properties": {
   "地址":"臺北市中山區德惠街11號",
   "面積":553.5,
   "容留人數":738,
   "無障礙設施":""
   }
 },
 {
   "type": "Feature",
   "geometry": {
      "type": "Point",
      "coordinates":  [ 121.53171429156542,25.065806772651502 ]
   },
   "properties": {
   "地址":"臺北市中山區德惠街170巷12、14號",
   "面積":183.75,
   "容留人數":245,
   "無障礙設施":""
   }
 },
 {
   "type": "Feature",
   "geometry": {
      "type": "Point",
      "coordinates":  [ 121.52511010948808,25.066607703951476 ]
   },
   "properties": {
   "地址":"臺北市中山區德惠街18號",
   "面積":1703.25,
   "容留人數":2271,
   "無障礙設施":""
   }
 },
 {
   "type": "Feature",
   "geometry": {
      "type": "Point",
      "coordinates":  [ 121.5231420386225,25.06708098811427 ]
   },
   "properties": {
   "地址":"臺北市中山區德惠街3巷1-3號",
   "面積":220.5,
   "容留人數":294,
   "無障礙設施":""
   }
 },
 {
   "type": "Feature",
   "geometry": {
      "type": "Point",
      "coordinates":  [ 121.52403404075841,25.066818005902135 ]
   },
   "properties": {
   "地址":"臺北市中山區德惠街7-2號",
   "面積":375,
   "容留人數":500,
   "無障礙設施":""
   }
 },
 {
   "type": "Feature",
   "geometry": {
      "type": "Point",
      "coordinates":  [ 121.52464013617703,25.066798601796293 ]
   },
   "properties": {
   "地址":"臺北市中山區德惠街9號",
   "面積":3576.75,
   "容留人數":4769,
   "無障礙設施":""
   }
 },
 {
   "type": "Feature",
   "geometry": {
      "type": "Point",
      "coordinates":  [ 121.52131503518734,25.06377801534896 ]
   },
   "properties": {
   "地址":"臺北市中山區撫順街15號",
   "面積":382.5,
   "容留人數":510,
   "無障礙設施":""
   }
 },
 {
   "type": "Feature",
   "geometry": {
      "type": "Point",
      "coordinates":  [ 121.52031096700591,25.0636100000998 ]
   },
   "properties": {
   "地址":"臺北市中山區撫順街25號",
   "面積":339.75,
   "容留人數":453,
   "無障礙設施":""
   }
 },
 {
   "type": "Feature",
   "geometry": {
      "type": "Point",
      "coordinates":  [ 121.55235598867404,25.083078981881528 ]
   },
   "properties": {
   "地址":"臺北市中山區敬業一路118號",
   "面積":506.25,
   "容留人數":675,
   "無障礙設施":""
   }
 },
 {
   "type": "Feature",
   "geometry": {
      "type": "Point",
      "coordinates":  [ 121.55326500607339,25.083464004603897 ]
   },
   "properties": {
   "地址":"臺北市中山區敬業一路128巷11號",
   "面積":2120.25,
   "容留人數":2827,
   "無障礙設施":""
   }
 },
 {
   "type": "Feature",
   "geometry": {
      "type": "Point",
      "coordinates":  [ 121.55318286342231,25.083263216113323 ]
   },
   "properties": {
   "地址":"臺北市中山區敬業一路128巷26號",
   "面積":2247,
   "容留人數":2996,
   "無障礙設施":""
   }
 },
 {
   "type": "Feature",
   "geometry": {
      "type": "Point",
      "coordinates":  [ 121.55370203850498,25.08345201848236 ]
   },
   "properties": {
   "地址":"臺北市中山區敬業一路128巷41號",
   "面積":567.75,
   "容留人數":757,
   "無障礙設施":""
   }
 },
 {
   "type": "Feature",
   "geometry": {
      "type": "Point",
      "coordinates":  [ 121.55379952003892,25.083246787583107 ]
   },
   "properties": {
   "地址":"臺北市中山區敬業一路128巷46號",
   "面積":462.75,
   "容留人數":617,
   "無障礙設施":""
   }
 },
 {
   "type": "Feature",
   "geometry": {
      "type": "Point",
      "coordinates":  [ 121.55400370320024,25.083406798114723 ]
   },
   "properties": {
   "地址":"臺北市中山區敬業一路128巷51號",
   "面積":443.25,
   "容留人數":591,
   "無障礙設施":""
   }
 },
 {
   "type": "Feature",
   "geometry": {
      "type": "Point",
      "coordinates":  [ 121.55180906949181,25.083956692872547 ]
   },
   "properties": {
   "地址":"臺北市中山區敬業一路137號",
   "面積":507.75,
   "容留人數":677,
   "無障礙設施":""
   }
 },
 {
   "type": "Feature",
   "geometry": {
      "type": "Point",
      "coordinates":  [ 121.55203403977305,25.08412701314508 ]
   },
   "properties": {
   "地址":"臺北市中山區敬業一路143號",
   "面積":1129.5,
   "容留人數":1506,
   "無障礙設施":""
   }
 },
 {
   "type": "Feature",
   "geometry": {
      "type": "Point",
      "coordinates":  [ 121.55336500217828,25.083939007056856 ]
   },
   "properties": {
   "地址":"臺北市中山區敬業一路166號",
   "面積":1284.75,
   "容留人數":1713,
   "無障礙設施":""
   }
 },
 {
   "type": "Feature",
   "geometry": {
      "type": "Point",
      "coordinates":  [ 121.5540550004477,25.0842060125825 ]
   },
   "properties": {
   "地址":"臺北市中山區敬業一路189號",
   "面積":1191.75,
   "容留人數":1589,
   "無障礙設施":""
   }
 },
 {
   "type": "Feature",
   "geometry": {
      "type": "Point",
      "coordinates":  [ 121.55292101276711,25.080326993521453 ]
   },
   "properties": {
   "地址":"臺北市中山區敬業一路1號",
   "面積":1875.75,
   "容留人數":2501,
   "無障礙設施":""
   }
 },
 {
   "type": "Feature",
   "geometry": {
      "type": "Point",
      "coordinates":  [ 121.55345996914127,25.08118001980762 ]
   },
   "properties": {
   "地址":"臺北市中山區敬業一路36巷3號",
   "面積":2891.25,
   "容留人數":3855,
   "無障礙設施":""
   }
 },
 {
   "type": "Feature",
   "geometry": {
      "type": "Point",
      "coordinates":  [ 121.55294196752504,25.081208015364226 ]
   },
   "properties": {
   "地址":"臺北市中山區敬業一路38號",
   "面積":939.75,
   "容留人數":1253,
   "無障礙設施":""
   }
 },
 {
   "type": "Feature",
   "geometry": {
      "type": "Point",
      "coordinates":  [ 121.55276502554898,25.081757993941082 ]
   },
   "properties": {
   "地址":"臺北市中山區敬業一路56號",
   "面積":616.5,
   "容留人數":822,
   "無障礙設施":""
   }
 },
 {
   "type": "Feature",
   "geometry": {
      "type": "Point",
      "coordinates":  [ 121.55244701614254,25.081639012825505 ]
   },
   "properties": {
   "地址":"臺北市中山區敬業一路59號",
   "面積":497.25,
   "容留人數":663,
   "無障礙設施":""
   }
 },
 {
   "type": "Feature",
   "geometry": {
      "type": "Point",
      "coordinates":  [ 121.55202901063114,25.0828869943893 ]
   },
   "properties": {
   "地址":"臺北市中山區敬業一路97號",
   "面積":1732.5,
   "容留人數":2310,
   "無障礙設施":""
   }
 },
 {
   "type": "Feature",
   "geometry": {
      "type": "Point",
      "coordinates":  [ 121.55554002223329,25.0817950000436 ]
   },
   "properties": {
   "地址":"臺北市中山區敬業三路123號",
   "面積":8541,
   "容留人數":11388,
   "無障礙設施":""
   }
 },
 {
   "type": "Feature",
   "geometry": {
      "type": "Point",
      "coordinates":  [ 121.5555530141832,25.079345011654937 ]
   },
   "properties": {
   "地址":"臺北市中山區敬業三路161巷23號",
   "面積":393.75,
   "容留人數":525,
   "無障礙設施":""
   }
 },
 {
   "type": "Feature",
   "geometry": {
      "type": "Point",
      "coordinates":  [ 121.55609498804256,25.079075994472518 ]
   },
   "properties": {
   "地址":"臺北市中山區敬業三路161巷2號",
   "面積":619.5,
   "容留人數":826,
   "無障礙設施":""
   }
 },
 {
   "type": "Feature",
   "geometry": {
      "type": "Point",
      "coordinates":  [ 121.55578192395893,25.079357584509694 ]
   },
   "properties": {
   "地址":"臺北市中山區敬業三路161巷3號",
   "面積":995.25,
   "容留人數":1327,
   "無障礙設施":""
   }
 },
 {
   "type": "Feature",
   "geometry": {
      "type": "Point",
      "coordinates":  [ 121.55460267400116,25.079373216759123 ]
   },
   "properties": {
   "地址":"臺北市中山區敬業三路161巷59號",
   "面積":705,
   "容留人數":940,
   "無障礙設施":""
   }
 },
 {
   "type": "Feature",
   "geometry": {
      "type": "Point",
      "coordinates":  [ 121.55799851825367,25.07756771290562 ]
   },
   "properties": {
   "地址":"臺北市中山區敬業三路162巷68號",
   "面積":61123.5,
   "容留人數":81498,
   "無障礙設施":""
   }
 },
 {
   "type": "Feature",
   "geometry": {
      "type": "Point",
      "coordinates":  [ 121.55555636694447,25.078929394985977 ]
   },
   "properties": {
   "地址":"臺北市中山區敬業三路177巷3號",
   "面積":1260.75,
   "容留人數":1681,
   "無障礙設施":""
   }
 },
 {
   "type": "Feature",
   "geometry": {
      "type": "Point",
      "coordinates":  [ 121.5567119799353,25.08292588642003 ]
   },
   "properties": {
   "地址":"臺北市中山區敬業三路20號",
   "面積":17826,
   "容留人數":23768,
   "無障礙設施":""
   }
 },
 {
   "type": "Feature",
   "geometry": {
      "type": "Point",
      "coordinates":  [ 121.55420302485777,25.08320797937141 ]
   },
   "properties": {
   "地址":"臺北市中山區敬業二路115號",
   "面積":696.75,
   "容留人數":929,
   "無障礙設施":""
   }
 },
 {
   "type": "Feature",
   "geometry": {
      "type": "Point",
      "coordinates":  [ 121.55427795907218,25.083521001545492 ]
   },
   "properties": {
   "地址":"臺北市中山區敬業二路197號",
   "面積":786.75,
   "容留人數":1049,
   "無障礙設施":""
   }
 },
 {
   "type": "Feature",
   "geometry": {
      "type": "Point",
      "coordinates":  [ 121.55362199132963,25.08182538444261 ]
   },
   "properties": {
   "地址":"臺北市中山區敬業二路69巷10號",
   "面積":579.75,
   "容留人數":773,
   "無障礙設施":""
   }
 },
 {
   "type": "Feature",
   "geometry": {
      "type": "Point",
      "coordinates":  [ 121.55309996639988,25.0821019872474 ]
   },
   "properties": {
   "地址":"臺北市中山區敬業二路69巷57號",
   "面積":1603.5,
   "容留人數":2138,
   "無障礙設施":""
   }
 },
 {
   "type": "Feature",
   "geometry": {
      "type": "Point",
      "coordinates":  [ 121.5539259191388,25.08163088237943 ]
   },
   "properties": {
   "地址":"臺北市中山區敬業二路69巷6號",
   "面積":1806.75,
   "容留人數":2409,
   "無障礙設施":""
   }
 },
 {
   "type": "Feature",
   "geometry": {
      "type": "Point",
      "coordinates":  [ 121.53080536123866,25.048019911650584 ]
   },
   "properties": {
   "地址":"臺北市中山區新生北路一段47巷27號",
   "面積":142.5,
   "容留人數":190,
   "無障礙設施":""
   }
 },
 {
   "type": "Feature",
   "geometry": {
      "type": "Point",
      "coordinates":  [ 121.52897902835576,25.049625004199157 ]
   },
   "properties": {
   "地址":"臺北市中山區新生北路一段67號",
   "面積":367.5,
   "容留人數":490,
   "無障礙設施":""
   }
 },
 {
   "type": "Feature",
   "geometry": {
      "type": "Point",
      "coordinates":  [ 121.52735604044392,25.063274011511012 ]
   },
   "properties": {
   "地址":"臺北市中山區新生北路三段101號",
   "面積":594.75,
   "容留人數":793,
   "無障礙設施":""
   }
 },
 {
   "type": "Feature",
   "geometry": {
      "type": "Point",
      "coordinates":  [ 121.5287776112225,25.070224998085862 ]
   },
   "properties": {
   "地址":"臺北市中山區新生北路三段105號",
   "面積":597.75,
   "容留人數":797,
   "無障礙設施":""
   }
 },
 {
   "type": "Feature",
   "geometry": {
      "type": "Point",
      "coordinates":  [ 121.52736702073707,25.063319986249937 ]
   },
   "properties": {
   "地址":"臺北市中山區新生北路三段12號",
   "面積":249.75,
   "容留人數":333,
   "無障礙設施":""
   }
 },
 {
   "type": "Feature",
   "geometry": {
      "type": "Point",
      "coordinates":  [ 121.52800002206487,25.064152979787508 ]
   },
   "properties": {
   "地址":"臺北市中山區新生北路三段21號",
   "面積":1176,
   "容留人數":1568,
   "無障礙設施":""
   }
 },
 {
   "type": "Feature",
   "geometry": {
      "type": "Point",
      "coordinates":  [ 121.52688397165707,25.065276993003337 ]
   },
   "properties": {
   "地址":"臺北市中山區新生北路三段56巷14號",
   "面積":330.75,
   "容留人數":441,
   "無障礙設施":""
   }
 },
 {
   "type": "Feature",
   "geometry": {
      "type": "Point",
      "coordinates":  [ 121.5267620987849,25.06543520142577 ]
   },
   "properties": {
   "地址":"臺北市中山區新生北路三段56巷19號",
   "面積":1759.5,
   "容留人數":2346,
   "無障礙設施":""
   }
 },
 {
   "type": "Feature",
   "geometry": {
      "type": "Point",
      "coordinates":  [ 121.52839900065607,25.06746399917988 ]
   },
   "properties": {
   "地址":"臺北市中山區新生北路三段87巷9號",
   "面積":222.75,
   "容留人數":297,
   "無障礙設施":""
   }
 },
 {
   "type": "Feature",
   "geometry": {
      "type": "Point",
      "coordinates":  [ 121.52898497950702,25.05752700150829 ]
   },
   "properties": {
   "地址":"臺北市中山區新生北路二段101巷21號",
   "面積":1356,
   "容留人數":1808,
   "無障礙設施":""
   }
 },
 {
   "type": "Feature",
   "geometry": {
      "type": "Point",
      "coordinates":  [ 121.52842699621266,25.057324997641757 ]
   },
   "properties": {
   "地址":"臺北市中山區新生北路二段101巷2號",
   "面積":1362,
   "容留人數":1816,
   "無障礙設施":""
   }
 },
 {
   "type": "Feature",
   "geometry": {
      "type": "Point",
      "coordinates":  [ 121.5283720109278,25.0585050019708 ]
   },
   "properties": {
   "地址":"臺北市中山區新生北路二段115巷18號",
   "面積":2051.25,
   "容留人數":2735,
   "無障礙設施":""
   }
 },
 {
   "type": "Feature",
   "geometry": {
      "type": "Point",
      "coordinates":  [ 121.5279657400809,25.05586361282313 ]
   },
   "properties": {
   "地址":"臺北市中山區新生北路二段49號",
   "面積":1853.25,
   "容留人數":2471,
   "無障礙設施":""
   }
 },
 {
   "type": "Feature",
   "geometry": {
      "type": "Point",
      "coordinates":  [ 121.52664299194078,25.0561929797084 ]
   },
   "properties": {
   "地址":"臺北市中山區新生北路二段62巷11號",
   "面積":1149.75,
   "容留人數":1533,
   "無障礙設施":""
   }
 },
 {
   "type": "Feature",
   "geometry": {
      "type": "Point",
      "coordinates":  [ 121.5270970396358,25.05603401691468 ]
   },
   "properties": {
   "地址":"臺北市中山區新生北路二段62巷8號",
   "面積":2581.5,
   "容留人數":3442,
   "無障礙設施":""
   }
 },
 {
   "type": "Feature",
   "geometry": {
      "type": "Point",
      "coordinates":  [ 121.52613102529483,25.05650901936764 ]
   },
   "properties": {
   "地址":"臺北市中山區新生北路二段68巷15號",
   "面積":676.5,
   "容留人數":902,
   "無障礙設施":""
   }
 },
 {
   "type": "Feature",
   "geometry": {
      "type": "Point",
      "coordinates":  [ 121.5266692272977,25.056690110385745 ]
   },
   "properties": {
   "地址":"臺北市中山區新生北路二段68巷8號",
   "面積":1420.5,
   "容留人數":1894,
   "無障礙設施":""
   }
 },
 {
   "type": "Feature",
   "geometry": {
      "type": "Point",
      "coordinates":  [ 121.52679101635084,25.056540996328252 ]
   },
   "properties": {
   "地址":"臺北市中山區新生北路二段68巷9號",
   "面積":761.25,
   "容留人數":1015,
   "無障礙設施":""
   }
 },