{
"type": "FeatureCollection",
"crs": { "type": "name", "properties": { "name": "urn:ogc:def:crs:OGC:1.3:CRS84" } },
"features": [
{ "type": "Feature", "properties": { "name": "華江小菜圃", "type": "快樂農園", "dept": "工務局公園處", "area": 124.0, "method": "地植", "introduction": "" }, "geometry": { "type": "Point", "coordinates": [ 121.4891, 25.0331 ] } },
{ "type": "Feature", "properties": { "name": "建民開心農場", "type": "快樂農園", "dept": "工務局公園處", "area": 60.0, "method": "盆植", "introduction": "1.建民開心農場成立於2021年9月，認養團隊平均年齡73歲，屬於銀髮開心農場，認養期間自己除草整地栽種農作物，採用有機栽種，安裝防蟲網，不噴灑農藥，防疫期間大家遵守輪班照顧菜園，團隊成員皆遵守防疫規則。\r\n2.栽種區域有做菜配料區，葉菜青菜區，提供給建民里據點共餐長者參與收成。\r\n3. 逐步推動據點共餐長者前來菜園參觀。" }, "geometry": { "type": "Point", "coordinates": [ 121.5202, 25.1054 ] } },
{ "type": "Feature", "properties": { "name": "菁山苗圃綠屋頂", "type": "綠屋頂", "dept": "產業發展局", "area": 80.0, "method": "盆植", "introduction": "" }, "geometry": { "type": "Point", "coordinates": [ 121.5611, 25.1543 ] } },
{ "type": "Feature", "properties": { "name": "高齡健康前瞻中心綠屋頂", "type": "綠屋頂", "dept": "捷運局", "area": 126.0, "method": "盆植", "introduction": "" }, "geometry": { "type": "Point", "coordinates": [ 121.5214, 25.0559 ] } },
{ "type": "Feature", "properties": { "name": "大湖里快樂農園2", "type": "快樂農園", "dept": "工務局公園處", "area": 207.73, "method": "地植", "introduction": "" }, "geometry": { "type": "Point", "coordinates": [ 121.5999, 25.0896 ] } },
{ "type": "Feature", "properties": { "name": "第一銀行長安大樓", "type": "綠屋頂", "dept": "-", "area": 58.0, "method": "盆植", "introduction": "" }, "geometry": { "type": "Point", "coordinates": [ 121.5252, 25.0493 ] } },
{ "type": "Feature", "properties": { "name": "龍圖田園", "type": "快樂農園", "dept": "工務局公園處", "area": 78.0, "method": "地植", "introduction": "" }, "geometry": { "type": "Point", "coordinates": [ 121.5412, 25.0293 ] } },
{ "type": "Feature", "properties": { "name": "隆和里社區園圃新建案", "type": "快樂農園", "dept": "工務局公園處", "area": 55.0, "method": "盆植及地植皆有", "introduction": "" }, "geometry": { "type": "Point", "coordinates": [ 121.5127, 25.0654 ] } },
{ "type": "Feature", "properties": { "name": "小彎社宅", "type": "綠屋頂", "dept": "都市發展局", "area": 46.5, "method": "盆植", "introduction": "" }, "geometry": { "type": "Point", "coordinates": [ 121.5938, 25.058 ] } },
{ "type": "Feature", "properties": { "name": "松菸食農教育園區", "type": "快樂農園", "dept": "文化局", "area": 2500.0, "method": "地植", "introduction": "" }, "geometry": { "type": "Point", "coordinates": [ 121.5626, 25.0443 ] } },
{ "type": "Feature", "properties": { "name": "南港開心農場", "type": "快樂農園", "dept": "民政局", "area": 124.0, "method": "盆植及地植皆有", "introduction": "本基地長期種植各種疏菜,有地瓜葉,空心菜,四季豆等多種食用為主。" }, "geometry": { "type": "Point", "coordinates": [ 121.608, 25.0537 ] } },
{ "type": "Feature", "properties": { "name": "愛在敦煌里轉角遇到菜", "type": "快樂農園", "dept": "工務局公園處", "area": 200.0, "method": "盆植及地植皆有", "introduction": "" }, "geometry": { "type": "Point", "coordinates": [ 121.5556, 25.0335 ] } },
{ "type": "Feature", "properties": { "name": "三犁里開心農場", "type": "快樂農園", "dept": "工務局水利處", "area": 243.0, "method": "盆植", "introduction": "" }, "geometry": { "type": "Point", "coordinates": [ 121.5686, 25.0277 ] } },
{ "type": "Feature", "properties": { "name": "新奇岩社宅綠屋頂", "type": "綠屋頂", "dept": "都市發展局", "area": 629.07, "method": "盆植", "introduction": "" }, "geometry": { "type": "Point", "coordinates": [ 121.5034, 25.123 ] } },
{ "type": "Feature", "properties": { "name": "環保局安和分隊屋頂", "type": "綠屋頂", "dept": "環境保護局", "area": 210.0, "method": "盆植", "introduction": "" }, "geometry": { "type": "Point", "coordinates": [ 121.5532, 25.0293 ] } },
{ "type": "Feature", "properties": { "name": "環保局文山區清潔隊木柵區隊", "type": "綠屋頂", "dept": "環境保護局", "area": 143.0, "method": "盆植", "introduction": "" }, "geometry": { "type": "Point", "coordinates": [ 121.5619, 24.9882 ] } },
{ "type": "Feature", "properties": { "name": "環保局文山區清潔隊博嘉分隊", "type": "綠屋頂", "dept": "環境保護局", "area": 25.0, "method": "盆植", "introduction": "" }, "geometry": { "type": "Point", "coordinates": [ 121.5846, 25.0033 ] } },
{ "type": "Feature", "properties": { "name": "衛工處工務科東區工務所", "type": "綠屋頂", "dept": "工務局衛工處", "area": 160.0, "method": "盆植", "introduction": "" }, "geometry": { "type": "Point", "coordinates": [ 121.5737, 25.0735 ] } },
{ "type": "Feature", "properties": { "name": "花博中山足球場階梯屋頂", "type": "綠屋頂", "dept": "產業發展局", "area": 3600.0, "method": "盆植", "introduction": "" }, "geometry": { "type": "Point", "coordinates": [ 121.5216, 25.0705 ] } },
{ "type": "Feature", "properties": { "name": "警察局士林分局", "type": "綠屋頂", "dept": "警察局", "area": 214.0, "method": "盆植", "introduction": "" }, "geometry": { "type": "Point", "coordinates": [ 121.5266, 25.0907 ] } },
{ "type": "Feature", "properties": { "name": "臺北市立第二殯儀館", "type": "綠屋頂", "dept": "殯葬處", "area": 120.0, "method": "盆植", "introduction": "" }, "geometry": { "type": "Point", "coordinates": [ 121.5521, 25.0136 ] } },
{ "type": "Feature", "properties": { "name": "新移民會館", "type": "綠屋頂", "dept": "民政局", "area": 211.0, "method": "盆植", "introduction": "" }, "geometry": { "type": "Point", "coordinates": [ 121.5018, 25.0407 ] } },
{ "type": "Feature", "properties": { "name": "撫臺街洋樓", "type": "綠屋頂", "dept": "文化局", "area": 24.0, "method": "盆植", "introduction": "" }, "geometry": { "type": "Point", "coordinates": [ 121.5108, 25.0467 ] } },
{ "type": "Feature", "properties": { "name": "秘書處職員宿舍", "type": "綠屋頂", "dept": "秘書處", "area": 24.0, "method": "盆植", "introduction": "" }, "geometry": { "type": "Point", "coordinates": [ 121.5753, 25.0356 ] } },
{ "type": "Feature", "properties": { "name": "中正老人服務暨日間照顧中心幸福農場", "type": "綠屋頂", "dept": "社會局", "area": 225.0, "method": "盆植及地植皆有", "introduction": "" }, "geometry": { "type": "Point", "coordinates": [ 121.5089, 25.039 ] } },
{ "type": "Feature", "properties": { "name": "華齡公園", "type": "快樂農園", "dept": "工務局水利處", "area": 25.0, "method": "盆植及地植皆有", "introduction": "" }, "geometry": { "type": "Point", "coordinates": [ 121.5204, 25.0828 ] } },
{ "type": "Feature", "properties": { "name": "「秀山樂耕栽」城市田園", "type": "快樂農園", "dept": "工務局公園處", "area": 123.0, "method": "盆植及地植皆有", "introduction": "" }, "geometry": { "type": "Point", "coordinates": [ 121.4949, 25.1456 ] } },
{ "type": "Feature", "properties": { "name": "糖廍文化園區", "type": "快樂農園", "dept": "產業發展局", "area": 114.0, "method": "盆植及地植皆有", "introduction": "" }, "geometry": { "type": "Point", "coordinates": [ 121.4946, 25.0334 ] } },
{ "type": "Feature", "properties": { "name": "110年大湖快樂農園第二期建置計畫", "type": "快樂農園", "dept": "工務局公園處", "area": 165.0, "method": "盆植及地植皆有", "introduction": "" }, "geometry": { "type": "Point", "coordinates": [ 121.6023, 25.0861 ] } },
{ "type": "Feature", "properties": { "name": "內湖區寶湖里網球中心農", "type": "快樂農園", "dept": "體育局", "area": 139.2, "method": "盆植及地植皆有", "introduction": "" }, "geometry": { "type": "Point", "coordinates": [ 121.597, 25.0676 ] } },
{ "type": "Feature", "properties": { "name": "城南水岸農園", "type": "快樂農園", "dept": "停車管理工程處", "area": 122.0, "method": "地植", "introduction": "" }, "geometry": { "type": "Point", "coordinates": [ 121.5206, 25.0217 ] } },
{ "type": "Feature", "properties": { "name": "敦南莊子社區園圃建置計畫", "type": "快樂農園", "dept": "產業發展局", "area": 275.0, "method": "盆植及地植皆有", "introduction": "" }, "geometry": { "type": "Point", "coordinates": [ 121.5628, 24.9902 ] } },
{ "type": "Feature", "properties": { "name": "臺北市文山區萬隆社區園圃", "type": "快樂農園", "dept": "產業發展局", "area": 120.0, "method": "盆植及地植皆有", "introduction": "" }, "geometry": { "type": "Point", "coordinates": [ 121.5376, 24.9991 ] } },
{ "type": "Feature", "properties": { "name": "茵園季卉", "type": "快樂農園", "dept": "產業發展局", "area": 92.0, "method": "盆植及地植皆有", "introduction": "鼓勵民眾與社區關懷，促進綠能環保凝聚社區共識。\r\n園圃種植果苗8 株、菜圃12 區，規劃將採墊高方式，且各園圃圍邊皆會設置獨立排水管線，避免積水問題產生。" }, "geometry": { "type": "Point", "coordinates": [ 121.5776, 25.0781 ] } },
{ "type": "Feature", "properties": { "name": "台北公舘教會", "type": "綠屋頂", "dept": "建築管理工程處", "area": 64.5, "method": "盆植及地植皆有", "introduction": "台北公舘教會位於文山區內，於民國66年竣工，屋齡44年，為一棟地上4層，地下一層之建築。建築屋頂空間平坦空曠，同時開放教會民眾使用，但由於陽光曝曬環境炎熱，平時除了晾曬衣物，鮮少有人員前往使用。本案希望將閒置的屋頂空間改善成為促進人們交流活動的空間，未來開放讓參加教會活動的民眾參觀休憩。" }, "geometry": { "type": "Point", "coordinates": [ 121.5375, 25.0076 ] } },
{ "type": "Feature", "properties": { "name": "中庸2號公園", "type": "快樂農園", "dept": "工務局水利處", "area": 90.0, "method": "盆植", "introduction": "" }, "geometry": { "type": "Point", "coordinates": [ 121.5012, 25.1373 ] } },
{ "type": "Feature", "properties": { "name": "衛工處綠屋頂", "type": "綠屋頂", "dept": "工務局衛工處", "area": 500.0, "method": "盆植", "introduction": "本處為了符合綠屋頂政策，於108年請臺北市政府產業發展局協助於本處行政大樓四樓建置田園城市農園。" }, "geometry": { "type": "Point", "coordinates": [ 121.5107, 25.0724 ] } },
{ "type": "Feature", "properties": { "name": "北原會館綠屋頂農園", "type": "綠屋頂", "dept": "原住民族事務委員會", "area": 43.2, "method": "盆植", "introduction": "" }, "geometry": { "type": "Point", "coordinates": [ 121.5945, 25.0551 ] } },
{ "type": "Feature", "properties": { "name": "大安銀髮開心農園", "type": "綠屋頂", "dept": "市場處", "area": 600.0, "method": "盆植", "introduction": "" }, "geometry": { "type": "Point", "coordinates": [ 121.5473, 24.9999 ] } },
{ "type": "Feature", "properties": { "name": "開明里社區園圃", "type": "快樂農園", "dept": "工務局公園處", "area": 60.0, "method": "盆植及地植皆有", "introduction": "打造開明溫馨農趣生活環境，結合可食用植物入社區中，一群人運用生活中的公共空間，依循一定規則共同耕種與維護農作物，透過實作及開設課程對環境教育有重新認識。\r\n本里往年已認養該處為綠美化園地，周遭已有鄰里居民栽種桂花樹，外圍環繞之桂花樹頗具韻味，希望以此為基底於綠地中間架設層架種植薰衣草、迷迭香、九層塔、辣椒、番茄…等可食用植物。" }, "geometry": { "type": "Point", "coordinates": [ 121.501, 25.1407 ] } },
{ "type": "Feature", "properties": { "name": "創新小農田園", "type": "快樂農園", "dept": "地政局", "area": 1266.0, "method": "盆植及地植皆有", "introduction": "本基地為本市北投區奇岩新社區區段徵收賸餘可建築土地， 座落於北投區三合街一段 117 巷 6 弄旁（北投區三合段 62 及 65 地號土地），臨近奇岩捷運站、奇岩 2 號及 3 號公園，基地形狀呈長條形，可使用面積約 1,582.59 平方公尺（約 479 坪），於正式開發利用前，為促進土地短期利用，自即日起開放認養作田園基地使用。" }, "geometry": { "type": "Point", "coordinates": [ 121.5039, 25.1258 ] } },
{ "type": "Feature", "properties": { "name": "景慶社區發展協會", "type": "快樂農園", "dept": "工務局新建工程處", "area": 330.0, "method": "地植", "introduction": "" }, "geometry": { "type": "Point", "coordinates": [ 121.536, 24.9968 ] } },
{ "type": "Feature", "properties": { "name": "瑞光社宅綠屋頂", "type": "綠屋頂", "dept": "都市發展局", "area": 243.33, "method": "盆植", "introduction": "" }, "geometry": { "type": "Point", "coordinates": [ 121.5791, 25.0736 ] } },
{ "type": "Feature", "properties": { "name": "中南社宅綠屋頂", "type": "綠屋頂", "dept": "都市發展局", "area": 88.52, "method": "盆植", "introduction": "" }, "geometry": { "type": "Point", "coordinates": [ 121.619, 25.043 ] } },
{ "type": "Feature", "properties": { "name": "明倫社宅綠屋頂", "type": "綠屋頂", "dept": "都市發展局", "area": 432.19, "method": "盆植", "introduction": "" }, "geometry": { "type": "Point", "coordinates": [ 121.5195, 25.0732 ] } },
{ "type": "Feature", "properties": { "name": "木柵社宅綠屋頂", "type": "綠屋頂", "dept": "都市發展局", "area": 448.04, "method": "盆植", "introduction": "" }, "geometry": { "type": "Point", "coordinates": [ 121.5664, 24.9892 ] } },
{ "type": "Feature", "properties": { "name": "東明社宅綠屋頂", "type": "綠屋頂", "dept": "都市發展局", "area": 1619.3, "method": "盆植", "introduction": "" }, "geometry": { "type": "Point", "coordinates": [ 121.6039, 25.0543 ] } },
{ "type": "Feature", "properties": { "name": "臺北NPO聚落", "type": "綠屋頂", "dept": "社會局", "area": 255.0, "method": "盆植", "introduction": "" }, "geometry": { "type": "Point", "coordinates": [ 121.5152, 25.0297 ] } },
{ "type": "Feature", "properties": { "name": "舊莊里店仔口快樂農園", "type": "快樂農園", "dept": "民政局", "area": 525.0, "method": "盆植及地植皆有", "introduction": "" }, "geometry": { "type": "Point", "coordinates": [ 121.6244, 25.0374 ] } },
{ "type": "Feature", "properties": { "name": "101味覺站", "type": "快樂農園", "dept": "工務局公園處", "area": 198.0, "method": "盆植及地植皆有", "introduction": "" }, "geometry": { "type": "Point", "coordinates": [ 121.5207, 25.0219 ] } },
{ "type": "Feature", "properties": { "name": "劍潭里友善菜園", "type": "快樂農園", "dept": "民政局", "area": 43.31, "method": "盆植及地植皆有", "introduction": "" }, "geometry": { "type": "Point", "coordinates": [ 121.538, 25.0849 ] } },
{ "type": "Feature", "properties": { "name": "玉成里青銀共榮基地城市農園", "type": "綠屋頂", "dept": "社會局", "area": 52.85, "method": "盆植", "introduction": "" }, "geometry": { "type": "Point", "coordinates": [ 121.58, 25.0503 ] } },
{ "type": "Feature", "properties": { "name": "艋舺糖廍永續甘蔗園", "type": "快樂農園", "dept": "工務局公園處", "area": 83.48, "method": "地植", "introduction": "" }, "geometry": { "type": "Point", "coordinates": [ 121.4942, 25.0335 ] } },
{ "type": "Feature", "properties": { "name": "四分溪畔的幸福綠廊-打造跨齡園圃", "type": "快樂農園", "dept": "工務局公園處", "area": 467.5, "method": "盆植及地植皆有", "introduction": "" }, "geometry": { "type": "Point", "coordinates": [ 121.6169, 25.0366 ] } },
{ "type": "Feature", "properties": { "name": "樟文社區友愛農場-開心園圃", "type": "快樂農園", "dept": "產業發展局", "area": 57.87, "method": "盆植及地植皆有", "introduction": "" }, "geometry": { "type": "Point", "coordinates": [ 121.5551, 24.9817 ] } },
{ "type": "Feature", "properties": { "name": "忠孝頂好社區快樂農園", "type": "快樂農園", "dept": "產業發展局", "area": 26.82, "method": "盆植及地植皆有", "introduction": "" }, "geometry": { "type": "Point", "coordinates": [ 121.5362, 25.044 ] } },
{ "type": "Feature", "properties": { "name": "學府123社區園圃", "type": "快樂農園", "dept": "民政局", "area": 76.2, "method": "地植", "introduction": "" }, "geometry": { "type": "Point", "coordinates": [ 121.5377, 25.0101 ] } },
{ "type": "Feature", "properties": { "name": "蒲公英希望基地", "type": "快樂農園", "dept": "工務局公園處", "area": 918.76, "method": "盆植及地植皆有", "introduction": "" }, "geometry": { "type": "Point", "coordinates": [ 121.5214, 25.0506 ] } },
{ "type": "Feature", "properties": { "name": "青溪小農田園", "type": "快樂農園", "dept": "地政局", "area": 649.0, "method": "盆植", "introduction": "本基地為本市北投區奇岩新社區區段徵收其餘可建築土地，座落於北投區三合街一段79巷交叉口（北投區三合段55地號土地），臨近奇岩捷運站，基地形狀呈正方形，可使用面積約811.8平方公尺（約246坪），於正式開發利用前，為促進土地短期利用，自即日起開放認養作田園基地使用。" }, "geometry": { "type": "Point", "coordinates": [ 121.5049, 25.1266 ] } },
{ "type": "Feature", "properties": { "name": "長青樂活田園", "type": "快樂農園", "dept": "地政局", "area": 967.0, "method": "盆植", "introduction": "本基地為本市北投區奇岩新社區區段徵收賸餘可建築土地，座落於北投區三合街一段36巷交叉口（北投區三合段52地號土地），臨近奇岩捷運站，基地形狀呈梯形，可使用面積約1,208平方公尺（約366坪），於正式開發利用前，為促進土地短期利用，自即日起開放認養作田園基地使用。" }, "geometry": { "type": "Point", "coordinates": [ 121.506, 25.1271 ] } },
{ "type": "Feature", "properties": { "name": "中山區公所田園綠屋頂", "type": "綠屋頂", "dept": "民政局", "area": 60.0, "method": "盆植", "introduction": "" }, "geometry": { "type": "Point", "coordinates": [ 121.5336, 25.0643 ] } },
{ "type": "Feature", "properties": { "name": "象山農場PIZZA花園", "type": "快樂農園", "dept": "-", "area": 13223.2, "method": "盆植及地植皆有", "introduction": "四獸山下的一處世外桃源，由象山農場社會企業經營，提供專業課程：如園藝輔助治療、藝術統合教育....等，並實踐綠色照護(Green Care)，構成身心障礙者及一般市民與自然連結的療癒場所。" }, "geometry": { "type": "Point", "coordinates": [ 121.5789, 25.0307 ] } },
{ "type": "Feature", "properties": { "name": "士林區公所開心農場", "type": "綠屋頂", "dept": "民政局", "area": 100.0, "method": "盆植", "introduction": "為發展綠色健康的田園城市，整合都市中可以耕作的面積，本公所於士林區行政中心頂樓建置田園基地，本基地利用直立式盆栽種植蔬菜（含香料植物），並依各式節令種植不同植物，如青江菜、小黃瓜、蕃茄、韮菜、九層塔、蘿勒、巴西利、薫衣草等……，只要有興趣的皆能種植。" }, "geometry": { "type": "Point", "coordinates": [ 121.5195, 25.093 ] } },
{ "type": "Feature", "properties": { "name": "第一財經大樓-綠屋頂農園", "type": "綠屋頂", "dept": "建築管理工程處", "area": 221.06, "method": "盆植", "introduction": "第一財經大樓-綠屋頂農園" }, "geometry": { "type": "Point", "coordinates": [ 121.5249, 25.0489 ] } },
{ "type": "Feature", "properties": { "name": "歌林商業大廈", "type": "綠屋頂", "dept": "建築管理工程處", "area": 44.0, "method": "盆植", "introduction": "歌林商業大樓為一規劃地上13 層的住商混和大樓，自1995 年完工以來屋齡已將近25 年，近年來旅館及各式商用單位的入駐，也使大樓的人流更豐富許多，因此本單位也希望能讓公共環境的品質有所提升，提供更好的舒適度給大樓使用者。\r\n\r\n經過初步評估，屋頂結構及各項機能皆正常，欲申請補助「建築生態保護」項目中「建築物屋頂綠化」項目，目的是希望提供居民更友善的活動空間。\r\n\r\n規劃設計主要分為後勤工作區、植栽區、活動區，其中後勤工作區包含育苗區、有機利用區、收納間等功能配置，使屋頂綠化同時也能有更多元的應用性；植栽區設置了一個以不鏽鋼骨架結合炭竹板材料拼接而成的環繞式植栽平台，平台內部鋪設阻根膜、蓄排水板、不織布，防止植物根系破壞結構物，植物生長介質的部分為輕質壤土，而其中配置了菜苗及香草等植物，形成供人參觀、認養的圓形走道，同時圍牆上也增加綠化設計，營造更多層次的綠化面；活動區設置了一個地坪架高結構與訂製桌台結合，可供人舒適的坐著欣賞植栽，及各種活動需要的應用等。\r\n植栽配置方面，蔬菜作物以菜苗種植，香草類的植物規格以3 吋盆為主，種類如薄荷、迷迭香、香蜂草等；也會搭配一些小型果樹，如金桔、檸檬、番茄等，或其他植物，可依現場調整。\r\n" }, "geometry": { "type": "Point", "coordinates": [ 121.5131, 25.0431 ] } },
{ "type": "Feature", "properties": { "name": "中正區行政中心屋頂菜園", "type": "綠屋頂", "dept": "民政局", "area": 50.0, "method": "盆植", "introduction": "中正區行政中心屋頂菜園" }, "geometry": { "type": "Point", "coordinates": [ 121.5248, 25.0443 ] } },
{ "type": "Feature", "properties": { "name": "陽明所綠屋頂", "type": "綠屋頂", "dept": "工務局公園處", "area": 300.0, "method": "盆植", "introduction": "陽明所綠屋頂" }, "geometry": { "type": "Point", "coordinates": [ 121.5301, 25.0906 ] } },
{ "type": "Feature", "properties": { "name": "園藝所綠屋頂", "type": "綠屋頂", "dept": "工務局公園處", "area": 200.0, "method": "盆植", "introduction": "公園處園藝所綠屋頂" }, "geometry": { "type": "Point", "coordinates": [ 121.5299, 25.091 ] } },
{ "type": "Feature", "properties": { "name": "永樂國小小田園", "type": "快樂農園", "dept": "產業發展局", "area": 52.0, "method": "盆植及地植皆有", "introduction": "利用學校閒置空間，配合十二年國民基本教育課程綱要，做為學生田園食農教育的教材及實習運用場地。\r\nA 區-香草植物區種植香草植物。\r\nB 區-階梯田園區 種植七彩番茄、草莓、無花果及萵苣等。用不同高度的菜盆種植箱和空心磚或廢棄桌椅呈現階梯式種植區，以利不同身高種植者施作。\r\nC 區-平地田園區 種植香草植物、可食用辛香料植物，原地種的地瓜、地瓜葉、及紅鳳菜等沿用，以耐陰作物為主，區隔磚旁加置鵝卵石，作為施作站立的落腳處。\r\nD 區-堆肥區 用空心磚圍長寬兩邊，收集校園樹葉、種植廢棄殘葉堆肥。" }, "geometry": { "type": "Point", "coordinates": [ 121.5111, 25.0613 ] } },
{ "type": "Feature", "properties": { "name": "香檳快樂農園", "type": "快樂農園", "dept": "產業發展局", "area": 75.0, "method": "盆植", "introduction": "社區CD棟前中庭清除地面青苔，規劃香草區、攀藤區、高架植床區種植葉菜，不定期辦理社區活動分享" }, "geometry": { "type": "Point", "coordinates": [ 121.5492, 25.0785 ] } },
{ "type": "Feature", "properties": { "name": "青年社宅一期", "type": "綠屋頂", "dept": "都市發展局", "area": 452.0, "method": "盆植", "introduction": "柯市長走訪健康社宅及青年一區社宅，期許不斷精進服務市民\r\nhttps://www.udd.gov.taipei/pages/detail.aspx?Node=38&Page=12159&Index=3" }, "geometry": { "type": "Point", "coordinates": [ 121.5036, 25.0202 ] } },
{ "type": "Feature", "properties": { "name": "台北市立西松高中小田園", "type": "小田園", "dept": "教育局", "area": 196.6, "method": "盆植及地植皆有", "introduction": "台北市立西松高中" }, "geometry": { "type": "Point", "coordinates": [ 121.567, 25.0558 ] } },
{ "type": "Feature", "properties": { "name": "大同區行政中心屋頂菜園", "type": "綠屋頂", "dept": "民政局", "area": 1050.0, "method": "盆植", "introduction": "本區行政中心屋頂菜園，是府產業局於2015年舉辦的「打造田園城市-社區園圃種子師資培訓課程」中，與課程結合而建置的基地。該課程的小組成員與大同社區大學、大同區公所的合作下，利用大同區行政中心(本大樓還有蘭州市場)的屋頂空間，設計出本基地的配置。本基地主要由架高的黑色組合通氣種植箱，排出「大同」字樣。另外，因應屋頂上各式管線造成行走障礙，還設計了木樓梯跨越這些管線。 目前，由大同社區大學及揚雅里辦公處共同認養。" }, "geometry": { "type": "Point", "coordinates": [ 121.5151, 25.0661 ] } },
{ "type": "Feature", "properties": { "name": "士林區溪洲段快樂農園", "type": "快樂農園", "dept": "工務局公園處", "area": 1627.0, "method": "盆植及地植皆有", "introduction": "位於士林區福安里的長型公有土地，鄰近福安國中。" }, "geometry": { "type": "Point", "coordinates": [ 121.4894, 25.1016 ] } },
{ "type": "Feature", "properties": { "name": "林中昆院區田園區", "type": "快樂農園", "dept": "聯合醫院", "area": 50.0, "method": "盆植及地植皆有", "introduction": "本院昆明大樓1樓「寬心中藥園」，為讓院區周遭民眾與院內同仁、實習醫學生等認識藥用植物所建置之中藥草園，平時係由藥劑科同仁維護管理，並利用特定節慶時間使用藥園植物，製作端午香包、左手香膏等，做為教學手作實例，兼具教育與實用性。" }, "geometry": { "type": "Point", "coordinates": [ 121.5045, 25.0445 ] } },
{ "type": "Feature", "properties": { "name": "和平婦幼院區觀賞田園區", "type": "綠屋頂", "dept": "聯合醫院", "area": 30.0, "method": "盆植", "introduction": "本院區於婦幼二棟大樓屋頂露臺，打造觀賞用花園，基於安全問題，不對外開放，僅讓員工及註點外包廠商於環境教育法課程後進行屋頂花園參觀紓壓，目前種植均為觀賞用植物，無收成情形。" }, "geometry": { "type": "Point", "coordinates": [ 121.5193, 25.0291 ] } },
{ "type": "Feature", "properties": { "name": "聯合醫院昆明院區", "type": "綠屋頂", "dept": "聯合醫院", "area": 151.0, "method": "盆植", "introduction": "本案為昆明大樓屋頂建置木座架高植栽箱共40組，供院區同仁閒暇之餘能有一處觀賞、維護之景觀花園，初步由產業局協助建置完成後，由本院區接管，目前係栽種香草類植物，未來將開放由同仁認養。" }, "geometry": { "type": "Point", "coordinates": [ 121.5049, 25.0443 ] } },
{ "type": "Feature", "properties": { "name": "松德療癒庭園--菜圃建置(2號)", "type": "快樂農園", "dept": "聯合醫院", "area": 88.0, "method": "盆植", "introduction": "105-106年結合政府及民間設置療癒森林。田園基地日常化運作，應用於療癒舒壓及病患復健，發揮綜效、永續經營，包含精神病患復健與工作訓練(栽種、維護、販售)、失智症病患園藝療癒、精神官能症病患紓壓環境、員工及志工紓壓與休憩及里民參與耕作、社區共好。" }, "geometry": { "type": "Point", "coordinates": [ 121.5754, 25.0286 ] } },
{ "type": "Feature", "properties": { "name": "松德療癒庭園--菜圃建置(1號)", "type": "快樂農園", "dept": "聯合醫院", "area": 88.0, "method": "盆植及地植皆有", "introduction": "105-106年結合政府及民間設置療癒森林。田園基地日常化運作，應用於療癒舒壓及病患復健，發揮綜效、永續經營，包含精神病患復健與工作訓練(栽種、維護、販售)、失智症病患園藝療癒、精神官能症病患紓壓環境、員工及志工紓壓與休憩及里民參與耕作、社區共好。" }, "geometry": { "type": "Point", "coordinates": [ 121.5754, 25.0286 ] } },
{ "type": "Feature", "properties": { "name": "忠孝院區田園區", "type": "快樂農園", "dept": "聯合醫院", "area": 100.0, "method": "盆植及地植皆有", "introduction": "這裡原先是醫院末端的一角，經醫院長官支持與同仁後熱心參與改造，建置成病患及家屬療癒的休憩空間，現在還種植著各種觀賞用食用性蔬菜，成為病友們感情交流的園地。" }, "geometry": { "type": "Point", "coordinates": [ 121.5862, 25.0466 ] } },
{ "type": "Feature", "properties": { "name": "中興院區田園區", "type": "快樂農園", "dept": "聯合醫院", "area": 240.0, "method": "地植", "introduction": "本院於105年度規劃設計，由錫鎦基金會協助建置7樓A-C區間露臺90平方公尺 (陽光室旁) 花園，B-C區間150平方公尺花園二處，皆於106年度建置完成。於高聳大樓中，保留一處開闊綠地及藍天，往窗外一望，即可將美景盡收眼底。設置無障礙斜坡、走道，供民眾可使用輪椅或推床至花園觀賞。花園內設置遮陽傘及長排桌椅，可於花園休憩。由志工群認養後親自栽種蔬果，致力建造可食地景，園內除兩側種植可食蔬菜，觀賞用花卉也多數可食用採用自然農法，不噴灑農藥，由志工群手工除草、除害蟲。\r\n" }, "geometry": { "type": "Point", "coordinates": [ 121.5093, 25.051 ] } },
{ "type": "Feature", "properties": { "name": "民生社區活動中心屋頂菜園", "type": "綠屋頂", "dept": "民政局", "area": 1250.0, "method": "盆植", "introduction": "本屋頂田園，位於民生社區活動中心頂樓。本基地由架高的黑色組合通氣種植箱作為種植，有木橋跨越屋頂的管線。目前由三民里認養。 另外，屋頂田園無嚴格的門禁管制。通往屋頂的空間淨高有2公尺以上， 需經過室內體育館。未設置雨水回收系統。" }, "geometry": { "type": "Point", "coordinates": [ 121.5629, 25.0593 ] } },
{ "type": "Feature", "properties": { "name": "松山行政中心頂樓空中菜園", "type": "綠屋頂", "dept": "民政局", "area": 19.44, "method": "盆植", "introduction": "本屋頂田園，位於松山區行政中心頂樓。本基地由架高的黑色組合通氣種植箱作為種植。目前由松山區公所各課室同仁及合署單位(松山區健康服務中心)認養種植認養。 " }, "geometry": { "type": "Point", "coordinates": [ 121.5773, 25.0499 ] } },
{ "type": "Feature", "properties": { "name": "松菸伙新仁農園", "type": "快樂農園", "dept": "文化局", "area": 502.0, "method": "盆植及地植皆有", "introduction": "[松菸伙新仁農園]\r\n以磚塊圍框及棚架的方式闢建快樂農園，農園為達水資源循環與有效利用增置水撲滿，集雨水灌溉並有水草與養生物，達到魚菜共生效用，鄰近住宅區，旁為松山文創園區，賦予市中心活潑又富生態的獨特樣貌，吸引民眾目光並推廣田園城市。" }, "geometry": { "type": "Point", "coordinates": [ 121.5625, 25.0443 ] } },
{ "type": "Feature", "properties": { "name": "鵬程快樂農園", "type": "快樂農園", "dept": "工務局公園處", "area": 1176.0, "method": "盆植", "introduction": "於2015年10月28日啟用，作物直接種植於土壤上，以及擺設在混凝土鋪面上的塑膠容器。 本區為開放空間，鄰馬路側有矮木格柵。" }, "geometry": { "type": "Point", "coordinates": [ 121.5677, 25.0565 ] } },
{ "type": "Feature", "properties": { "name": "北投區行政中心屋頂菜園-2", "type": "綠屋頂", "dept": "民政局", "area": 1083.0, "method": "盆植", "introduction": "北投區行政中心屋頂菜園" }, "geometry": { "type": "Point", "coordinates": [ 121.503, 25.1324 ] } },
{ "type": "Feature", "properties": { "name": "內湖區行政中心屋頂菜園", "type": "綠屋頂", "dept": "民政局", "area": 187.18, "method": "盆植及地植皆有", "introduction": "內湖區行政中心屋頂菜園" }, "geometry": { "type": "Point", "coordinates": [ 121.589, 25.0694 ] } },
{ "type": "Feature", "properties": { "name": "士林警察宿舍田園基地", "type": "快樂農園", "dept": "都市更新處", "area": 876.0, "method": "盆植及地植皆有", "introduction": "本基地位在葫蘆里葫蘆寺旁，原為廢棄的警察宿舍，因應臺北市政府的田園城市政策，2015年6月拆除完宿舍，改造成為田園。作物種植於土面。目前主要由葫蘆里居民認養。本區為開放空間。" }, "geometry": { "type": "Point", "coordinates": [ 121.5085, 25.085 ] } },
{ "type": "Feature", "properties": { "name": "聯合醫院林森院區", "type": "綠屋頂", "dept": "聯合醫院", "area": 93.0, "method": "盆植", "introduction": "聯合醫院林森院區綠屋頂" }, "geometry": { "type": "Point", "coordinates": [ 121.5254, 25.0635 ] } },
{ "type": "Feature", "properties": { "name": "岩山眾田樂", "type": "快樂農園", "dept": "工務局公園處", "area": 447.0, "method": "盆植及地植皆有", "introduction": "規畫不同栽培區域以不同方式種植可食作物，並融入當地景觀，成為一特別的地方景致。" }, "geometry": { "type": "Point", "coordinates": [ 121.5382, 25.0997 ] } },
{ "type": "Feature", "properties": { "name": "德行里繽紛農趣", "type": "快樂農園", "dept": "工務局公園處", "area": 128.0, "method": "盆植及地植皆有", "introduction": "本基地位於SOGO百貨後方的德行公園，在德行里里長及里民合作下，在原有景觀設計造型的碎石鋪面上，擺設黑色組合通氣種植箱，種植作物，與原有設計融合，是具有景觀效果的地面城市田園。本區為開放空間。\r\nFacebook：士林區德行里繽紛農趣" }, "geometry": { "type": "Point", "coordinates": [ 121.5235, 25.1055 ] } },
{ "type": "Feature", "properties": { "name": "萬華區行政中心屋頂菜園", "type": "綠屋頂", "dept": "民政局", "area": 20.0, "method": "盆植", "introduction": "萬華區公所的菜園，巧妙的利用不同的盆栽，提供三種不同型態的區域，在牆邊的盆栽可防止參與者因接近圍牆而產生危險，另外沿著建築物也設計了兩個雨水回收器，蒐集的雨水可用於園圃使用。\r\n依不同季節種植適合當令之蔬菜：如地瓜葉、芹菜、波菜、小白菜、九層塔、小黃瓜、香菜、薄荷、胡蘿蔔等等約36個盆栽。" }, "geometry": { "type": "Point", "coordinates": [ 121.4999, 25.035 ] } },
{ "type": "Feature", "properties": { "name": "南港744田園", "type": "快樂農園", "dept": "民政局", "area": 198.85, "method": "地植", "introduction": "本基地長期種植各種疏菜,有地瓜葉,空心菜,四季豆等多種食用為主。" }, "geometry": { "type": "Point", "coordinates": [ 121.6069, 25.0518 ] } },
{ "type": "Feature", "properties": { "name": "南港744-3田園", "type": "快樂農園", "dept": "民政局", "area": 577.06, "method": "盆植及地植皆有", "introduction": "本基地長期種植各種疏菜,有地瓜葉,空心菜,四季豆等多種食用為主。" }, "geometry": { "type": "Point", "coordinates": [ 121.6079, 25.0518 ] } },
{ "type": "Feature", "properties": { "name": "臺北市中正區社會福利綜合大樓綠屋頂", "type": "綠屋頂", "dept": "社會局", "area": 281.0, "method": "盆植及地植皆有", "introduction": "臺北市中正區延平南路207號\r\n\r\n本大樓服務對象包含婦女、兒少、身心障礙者及弱勢家庭，利用屋頂種植植栽提供被服務者及社工人員療育效果，放鬆身心靈。" }, "geometry": { "type": "Point", "coordinates": [ 121.5075, 25.0327 ] } },
{ "type": "Feature", "properties": { "name": "微笑農場", "type": "快樂農園", "dept": "工務局公園處", "area": 264.0, "method": "地植", "introduction": "本基地位在天山里，在里長及士林區公所努力下，在住宅區中打造出一塊田園。 作物種植於土面木框圍成的畦，並設有木花架。 本區為開放空間，有1株受保護的大榕樹，鄰馬路側有矮木欄杆及春不老綠籬。" }, "geometry": { "type": "Point", "coordinates": [ 121.5324, 25.1203 ] } },
{ "type": "Feature", "properties": { "name": "員工植栽園地", "type": "綠屋頂", "dept": "臺北市政府公共事務管理中心", "area": 608.0, "method": "地植", "introduction": "員工植栽園地位於市政大樓12樓南區樓頂，全區共計154個植槽供員工認養栽種，每個植槽約0.9平方公尺。開闢此一園區，系提供同仁藉由接觸植物、觀察生長歷程及收成喜悅，達到舒緩公務壓力、身心療癒之功能。\r\n本園區154個植槽已由市府同仁登記認養，同仁利用非上班時段、中午休息時間以及下午茶空檔進行整理維護。" }, "geometry": { "type": "Point", "coordinates": [ 121.5638, 25.0375 ] } },
{ "type": "Feature", "properties": { "name": "信義區行政中心屋頂菜園", "type": "綠屋頂", "dept": "民政局", "area": 120.0, "method": "盆植及地植皆有", "introduction": "一、臺北市信義區公所建置的綠屋頂為臺北市行政機關的發源地。本所持續配合市政府政策開放各界學術研究、標竿示範、生態鄉土教學、園藝治療等。\r\n二、公部門執行對綠屋頂的落實維護管理，發揮綠屋頂功效，帶動民間的重視與效法。\r\n三、初期綠屋頂的設置花費雖較高，但直接隔熱降溫節省能源費用並增加房地產價值及延長屋頂壽命等可抵銷其投資。\r\n四、經研究發現，建置綠屋頂前最好的防水就是排水而氣候、植物和介質之間的關係是建置綠屋頂良窳的關鍵。\r\n" }, "geometry": { "type": "Point", "coordinates": [ 121.5668, 25.0333 ] } },
{ "type": "Feature", "properties": { "name": "悠活萬華食育農莊(萬華區健康服務中心)", "type": "綠屋頂", "dept": "衛生局", "area": 190.0, "method": "盆植", "introduction": "萬華區健康服務中心於105年配合市府田園城市政策，在屋頂規劃設置綠屋頂「悠活萬華-食育農莊」，運用蚯蚓共生系統及盆植、水耕，種植無毒蔬果，並藉由辦理健康促進相關活動，讓民眾真實接觸食育，推廣健康飲食理念。" }, "geometry": { "type": "Point", "coordinates": [ 121.4976, 25.0232 ] } },
{ "type": "Feature", "properties": { "name": "草山農莊市民農園", "type": "市民農園", "dept": "產業發展局", "area": 1320.0, "method": "盆植及地植皆有", "introduction": "草山農莊位於陽明山永公路52號旁,緊鄰仰德大道約500公尺,占地約1600坪，農莊能遠眺淡水河、觀音山、台北101大樓等，風景秀麗，視野寬廣。\r\n\r\n陽明山的土地肥沃,擁有豐富的礦物質及微量元素，灌溉用水來自擎天崗乾淨無污染的青礐溪山泉水，極佳的空氣、土壤，山泉水及較低的溫度，非常適合自然耕種。\r\n\r\n農莊提供10個單位，每單位為10坪，為了推廣無毒農業，本農莊為無毒耕種，歡迎有興趣的市民朋友把握機會，一起在這塊淨土共享健康與快樂。" }, "geometry": { "type": "Point", "coordinates": [ 121.5536, 25.1149 ] } },
{ "type": "Feature", "properties": { "name": "溪水旁休閒市民農園（木柵第三市民農園）", "type": "市民農園", "dept": "產業發展局", "area": 1815.0, "method": "盆植及地植皆有", "introduction": "位置 :\r\n 位於政大後山山腰之梯田上，占地約2,300坪；園內分種菜區、茶園區、竹筍園區、苦茶園區、果園區、休憩區及停車區。四周登山步道環繞，可通附近的杏花林、貓空纜車，樟樹步道、樟湖步道、樟山寺等風景區。\r\n\r\n好山好水，是種菜、養生、休閒、健身的好地方 : \r\n本農園三面環山，有如一顆明珠鑲在綠色的地毯上， 101大樓、新光三越等台北地標遠處清晰可見，並能遠眺陽明山、觀音山，風景秀麗，視野寬廣；有清澈溪水從旁流過，夏天可以戲水、垂釣；有天然甘甜的山泉水從園中湧出，可供灌溉及飲用；有清涼的山風吹拂著；林木茂盛、芬多精充足，空氣清新，水質良好，土壤肥沃，是種菜、養生、休閒及健身的好地方，來過的人都說有如世外桃源。\r\n\r\n有機農法經營，生態豐富、旺盛；以無汙染、自然甘甜的山泉水灌溉，吃得健康、安心及營養 : \r\n常有藍鵲、白鷺鷥、竹雞等飛來覓食弄影，鳳蝶、蜻蜓、蜜蜂、穿梭飛舞其中，自然生態豐富且旺盛，可用綠草如茵，鳥語花香、蟲鳴鳥叫來描述農園生態的美妙；每年4至6月農場內及周邊的草叢中，晚上有螢火蟲閃亮飛舞。更有蟬、青蛙、樹蛙、蟾蜍、蚯蚓等小動物引吭高歌，譜成美妙的月光田園交響樂曲。園區內依季節種植四季蔬果；以無汙染、自然甘甜的山泉水灌溉；採有機農法種植，吃的安心、健康、營養，避免農藥、除草劑及化肥對身體及土地的毒害。種出的蔬果，保留有香甜的自然風味，口感及營養，堪稱一流，吃到的人讚不絕口。\r\n\r\n享受山風徐來，心曠神怡，泡好茶的樂趣 : \r\n開心農夫農餘之際，三五好友可到休憩區泡茶，並可品嘗農場自家生產，有機農法製作，沒噴農藥、除草劑及化肥的鐵觀音茶，彼此交換種菜心得，山風徐來，遠離塵囂，心曠神怡，寵辱皆忘，辛勞也就煙消雲散了。\r\n\r\n高品質的附屬農產品，歡迎訂購 : \r\n本農場有機農法生產的農產品有苦茶油、綠竹筍、鐵觀音茶、紅茶、絲瓜露等，品質極優，口感鮮甜，包君滿意，歡迎訂購；另有純種土鵝小鵝，有需要者，可預先訂購。\r\n\r\n不用付高昂的買地成本，也不用到遙遠的中部、南部、東部等遠地方，只要少許的租金，就可以擁有台北市交通便利，好山好水，風景秀麗，土質良好的農地，並有專人指導及澆水服務 (費用另計) 。歡迎有興趣種菜的朋友，無論上班族或退休族，有無經驗皆可加入木柵區第三市民農園的行列，體驗城市農夫的樂趣，吃的健康、營養，無毒，遠離疾病，達成身、心、靈更健壯的人生。" }, "geometry": { "type": "Point", "coordinates": [ 121.5766, 24.9731 ] } },
{ "type": "Feature", "properties": { "name": "市立湖山國小小田園", "type": "小田園", "dept": "教育局", "area": 200.0, "method": "盆植及地植皆有", "introduction": "市立湖山國小" }, "geometry": { "type": "Point", "coordinates": [ 121.5359, 25.1498 ] } },
{ "type": "Feature", "properties": { "name": "市立木柵國小小田園", "type": "小田園", "dept": "教育局", "area": 135.09, "method": "盆植及地植皆有", "introduction": "市立木柵國小" }, "geometry": { "type": "Point", "coordinates": [ 121.5702, 24.9905 ] } },
{ "type": "Feature", "properties": { "name": "風動草市民農園(士林第七市民農園)", "type": "市民農園", "dept": "產業發展局", "area": 825.0, "method": "盆植及地植皆有", "introduction": "位於士林區溪山里陽明山國家公園保護區內的 風動草市民農園(士林第七市民農園)，成立於民國100年6月，農園主郭先生為保留祖先留下來的乾淨土地，而實施 有機農法，是 本市第二個通過有機認證的市民農園，更是台北市唯一提供 認養制 的市民農園。\r\n\r\n郭先生表示，本農園除提供市民實習耕作外，因地處偏遠，亦提供菜圃認養，讓市民單純享受收穫的喜悅，免除每週往返耕種的辛勤。\r\n\r\n郭先生說，有機蔬菜實習耕種者需自備種子或種苗種植自己喜歡的蔬果，農園主會教授有機蔬菜栽培技巧，並協助平日的管理照顧；菜圃認養則由農園主負責種植，市民單純享受採收，故以當季蔬果為主。歡迎認同自然農法的市民朋友，到這裡來享受健康、安全的有機生活。" }, "geometry": { "type": "Point", "coordinates": [ 121.5875, 25.1387 ] } },
{ "type": "Feature", "properties": { "name": "至善明哲園市民農園（士林第六市民農園）", "type": "市民農園", "dept": "產業發展局", "area": 990.0, "method": "盆植及地植皆有", "introduction": "位於士林至善路的 至善明哲園 又稱為 士林第六市民農園，是一處景觀絕佳、風景優美的農園，任何一處皆可清晰看到台北地標101大樓，還可以見到中央山脈，更值得一提的是農園內保有特殊的梯田景觀，絕對是您假日踏青、賞景的最佳去處。\r\n\r\n園主郭先生，是個疼惜土地且樂於吸收新知的新一代農民，他堅持以有機的方式耕作這一片祖先留下來的田地，因為他的執著，這裡保留了 原始的梯田景觀 及 完整的生態，更重要的是園區內所種出來的有機農產品，絕對可安心食用，至善明哲園不但是台北市唯一取得慈心有機認證的市民農園，更是陽明山國家公園內唯一生產有機稻米的農園。\r\n\r\n本農園佔地 約1公頃，為了提供市民一個活動筋骨，體驗農家生活的園地，特別規劃出 30個單位 作為市民農園，供民眾實習耕種，園主將 親自教導耕作程序，諸如如何製造有機肥料，以及介紹自然界食物鏈的運作方式等等，您可在此體驗結合生活、知識、生產及休閒為一體的樂活生活，做一個快樂的都市人。" }, "geometry": { "type": "Point", "coordinates": [ 121.5875, 25.1387 ] } },
{ "type": "Feature", "properties": { "name": "日月滿市民農園（士林第五市民農園）", "type": "市民農園", "dept": "產業發展局", "area": 825.0, "method": "盆植及地植皆有", "introduction": "日月滿市民農園 佔地 0.7 公頃並擁有得天獨厚的自然環境，及濃厚的農村悠閒風味，園主蔡詩通為人風趣和藹，每天造訪農園的民眾絡繹不絕，因而取名為「日月滿」。\r\n\r\n年近80、一生務農的蔡老先生對各季節蔬菜的栽種時機及方法瞭如指掌，是實習耕種戶最佳的指導老師。熱心健談的他不但熱於技術指導，亦會隨時巡視並關心耕作實習戶的栽種情形，保證讓初次接觸農耕的門外漢也能享受豐收的喜悅。\r\n\r\n農園位於平等里平菁街旁，不但風景優美、視野遼闊，同時也是一個結合觀光柑橘園及休閒農場於一身的多元化農園。目前除了擁有25個實習耕種單位，供市民朋友享受農耕的樂趣外，閒不下來的蔡老先生還在園內的露天菜圃及溫室，種植各種季節蔬菜供民眾及學童享受採收的樂趣。\r\n\r\n冬天前來，可別錯過園區內最火紅的作物：紅蘿蔔及草山桶柑，這裡所出產的紅蘿蔔又香又甜，內行的饕客們都知道，做菜時只要加入這裡的紅蘿蔔，別人是炒菜不必放肉絲，您卻是不必放味精。" }, "geometry": { "type": "Point", "coordinates": [ 121.5717, 25.1217 ] } },
{ "type": "Feature", "properties": { "name": "北投第一市民農園", "type": "市民農園", "dept": "產業發展局", "area": 4950.0, "method": "盆植及地植皆有", "introduction": "北投第一市民農園 是目前台北市面積最大的市民農園，佔地約有六甲，其中約有1,000多坪規劃為農耕體驗區，並劃分為200個租耕單位，每月租金500~600元不等，視租約長短而定。由於園區位置近北投東昇路旁，地勢較為平坦，出租率幾乎高達到95％以上。\r\n\r\n老園主原為陽明大學 昆蟲及寄生蟲方面 的 專業教授，主張以自然耕作法耕種，教授實習耕作戶如何使用天然的辣椒水阻擋葉蟲，適度給予害蟲生存的空間，這是一種非常合乎自然生態的耕作方式，在此租耕的實習耕作戶，所種出來的蔬菜不但豐美有機，無農藥殘留，且 收成率非常高。其兒在老園主過世後接棒。\r\n\r\n秉持著老園主的熱誠，農園現在200個租耕單位幾乎全部滿額，同時本農園也經常舉辦各種聚會與活動，增進實習耕作戶之間彼此的情誼，讓大家更能體驗農園生活的多采多姿與農耕之樂。\r\n\r\n北投第一市民農園為 全台第一個成立的市民農園，屬於開放式農園，提供農具及專業指導，您可帶著想要種植的時令蔬果種子前來，享受親自耕種的樂趣。" }, "geometry": { "type": "Point", "coordinates": [ 121.5287, 25.1474 ] } },
{ "type": "Feature", "properties": { "name": "永福健康市民農園", "type": "市民農園", "dept": "產業發展局", "area": 990.0, "method": "地植", "introduction": "愛家人的您用 ....\r\n\r\n無毒土地、甘甜山泉、自己雙手、愛家真心\r\n\r\n培育全家人的健康菜源。\r\n\r\n合宜的規劃管理，讓您每周只需花 2~3 個小時，即可享受田園生活的樂趣。\r\n\r\n讓 登山郊遊 與 綠活休閒結合 滿足身心健康需求。" }, "geometry": { "type": "Point", "coordinates": [ 121.5529, 25.108 ] } },
{ "type": "Feature", "properties": { "name": "梅居市民農園", "type": "市民農園", "dept": "產業發展局", "area": 3300.0, "method": "地植", "introduction": "座落在陽明山平等里平菁街43 巷1.3公里左側，由『梅居休閒農場』徒步或騎自行車入內，經梅花大道即到『梅居市民農園』，歡迎您來參訪。與休閒農場是相同的場主，為紀念長輩，乃以老地主的名字命名之。\r\n\r\n擔心氣候變遷，影響糧食供應，不捨好地荒廢，謹採用 有機耕作，引用省水的灌溉系統，保留原始梯田,水果,樹木等，隨地形區塊的大小，除保留部分自用外，將分租給有緣的假日農夫們。\r\n\r\n在陰涼樹旁，享受耕作的體驗，累了還可到 休閒農場逛逛。歡迎全家三代一起來享受同耕的天倫之樂。小孩子務農後，倘有作功課看書之需，尚可到休閒農場『耕讀育苗室』使用。將會安排專家前來開課，指導如何種有機蔬菜，增加農友們更多知識。我們也將辦農友市集或彼此交換蔬菜。孕育人與人間的互動，不是純低頭苦做農。\r\n\r\n自食自種的果菜，甘甜在心頭。調換工作環境、吸收新鮮的芬多精，勞動、流汗，增進身心靈的健康，將是農場可回饋給朋友們最大的禮物。\r\n\r\n該休閒農場為盡減碳的一份心力，僅提供環保養生蔬食簡餐，農友們也可就近消費。園區風景隨天候、天象變化多樣，有如世外桃源，台灣藍鵲、青蛙、鳥鳴…等，在這個田園裏，處處讓您可有體悟，就如『梅居休閒農場』『親子牛』的『感恩、尊重、愛』，用心思惟，您的正向能量將因您走入田園而倍增。\r\n\r\n休閒農場與市民農園結合的特色，應可提供具有特色的服務，梅居市民農園及梅居休閒農場，歡迎您來走走。\r\n十二月後將可接受預約，俟灌溉送水後，才正式收租，歡迎電洽。" }, "geometry": { "type": "Point", "coordinates": [ 121.5729, 25.1308 ] } },
{ "type": "Feature", "properties": { "name": "樟湖自然市民農園", "type": "市民農園", "dept": "產業發展局", "area": 660.0, "method": "地植", "introduction": "園區內的夥伴相約每個星期六集聚 樟湖自然市民農園 共同學習，並帶領親子體驗廚餘作堆肥、有機農園的規劃設計、鬆土、季節性植栽與收成等。\r\n\r\n由於體認定期學習活動的重要，於是向文山社區大學提案「自己種菜自己吃」的學習課程，除了上述參與家戶之外，並開放有興趣的社區人士報名，課程之受歡迎，可以由原定一班20位學員，增加到每星期六，上、下午各一班同時開課的盛況，目前更發展出種菜體驗活動，讓來到農園的遊客能體驗種菜的樂趣，重拾先民的智慧，與自然和諧的共存理念。" }, "geometry": { "type": "Point", "coordinates": [ 121.5811, 24.9699 ] } },
{ "type": "Feature", "properties": { "name": "私立光仁小學小田園", "type": "小田園", "dept": "教育局", "area": 51.3, "method": "盆植及地植皆有", "introduction": "私立光仁小學" }, "geometry": { "type": "Point", "coordinates": [ 121.4996, 25.0217 ] } },
{ "type": "Feature", "properties": { "name": "國立政大實小小田園", "type": "小田園", "dept": "教育局", "area": 190.0, "method": "盆植及地植皆有", "introduction": "國立政大實小" }, "geometry": { "type": "Point", "coordinates": [ 121.5799, 24.985 ] } },
{ "type": "Feature", "properties": { "name": "木柵第二市民農園", "type": "市民農園", "dept": "產業發展局", "area": 660.0, "method": "地植", "introduction": "園主自幼協助家中農務，民國80年起即參加農委會辦理農村青年專業訓練 有機花卉栽培班、花卉組織培養班、庭園設計班、盆花及草花生產管理班、有機蔬菜班等專業訓練。102年參加台北市農會所辦理農民第二專長訓練取得 造園景觀乙級證照。 目前致力於 種植安心蔬菜及綠竹筍生產，受農會補助，以更新無病毒苗、提高產量、提前產期，所生產之綠竹筍，參加各屆比賽，多次得獎，目前擔任綠竹筍比賽評審，以提攜後進，不遺餘力。\r\n\r\n農園視野遼闊，居高臨下，能縱觀台北市全景，天氣晴朗時，更能遠眺觀音山及淡水河口，園區內自然自然資源豐富，水原豐富清澈，地勢平緩。\r\n\r\n農作總面積約有2公頃，從事蔬菜、花卉及果樹生產，餘為綠竹筍專業生產區。市民農園部分約 1,000坪 以上，目前規劃 30個單位 提供市民朋友體驗農作，歡迎市民朋友踴躍參與農業體驗。" }, "geometry": { "type": "Point", "coordinates": [ 121.595, 24.984 ] } },
{ "type": "Feature", "properties": { "name": "木柵第一市民農園", "type": "市民農園", "dept": "產業發展局", "area": 1221.0, "method": "地植", "introduction": "木柵區農會直營「有機市民農業學園」帶領市民揮汗播種、歡呼收成,體驗都市人的健康休閒生活！\r\n\r\n木柵區農會為推廣 農業教育、有機農業、休閒農耕，99年在臺北市政府產業發展局及臺北市農會輔導下，利用自有之文山區老泉里糧倉的餘裕土地、規劃、設立全市第一座由農會直營的「有機市民農業學園」。本區原為雜草叢生的閒置農地，往來民眾觀感不佳，農會在歷經觀摩學習、初步籌劃、人工除草、機械整地、園區細部規劃、人工撿除石礫、人工畦作整地、增設灌溉水路、園區公共道路、設施、停車場及綠美化等煩瑣過程後，園區景象煥然一新，成為吸引區民目光的市民農園！\r\n\r\n由於從規劃開始到全區完工歷時近半年的時間，平日登山客往來極多的政大恆光橋，農園的施作就引起許多人的熱烈詢問，37 個耕作單位 在短短的一、二週內，就有七、八十位市民表達承租的意願！由此可見：身處都會，繁忙勿促的市民,對於樂活農耕、有機飲食及健康休閒生活的渴望。\r\n\r\n本農園交通 十分便捷，耕作區域規劃完整，灌溉系統、農具室等設施齊全，並有方便的停車空間。而農會供銷部更是近在咫尺，各種農用資材唾手可得，並設有專人管理及指導農作。為了推廣有機農業，本農園限制為 全有機耕作，歡迎對於有機休閒農耕有興趣的市民朋友把握機會共襄盛舉！\r\n\r\n農園相關訊息可洽：木柵區農會或直接至農會網站 (http://www.muzha.org.tw/html/index.asp) 查詢。" }, "geometry": { "type": "Point", "coordinates": [ 121.5684, 24.9799 ] } },
{ "type": "Feature", "properties": { "name": "大安第一市民農園", "type": "市民農園", "dept": "產業發展局", "area": 660.0, "method": "地植", "introduction": "農園主 林姓會員 已屆退休之齡，因此之前農地僅零星栽培；在響應政府「閒置農地活化利用」的政策與現代人渴望閒暇時當個「離塵不離城」的都市農夫需求相結合下，一個朝有機方向生產的農場，就在產發局與水利會經費挹注下應運而生。\r\n\r\n農園佔地近 2,000 坪，目前以 10坪 為單位規畫供民眾承租農耕。有意承租者需自備種子或種苗種植蔬果，園主樂意分享栽培經驗，並協助平日的管理照顧。\r\n\r\n由崇德街上山經六張犁公墓沿研究院路至南港。行進在疑無路的蜿蜒山路間，眼前豁然開朗，就在研究院路四段181號附近，一處猶如世外桃源的農場忽焉在前。" }, "geometry": { "type": "Point", "coordinates": [ 121.5881, 25.0168 ] } },
{ "type": "Feature", "properties": { "name": "白石森活市民農園（內湖區第二市民農園）", "type": "市民農園", "dept": "產業發展局", "area": 660.0, "method": "地植", "introduction": "白石森活市民農園 位於內湖區碧山路50號郭氏古厝正後方，佔地約 2000 餘坪，全部耕地均為 慈心 及 MOA有機驗證。\r\n\r\n農場海拔約360公尺，前方視野廣闊可遠眺101大樓及雪山山脈層層山巒，園區四周登山步道環繞步行約8分鐘可達甜水鴛鴦湖(埤頭)，18分鐘可達海拔約460公尺位於農園正後方的大崙頭山，登上眺望台視野可達360度的迷人景觀。\r\n\r\n園區內依不同季節種植草莓、蕃茄、玉米、地瓜及四季蔬果等作物。由於 水質、土壤及環境均不受汙染 所收成的作物較為香甜美味。 對於健康比較有保障。\r\n\r\n農場主人從事有機耕作 逾20年，為了讓市民朋友分享有機耕作的過程與種植的樂趣，開放部分耕地供承租，每期四個月，每月租金 1000元，每單位約 10 坪，清潔管理費每期 1000元，耕地有限歡迎來電預約承租。" }, "geometry": { "type": "Point", "coordinates": [ 121.5946, 25.1054 ] } },
{ "type": "Feature", "properties": { "name": "松山第一市民農園", "type": "市民農園", "dept": "產業發展局", "area": 1650.0, "method": "地植", "introduction": "台北松山第一市民農園 就在台北市民最喜愛的登山區 四獸山 之中，此處登山步道四通八達，循登山步道皆可到達，是最貼近市區的市民農園。\r\n\r\n本農園內可遠眺101大樓，視野極為遼闊，是一處既可從事登山活動，又可從事休閒耕作的好地方。\r\n\r\n本農園目前設有 50個 實習耕種單位 (已租50個單位)，以 4 個月 為一期，租金 5,000元，另收 1,000元 清潔保證金。\r\n\r\n園主郭先生寫得一手好書法，幽靜美麗的傳統四合院建築，正廳對聯就是園主的親筆書法。放棄廚師高薪回歸田野生活的郭先生，希望提供市民一個能夠享受田園耕作的環境，也期盼能夠打造一個閤家休閒及親友歡聚的園地。" }, "geometry": { "type": "Point", "coordinates": [ 121.5785, 25.0289 ] } },
{ "type": "Feature", "properties": { "name": "清涼地有機市民農園", "type": "市民農園", "dept": "產業發展局", "area": 660.0, "method": "地植", "introduction": "剛成立的 清涼地有機市民農園，在 羅家夫婦 的堅持與努力之下，這塊42年來 從未使用過農藥的土地，種植出高品質的蔬果，不僅獲得遊客們一致的認同，並也取得 慈心認證 的有機農產品驗證書，在目前也是 食農教育推廣講師 的廖女士，心中認為健康的蔬果，不但要和市民們分享，他更希望每個人都能和他一樣種出香甜的水果、清脆的蔬菜，把食在健康觀念散佈到每一個家庭，農園主人非常樂意將他們的經驗跟你一起分享，歡迎大家扶老攜幼上山去，相信你一定會有意外的收獲，並且愛上這裡！\r\n\r\n到了炎炎夏日時，你是否想找塊 清涼地，好好放鬆一下自己呢？...\r\n\r\n在臺北市士林區溪山里就有這樣的好地方。" }, "geometry": { "type": "Point", "coordinates": [ 121.5838, 25.1248 ] } },
{ "type": "Feature", "properties": { "name": "市立弘道國中小田園", "type": "小田園", "dept": "教育局", "area": 61.0, "method": "盆植及地植皆有", "introduction": "市立弘道國中" }, "geometry": { "type": "Point", "coordinates": [ 121.5153, 25.0378 ] } },
{ "type": "Feature", "properties": { "name": "私立滬江高中小田園", "type": "小田園", "dept": "教育局", "area": 20.0, "method": "盆植及地植皆有", "introduction": "私立滬江高中" }, "geometry": { "type": "Point", "coordinates": [ 121.5389, 24.9897 ] } },
{ "type": "Feature", "properties": { "name": "士林第八市民農園", "type": "市民農園", "dept": "產業發展局", "area": 3300.0, "method": "地植", "introduction": "台北市士林區第八市民農園 位於陽明山上公館里永公路旁，面積約 5000 坪，為了提供市民一個活動筋骨，體驗農家生活的園地，特別規劃出約 100 個單位 作為市民農園，實習耕作區以 10 坪 為一單位，供民眾實習耕種，園區對市民 可提供教導耕作程序，您可在此體驗結合生活、知識、生產及休閒為一體的樂活生活，做一個快樂的都市人。\r\n\r\n可承租位數與收費說明：每一耕作單位約為 10 坪，以每 4 個月 為一承租期，每期認養費用為新台幣 5,000元 整，為維持耕作秩序及環境衛生，每一個耕作單位須繳交保證金新台幣 1,000元 整，承租期滿1個月內無息退還保證金，契約期間如有較長時間無法照顧植栽之情形，亦可事先通知農園管理人員代為澆水，每單位每星期酌收服務費100元整。" }, "geometry": { "type": "Point", "coordinates": [ 121.5655, 25.1244 ] } },
{ "type": "Feature", "properties": { "name": "一方市民農園", "type": "市民農園", "dept": "產業發展局", "area": 396.0, "method": "地植", "introduction": "開放宗旨\r\n“一方”之所以開放作為市民農園，是希望藉此與志趣相投的朋友一起來身體力行“樂活”的生活方式，可以吃的安心，運動排毒，保持身體健康之外，還可為地球生態盡一份心力。目前園內規劃有12個面積約10坪的耕作單位，均裝有水管，方便灌溉，希望有興趣的朋友趕快來認養自己的“一方菜園”少少的花費就可以賺到滿滿的健康，兼享田園生活樂趣!\r\n\r\n地理位置\r\n一方市民農園座落於陽明山國家公園範圍內，北有七星山，右依大屯山橫亙，正面俯瞰關渡平原、新店溪及淡水河，南面遠眺101，可謂山明水秀，最特別的莫過於一顆巨石穩穩座落土地上，猶如鎮地之寶。本農場除了土壤肥沃，有機質含量高外，場主並引來自山崖峭壁的清徹山泉水灌溉，採用自然有機耕種，因此，場區面積雖只有六百多坪，卻孕育著萬千種動植物，生態盎然，正是所謂“一方田地孕萬物”\r\n\r\n耕種方式\r\n大地孕育萬物，有如母親，長期以來，人類卻對她“只取不予”，不僅不斷的榨取地力，更一再的施用化學藥劑與化學肥料去摧殘她，生病的土地如何能產出讓我們吃得健康的食物?農場主夫妻耕種這塊土地已逾八年，秉持著那一份對環境與自然的摯愛與執著，開始就決定用有機農法，經台北市政府輔導、取得國際美育基金會有機驗證。因人手不足難以營運，今年以來沒有繼續申請有機驗證，惟仍繼續堅持自然耕種方式，憑著一股傻勁和堅毅不拔的毅力，盡自己的能力保護這片好山好水。" }, "geometry": { "type": "Point", "coordinates": [ 121.5244, 25.1491 ] } },
{ "type": "Feature", "properties": { "name": "北投第五市民農園", "type": "市民農園", "dept": "產業發展局", "area": 1980.0, "method": "地植", "introduction": "北投區第五市民農園 佔地約 0.7 公頃，劃分為 60 個經營單位。\r\n\r\n該農園位於著名的北投溫泉區，緊鄰行義路，不但擁有方便的停車空間，更 有多線公車可達農園門口，是個交通方便的農園，也因此吸引許多喜愛大自然及想體驗樂活生活的民眾前來。\r\n\r\n園主是個有為的 青年農民，農耕經驗豐富又熱心，所以農場成立15年以來，幾乎都處於 滿租 的狀態。因為流動率低，實習耕作戶之間彼此熟識，所以感情都不錯，不但會相互觀摩、交換心得，也會交換收成及種苗，是個充滿人情味及農情味的市民農園。" }, "geometry": { "type": "Point", "coordinates": [ 121.5717, 25.1217 ] } },
{ "type": "Feature", "properties": { "name": "市立平等國小小田園", "type": "小田園", "dept": "教育局", "area": 90.0, "method": "盆植及地植皆有", "introduction": "市立平等國小" }, "geometry": { "type": "Point", "coordinates": [ 121.5609, 25.0054 ] } },
{ "type": "Feature", "properties": { "name": "市立永樂國小小田園", "type": "小田園", "dept": "教育局", "area": 974.68, "method": "盆植及地植皆有", "introduction": "市立永樂國小" }, "geometry": { "type": "Point", "coordinates": [ 121.511, 25.0616 ] } },
{ "type": "Feature", "properties": { "name": "臺北市私立靈糧幼稚園小田園", "type": "小田園", "dept": "教育局", "area": 26.45, "method": "盆植及地植皆有", "introduction": "臺北市私立靈糧幼稚園" }, "geometry": { "type": "Point", "coordinates": [ 121.5609, 25.0057 ] } },
{ "type": "Feature", "properties": { "name": "財團法人中華文化社會福利事業基金會台北市私立實驗幼兒園小田園", "type": "小田園", "dept": "教育局", "area": 78.55, "method": "盆植及地植皆有", "introduction": "財團法人中華文化社會福利事業基金會台北市私立實驗幼兒園" }, "geometry": { "type": "Point", "coordinates": [ 121.5709, 25.0425 ] } },
{ "type": "Feature", "properties": { "name": "臺北市立百齡高級中學小田園", "type": "小田園", "dept": "教育局", "area": 500.0, "method": "盆植及地植皆有", "introduction": "臺北市立百齡高級中學" }, "geometry": { "type": "Point", "coordinates": [ 121.5229, 25.0873 ] } },
{ "type": "Feature", "properties": { "name": "市立興雅國小小田園", "type": "小田園", "dept": "教育局", "area": 90.0, "method": "盆植及地植皆有", "introduction": "市立興雅國小" }, "geometry": { "type": "Point", "coordinates": [ 121.57, 25.047 ] } },
{ "type": "Feature", "properties": { "name": "國立師大附中小田園", "type": "小田園", "dept": "教育局", "area": 223.0, "method": "盆植及地植皆有", "introduction": "國立師大附中" }, "geometry": { "type": "Point", "coordinates": [ 121.5405, 25.034 ] } },
{ "type": "Feature", "properties": { "name": "市立復興高中小田園", "type": "小田園", "dept": "教育局", "area": 127.0, "method": "盆植及地植皆有", "introduction": "市立復興高中" }, "geometry": { "type": "Point", "coordinates": [ 121.5018, 25.1439 ] } },
{ "type": "Feature", "properties": { "name": "市立實踐國中小田園", "type": "小田園", "dept": "教育局", "area": 1538.0, "method": "盆植及地植皆有", "introduction": "市立實踐國中" }, "geometry": { "type": "Point", "coordinates": [ 121.5547, 24.9837 ] } },
{ "type": "Feature", "properties": { "name": "私立大同高中小田園", "type": "小田園", "dept": "教育局", "area": 60.0, "method": "盆植及地植皆有", "introduction": "私立大同高中" }, "geometry": { "type": "Point", "coordinates": [ 121.5218, 25.0674 ] } },
{ "type": "Feature", "properties": { "name": "市立日新國小小田園", "type": "小田園", "dept": "教育局", "area": 245.0, "method": "盆植及地植皆有", "introduction": "市立日新國小" }, "geometry": { "type": "Point", "coordinates": [ 121.5164, 25.0547 ] } },
{ "type": "Feature", "properties": { "name": "市立內湖高工小田園", "type": "小田園", "dept": "教育局", "area": 150.0, "method": "盆植及地植皆有", "introduction": "市立內湖高工" }, "geometry": { "type": "Point", "coordinates": [ 121.5753, 25.0797 ] } },
{ "type": "Feature", "properties": { "name": "市立光復國小小田園", "type": "小田園", "dept": "教育局", "area": 25.0, "method": "盆植及地植皆有", "introduction": "市立光復國小" }, "geometry": { "type": "Point", "coordinates": [ 121.5582, 25.0404 ] } },
{ "type": "Feature", "properties": { "name": "市立富安國小小田園", "type": "小田園", "dept": "教育局", "area": 70.29, "method": "盆植及地植皆有", "introduction": "市立富安國小" }, "geometry": { "type": "Point", "coordinates": [ 121.4828, 25.1057 ] } },
{ "type": "Feature", "properties": { "name": "市立永春高中小田園", "type": "小田園", "dept": "教育局", "area": 68.1, "method": "盆植及地植皆有", "introduction": "市立永春高中" }, "geometry": { "type": "Point", "coordinates": [ 121.5786, 25.0331 ] } },
{ "type": "Feature", "properties": { "name": "市立信義幼兒園小田園", "type": "小田園", "dept": "教育局", "area": 59.4, "method": "盆植及地植皆有", "introduction": "市立信義幼兒園" }, "geometry": { "type": "Point", "coordinates": [ 121.559, 25.0353 ] } },
{ "type": "Feature", "properties": { "name": "國語實驗小學小田園", "type": "小田園", "dept": "教育局", "area": 100.0, "method": "盆植及地植皆有", "introduction": "國語實驗小學" }, "geometry": { "type": "Point", "coordinates": [ 121.5105, 25.0311 ] } },
{ "type": "Feature", "properties": { "name": "臺北市立育成高級中學小田園", "type": "小田園", "dept": "教育局", "area": 12.0, "method": "盆植及地植皆有", "introduction": "臺北市立育成高級中學" }, "geometry": { "type": "Point", "coordinates": [ 121.6093, 25.0589 ] } },
{ "type": "Feature", "properties": { "name": "市立成淵高中小田園", "type": "小田園", "dept": "教育局", "area": 1000.0, "method": "盆植及地植皆有", "introduction": "市立成淵高中" }, "geometry": { "type": "Point", "coordinates": [ 121.5192, 25.0613 ] } },
{ "type": "Feature", "properties": { "name": "市立中崙高中小田園", "type": "小田園", "dept": "教育局", "area": 300.0, "method": "盆植及地植皆有", "introduction": "市立中崙高中" }, "geometry": { "type": "Point", "coordinates": [ 121.5611, 25.049 ] } },
{ "type": "Feature", "properties": { "name": "市立芝山國小小田園", "type": "小田園", "dept": "教育局", "area": 70.0, "method": "盆植及地植皆有", "introduction": "市立芝山國小" }, "geometry": { "type": "Point", "coordinates": [ 121.5365, 25.1106 ] } },
{ "type": "Feature", "properties": { "name": "私立華興小學小田園", "type": "小田園", "dept": "教育局", "area": 120.0, "method": "盆植及地植皆有", "introduction": "私立華興小學" }, "geometry": { "type": "Point", "coordinates": [ 121.5385, 25.1052 ] } },
{ "type": "Feature", "properties": { "name": "市立健康國小小田園", "type": "小田園", "dept": "教育局", "area": 70.0, "method": "盆植及地植皆有", "introduction": "市立健康國小" }, "geometry": { "type": "Point", "coordinates": [ 121.5627, 25.057 ] } },
{ "type": "Feature", "properties": { "name": "市立雙溪國小小田園", "type": "小田園", "dept": "教育局", "area": 120.0, "method": "盆植及地植皆有", "introduction": "市立雙溪國小" }, "geometry": { "type": "Point", "coordinates": [ 121.5649, 25.1068 ] } },
{ "type": "Feature", "properties": { "name": "市立大直高中小田園", "type": "小田園", "dept": "教育局", "area": 155.0, "method": "盆植及地植皆有", "introduction": "市立大直高中" }, "geometry": { "type": "Point", "coordinates": [ 121.5434, 25.0792 ] } },
{ "type": "Feature", "properties": { "name": "市立芳和實驗國中小田園", "type": "小田園", "dept": "教育局", "area": 225.0, "method": "盆植及地植皆有", "introduction": "市立芳和實驗國中" }, "geometry": { "type": "Point", "coordinates": [ 121.5502, 25.0191 ] } },
{ "type": "Feature", "properties": { "name": "私立景文高中小田園", "type": "小田園", "dept": "教育局", "area": 64.8, "method": "盆植及地植皆有", "introduction": "私立景文高中" }, "geometry": { "type": "Point", "coordinates": [ 121.5673, 24.9856 ] } },
{ "type": "Feature", "properties": { "name": "臺北市立內湖高中小田園", "type": "小田園", "dept": "教育局", "area": 120.0, "method": "盆植及地植皆有", "introduction": "臺北市立內湖高中" }, "geometry": { "type": "Point", "coordinates": [ 121.5866, 25.0788 ] } },
{ "type": "Feature", "properties": { "name": "市立玉成國小小田園", "type": "小田園", "dept": "教育局", "area": 600.0, "method": "盆植及地植皆有", "introduction": "市立玉成國小" }, "geometry": { "type": "Point", "coordinates": [ 121.5948, 25.0539 ] } },
{ "type": "Feature", "properties": { "name": "市立木柵國中小田園", "type": "小田園", "dept": "教育局", "area": 100.0, "method": "盆植及地植皆有", "introduction": "市立木柵國中" }, "geometry": { "type": "Point", "coordinates": [ 121.5677, 24.9878 ] } },
{ "type": "Feature", "properties": { "name": "立人國際中小學小田園", "type": "小田園", "dept": "教育局", "area": 250.0, "method": "盆植及地植皆有", "introduction": "立人國際中小學" }, "geometry": { "type": "Point", "coordinates": [ 121.5519, 25.0301 ] } },
{ "type": "Feature", "properties": { "name": "臺北市立松山高級商業家事職業學校小田園", "type": "小田園", "dept": "教育局", "area": 160.0, "method": "盆植及地植皆有", "introduction": "臺北市立松山高級商業家事職業學校" }, "geometry": { "type": "Point", "coordinates": [ 121.5806, 25.0354 ] } },
{ "type": "Feature", "properties": { "name": "臺北市私立靜心國民中小學（國小部）小田園", "type": "小田園", "dept": "教育局", "area": 53.52, "method": "盆植及地植皆有", "introduction": "臺北市私立靜心國民中小學（國小部）" }, "geometry": { "type": "Point", "coordinates": [ 121.5467, 24.9992 ] } },
{ "type": "Feature", "properties": { "name": "市立懷生國中小田園", "type": "小田園", "dept": "教育局", "area": 96.0, "method": "盆植及地植皆有", "introduction": "市立懷生國中" }, "geometry": { "type": "Point", "coordinates": [ 121.5412, 25.0406 ] } },
{ "type": "Feature", "properties": { "name": "市立萬福國小小田園", "type": "小田園", "dept": "教育局", "area": 93.25, "method": "盆植及地植皆有", "introduction": "市立萬福國小" }, "geometry": { "type": "Point", "coordinates": [ 121.5367, 25.0052 ] } },
{ "type": "Feature", "properties": { "name": "市立誠正國中小田園", "type": "小田園", "dept": "教育局", "area": 50.0, "method": "盆植及地植皆有", "introduction": "市立誠正國中" }, "geometry": { "type": "Point", "coordinates": [ 121.6187, 25.0545 ] } },
{ "type": "Feature", "properties": { "name": "市立公館國小小田園", "type": "小田園", "dept": "教育局", "area": 40.25, "method": "盆植及地植皆有", "introduction": "市立公館國小" }, "geometry": { "type": "Point", "coordinates": [ 121.5429, 25.0127 ] } },
{ "type": "Feature", "properties": { "name": "私立金甌女中小田園", "type": "小田園", "dept": "教育局", "area": 100.0, "method": "盆植及地植皆有", "introduction": "私立金甌女中" }, "geometry": { "type": "Point", "coordinates": [ 121.5241, 25.0351 ] } },
{ "type": "Feature", "properties": { "name": "萬華娃娃果幼兒園小田園", "type": "小田園", "dept": "教育局", "area": 56.38, "method": "盆植及地植皆有", "introduction": "萬華娃娃果幼兒園" }, "geometry": { "type": "Point", "coordinates": [ 121.5002, 25.0331 ] } },
{ "type": "Feature", "properties": { "name": "市立文昌國小小田園", "type": "小田園", "dept": "教育局", "area": 430.0, "method": "盆植及地植皆有", "introduction": "市立文昌國小" }, "geometry": { "type": "Point", "coordinates": [ 121.522, 25.0996 ] } },
{ "type": "Feature", "properties": { "name": "臺北市立興福國民中學小田園", "type": "小田園", "dept": "教育局", "area": 45.0, "method": "盆植及地植皆有", "introduction": "臺北市立興福國民中學" }, "geometry": { "type": "Point", "coordinates": [ 121.5498, 25.0052 ] } },
{ "type": "Feature", "properties": { "name": "市立大安高工小田園", "type": "小田園", "dept": "教育局", "area": 14.8, "method": "盆植及地植皆有", "introduction": "市立大安高工" }, "geometry": { "type": "Point", "coordinates": [ 121.543, 25.0323 ] } },
{ "type": "Feature", "properties": { "name": "市立桃源國小小田園", "type": "小田園", "dept": "教育局", "area": 12.0, "method": "盆植及地植皆有", "introduction": "市立桃源國小" }, "geometry": { "type": "Point", "coordinates": [ 121.4844, 25.1398 ] } },
{ "type": "Feature", "properties": { "name": "市立南港高中小田園", "type": "小田園", "dept": "教育局", "area": 240.0, "method": "盆植及地植皆有", "introduction": "市立南港高中" }, "geometry": { "type": "Point", "coordinates": [ 121.595, 25.0529 ] } },
{ "type": "Feature", "properties": { "name": "私立薇閣小學小田園", "type": "小田園", "dept": "教育局", "area": 1500.0, "method": "盆植及地植皆有", "introduction": "私立薇閣小學" }, "geometry": { "type": "Point", "coordinates": [ 121.5008, 25.1363 ] } },
{ "type": "Feature", "properties": { "name": "市立溪山國小小田園", "type": "小田園", "dept": "教育局", "area": 540.0, "method": "盆植及地植皆有", "introduction": "市立溪山國小" }, "geometry": { "type": "Point", "coordinates": [ 121.58, 25.1221 ] } },
{ "type": "Feature", "properties": { "name": "市立木柵高工小田園", "type": "小田園", "dept": "教育局", "area": 58.24, "method": "盆植及地植皆有", "introduction": "市立木柵高工" }, "geometry": { "type": "Point", "coordinates": [ 121.5719, 24.9962 ] } },
{ "type": "Feature", "properties": { "name": "市立景興國中小田園", "type": "小田園", "dept": "教育局", "area": 330.0, "method": "盆植及地植皆有", "introduction": "市立景興國中" }, "geometry": { "type": "Point", "coordinates": [ 121.5442, 24.9965 ] } },
{ "type": "Feature", "properties": { "name": "市立志清國小小田園", "type": "小田園", "dept": "教育局", "area": 235.0, "method": "盆植及地植皆有", "introduction": "市立志清國小" }, "geometry": { "type": "Point", "coordinates": [ 121.5389, 24.999 ] } },
{ "type": "Feature", "properties": { "name": "國立政大附中小田園", "type": "小田園", "dept": "教育局", "area": 30.0, "method": "盆植及地植皆有", "introduction": "國立政大附中" }, "geometry": { "type": "Point", "coordinates": [ 121.5858, 24.9875 ] } },
{ "type": "Feature", "properties": { "name": "市立信義國中小田園", "type": "小田園", "dept": "教育局", "area": 361.0, "method": "盆植及地植皆有", "introduction": "市立信義國中" }, "geometry": { "type": "Point", "coordinates": [ 121.5675, 25.0289 ] } },
{ "type": "Feature", "properties": { "name": "市立南港國小小田園", "type": "小田園", "dept": "教育局", "area": 170.0, "method": "盆植及地植皆有", "introduction": "市立南港國小" }, "geometry": { "type": "Point", "coordinates": [ 121.6104, 25.0575 ] } },
{ "type": "Feature", "properties": { "name": "市立建成國中小田園", "type": "小田園", "dept": "教育局", "area": 25.0, "method": "盆植及地植皆有", "introduction": "市立建成國中" }, "geometry": { "type": "Point", "coordinates": [ 121.5197, 25.0508 ] } },
{ "type": "Feature", "properties": { "name": "市立東新國小小田園", "type": "小田園", "dept": "教育局", "area": 22.83, "method": "盆植及地植皆有", "introduction": "市立東新國小" }, "geometry": { "type": "Point", "coordinates": [ 121.6023, 25.0558 ] } },
{ "type": "Feature", "properties": { "name": "私立衛理女中小田園", "type": "小田園", "dept": "教育局", "area": 60.0, "method": "盆植及地植皆有", "introduction": "私立衛理女中" }, "geometry": { "type": "Point", "coordinates": [ 121.5522, 25.102 ] } },
{ "type": "Feature", "properties": { "name": "市立西湖國小小田園", "type": "小田園", "dept": "教育局", "area": 155.0, "method": "盆植及地植皆有", "introduction": "市立西湖國小" }, "geometry": { "type": "Point", "coordinates": [ 121.5657, 25.0842 ] } },
{ "type": "Feature", "properties": { "name": "市立社子國小小田園", "type": "小田園", "dept": "教育局", "area": 160.0, "method": "盆植及地植皆有", "introduction": "市立社子國小" }, "geometry": { "type": "Point", "coordinates": [ 121.5029, 25.0901 ] } },
{ "type": "Feature", "properties": { "name": "市立士林高商小田園", "type": "小田園", "dept": "教育局", "area": 456.0, "method": "盆植及地植皆有", "introduction": "市立士林高商" }, "geometry": { "type": "Point", "coordinates": [ 121.5167, 25.0949 ] } },
{ "type": "Feature", "properties": { "name": "市立福林國小小田園", "type": "小田園", "dept": "教育局", "area": 200.0, "method": "盆植及地植皆有", "introduction": "市立福林國小" }, "geometry": { "type": "Point", "coordinates": [ 121.5296, 25.099 ] } },
{ "type": "Feature", "properties": { "name": "市立建安國小小田園", "type": "小田園", "dept": "教育局", "area": 10.0, "method": "盆植及地植皆有", "introduction": "市立建安國小" }, "geometry": { "type": "Point", "coordinates": [ 121.5463, 25.0297 ] } },
{ "type": "Feature", "properties": { "name": "市立石牌國中小田園", "type": "小田園", "dept": "教育局", "area": 253.0, "method": "盆植及地植皆有", "introduction": "市立石牌國中" }, "geometry": { "type": "Point", "coordinates": [ 121.5142, 25.1153 ] } },
{ "type": "Feature", "properties": { "name": "市立內湖國中小田園", "type": "小田園", "dept": "教育局", "area": 185.0, "method": "盆植及地植皆有", "introduction": "市立內湖國中" }, "geometry": { "type": "Point", "coordinates": [ 121.5887, 25.0773 ] } },
{ "type": "Feature", "properties": { "name": "市立大理國小小田園", "type": "小田園", "dept": "教育局", "area": 16.0, "method": "盆植及地植皆有", "introduction": "市立大理國小" }, "geometry": { "type": "Point", "coordinates": [ 121.4931, 25.0315 ] } },
{ "type": "Feature", "properties": { "name": "市立建國中學小田園", "type": "小田園", "dept": "教育局", "area": 94.94, "method": "盆植及地植皆有", "introduction": "市立建國中學" }, "geometry": { "type": "Point", "coordinates": [ 121.5128, 25.031 ] } },
{ "type": "Feature", "properties": { "name": "市立關渡國中小田園", "type": "小田園", "dept": "教育局", "area": 30.36, "method": "盆植及地植皆有", "introduction": "市立關渡國中" }, "geometry": { "type": "Point", "coordinates": [ 121.4672, 25.1202 ] } },
{ "type": "Feature", "properties": { "name": "市立啟聰學校小田園", "type": "小田園", "dept": "教育局", "area": 440.23, "method": "盆植及地植皆有", "introduction": "市立啟聰學校" }, "geometry": { "type": "Point", "coordinates": [ 121.5136, 25.0757 ] } },
{ "type": "Feature", "properties": { "name": "私立強恕中學小田園", "type": "小田園", "dept": "教育局", "area": 184.28, "method": "盆植及地植皆有", "introduction": "私立強恕中學" }, "geometry": { "type": "Point", "coordinates": [ 121.5199, 25.0253 ] } },
{ "type": "Feature", "properties": { "name": "市立新湖國小小田園", "type": "小田園", "dept": "教育局", "area": 150.0, "method": "盆植及地植皆有", "introduction": "市立新湖國小" }, "geometry": { "type": "Point", "coordinates": [ 121.5884, 25.0686 ] } },
{ "type": "Feature", "properties": { "name": "市立清江國小小田園", "type": "小田園", "dept": "教育局", "area": 140.0, "method": "盆植及地植皆有", "introduction": "市立清江國小" }, "geometry": { "type": "Point", "coordinates": [ 121.5075, 25.1269 ] } },
{ "type": "Feature", "properties": { "name": "市立永吉國中小田園", "type": "小田園", "dept": "教育局", "area": 652.0, "method": "盆植及地植皆有", "introduction": "市立永吉國中" }, "geometry": { "type": "Point", "coordinates": [ 121.5741, 25.0485 ] } },
{ "type": "Feature", "properties": { "name": "市立東園國小小田園", "type": "小田園", "dept": "教育局", "area": 5.0, "method": "盆植及地植皆有", "introduction": "市立東園國小" }, "geometry": { "type": "Point", "coordinates": [ 121.4978, 25.0234 ] } },
{ "type": "Feature", "properties": { "name": "市立濱江國小小田園", "type": "小田園", "dept": "教育局", "area": 300.0, "method": "盆植及地植皆有", "introduction": "市立濱江國小" }, "geometry": { "type": "Point", "coordinates": [ 121.5616, 25.0784 ] } },
{ "type": "Feature", "properties": { "name": "市立萬華幼兒園小田園", "type": "小田園", "dept": "教育局", "area": 14.0, "method": "盆植及地植皆有", "introduction": "市立萬華幼兒園" }, "geometry": { "type": "Point", "coordinates": [ 121.4974, 25.0377 ] } },
{ "type": "Feature", "properties": { "name": "市立武功國小小田園", "type": "小田園", "dept": "教育局", "area": 200.0, "method": "盆植及地植皆有", "introduction": "市立武功國小" }, "geometry": { "type": "Point", "coordinates": [ 121.5405, 25.0042 ] } },
{ "type": "Feature", "properties": { "name": "市立溪口國小小田園", "type": "小田園", "dept": "教育局", "area": 96.0, "method": "盆植及地植皆有", "introduction": "市立溪口國小" }, "geometry": { "type": "Point", "coordinates": [ 121.5387, 24.9944 ] } },
{ "type": "Feature", "properties": { "name": "市立中山幼兒園小田園", "type": "小田園", "dept": "教育局", "area": 28.0, "method": "盆植及地植皆有", "introduction": "市立中山幼兒園" }, "geometry": { "type": "Point", "coordinates": [ 121.5467, 25.0822 ] } },
{ "type": "Feature", "properties": { "name": "市立龍山國小小田園", "type": "小田園", "dept": "教育局", "area": 160.0, "method": "盆植及地植皆有", "introduction": "市立龍山國小" }, "geometry": { "type": "Point", "coordinates": [ 121.4958, 25.0359 ] } },
{ "type": "Feature", "properties": { "name": "市立東湖國小小田園", "type": "小田園", "dept": "教育局", "area": 100.0, "method": "盆植及地植皆有", "introduction": "市立東湖國小" }, "geometry": { "type": "Point", "coordinates": [ 121.6162, 25.0695 ] } },
{ "type": "Feature", "properties": { "name": "臺北市私立泰北高級中學-國中部小田園", "type": "小田園", "dept": "教育局", "area": 40.0, "method": "盆植及地植皆有", "introduction": "臺北市私立泰北高級中學-國中部" }, "geometry": { "type": "Point", "coordinates": [ 121.5339, 25.0976 ] } },
{ "type": "Feature", "properties": { "name": "市立西松國小小田園", "type": "小田園", "dept": "教育局", "area": 240.0, "method": "盆植及地植皆有", "introduction": "市立西松國小" }, "geometry": { "type": "Point", "coordinates": [ 121.5635, 25.0525 ] } },
{ "type": "Feature", "properties": { "name": "市立天母國中小田園", "type": "小田園", "dept": "教育局", "area": 60.0, "method": "盆植及地植皆有", "introduction": "市立天母國中" }, "geometry": { "type": "Point", "coordinates": [ 121.5382, 25.1183 ] } },
{ "type": "Feature", "properties": { "name": "市立明德國中小田園", "type": "小田園", "dept": "教育局", "area": 176.0, "method": "盆植及地植皆有", "introduction": "市立明德國中" }, "geometry": { "type": "Point", "coordinates": [ 121.5184, 25.1081 ] } },
{ "type": "Feature", "properties": { "name": "市立民生國中小田園", "type": "小田園", "dept": "教育局", "area": 30.0, "method": "盆植及地植皆有", "introduction": "市立民生國中" }, "geometry": { "type": "Point", "coordinates": [ 121.5667, 25.0599 ] } },
{ "type": "Feature", "properties": { "name": "市立博愛國小小田園", "type": "小田園", "dept": "教育局", "area": 54.44, "method": "盆植及地植皆有", "introduction": "市立博愛國小" }, "geometry": { "type": "Point", "coordinates": [ 121.571, 25.0367 ] } },
{ "type": "Feature", "properties": { "name": "臺北市私立泰北高級中學小田園", "type": "小田園", "dept": "教育局", "area": 40.0, "method": "盆植及地植皆有", "introduction": "臺北市私立泰北高級中學" }, "geometry": { "type": "Point", "coordinates": [ 121.534, 25.0976 ] } },
{ "type": "Feature", "properties": { "name": "市立內湖國小小田園", "type": "小田園", "dept": "教育局", "area": 210.0, "method": "盆植及地植皆有", "introduction": "市立內湖國小" }, "geometry": { "type": "Point", "coordinates": [ 121.5802, 25.0795 ] } },
{ "type": "Feature", "properties": { "name": "市立新生國小小田園", "type": "小田園", "dept": "教育局", "area": 20.0, "method": "盆植及地植皆有", "introduction": "市立新生國小" }, "geometry": { "type": "Point", "coordinates": [ 121.5328, 25.03 ] } },
{ "type": "Feature", "properties": { "name": "市立民族國小小田園", "type": "小田園", "dept": "教育局", "area": 55.0, "method": "盆植及地植皆有", "introduction": "市立民族國小" }, "geometry": { "type": "Point", "coordinates": [ 121.5517, 25.0599 ] } },
{ "type": "Feature", "properties": { "name": "市立濱江國中小田園", "type": "小田園", "dept": "教育局", "area": 18.63, "method": "盆植及地植皆有", "introduction": "市立濱江國中" }, "geometry": { "type": "Point", "coordinates": [ 121.561, 25.0798 ] } },
{ "type": "Feature", "properties": { "name": "市立北政國中小田園", "type": "小田園", "dept": "教育局", "area": 175.0, "method": "盆植及地植皆有", "introduction": "市立北政國中" }, "geometry": { "type": "Point", "coordinates": [ 121.5782, 24.9852 ] } },
{ "type": "Feature", "properties": { "name": "市立福德國小小田園", "type": "小田園", "dept": "教育局", "area": 26.0, "method": "盆植及地植皆有", "introduction": "市立福德國小" }, "geometry": { "type": "Point", "coordinates": [ 121.5865, 25.0392 ] } },
{ "type": "Feature", "properties": { "name": "市立永吉國小小田園", "type": "小田園", "dept": "教育局", "area": 212.12, "method": "盆植及地植皆有", "introduction": "市立永吉國小" }, "geometry": { "type": "Point", "coordinates": [ 121.5799, 25.0431 ] } },
{ "type": "Feature", "properties": { "name": "市立河堤國小小田園", "type": "小田園", "dept": "教育局", "area": 250.0, "method": "盆植及地植皆有", "introduction": "市立河堤國小" }, "geometry": { "type": "Point", "coordinates": [ 121.5226, 25.0236 ] } },
{ "type": "Feature", "properties": { "name": "市立士東國小小田園", "type": "小田園", "dept": "教育局", "area": 30.0, "method": "盆植及地植皆有", "introduction": "市立士東國小" }, "geometry": { "type": "Point", "coordinates": [ 121.5268, 25.113 ] } },
{ "type": "Feature", "properties": { "name": "市立吉林國小小田園", "type": "小田園", "dept": "教育局", "area": 154.0, "method": "盆植及地植皆有", "introduction": "市立吉林國小" }, "geometry": { "type": "Point", "coordinates": [ 121.5295, 25.0551 ] } },
{ "type": "Feature", "properties": { "name": "市立延平國小小田園", "type": "小田園", "dept": "教育局", "area": 214.0, "method": "盆植及地植皆有", "introduction": "市立延平國小" }, "geometry": { "type": "Point", "coordinates": [ 121.5167, 25.0697 ] } },
{ "type": "Feature", "properties": { "name": "市立蘭雅國小小田園", "type": "小田園", "dept": "教育局", "area": 50.0, "method": "盆植及地植皆有", "introduction": "市立蘭雅國小" }, "geometry": { "type": "Point", "coordinates": [ 121.5231, 25.1087 ] } },
{ "type": "Feature", "properties": { "name": "市立長安國小小田園", "type": "小田園", "dept": "教育局", "area": 194.0, "method": "盆植及地植皆有", "introduction": "市立長安國小" }, "geometry": { "type": "Point", "coordinates": [ 121.5302, 25.0501 ] } },
{ "type": "Feature", "properties": { "name": "市立興雅國中小田園", "type": "小田園", "dept": "教育局", "area": 48.38, "method": "盆植及地植皆有", "introduction": "市立興雅國中" }, "geometry": { "type": "Point", "coordinates": [ 121.5723, 25.0367 ] } },
{ "type": "Feature", "properties": { "name": "市立大安幼兒園小田園", "type": "小田園", "dept": "教育局", "area": 8.0, "method": "盆植及地植皆有", "introduction": "市立大安幼兒園" }, "geometry": { "type": "Point", "coordinates": [ 121.5472, 25.031 ] } },
{ "type": "Feature", "properties": { "name": "臺北市立育航幼兒園小田園", "type": "小田園", "dept": "教育局", "area": 10.0, "method": "盆植及地植皆有", "introduction": "臺北市立育航幼兒園" }, "geometry": { "type": "Point", "coordinates": [ 121.5386, 25.0548 ] } },
{ "type": "Feature", "properties": { "name": "市立敦化國中小田園", "type": "小田園", "dept": "教育局", "area": 60.0, "method": "盆植及地植皆有", "introduction": "市立敦化國中" }, "geometry": { "type": "Point", "coordinates": [ 121.5467, 25.0519 ] } },
{ "type": "Feature", "properties": { "name": "市立士林國小小田園", "type": "小田園", "dept": "教育局", "area": 114.5, "method": "盆植及地植皆有", "introduction": "市立士林國小" }, "geometry": { "type": "Point", "coordinates": [ 121.5249, 25.0936 ] } },
{ "type": "Feature", "properties": { "name": "市立三民國中小田園", "type": "小田園", "dept": "教育局", "area": 230.0, "method": "盆植及地植皆有", "introduction": "市立三民國中" }, "geometry": { "type": "Point", "coordinates": [ 121.5864, 25.0695 ] } },
{ "type": "Feature", "properties": { "name": "市立西門國小小田園", "type": "小田園", "dept": "教育局", "area": 100.0, "method": "盆植及地植皆有", "introduction": "市立西門國小" }, "geometry": { "type": "Point", "coordinates": [ 121.5036, 25.0435 ] } },
{ "type": "Feature", "properties": { "name": "市立重慶國中小田園", "type": "小田園", "dept": "教育局", "area": 116.0, "method": "盆植及地植皆有", "introduction": "市立重慶國中" }, "geometry": { "type": "Point", "coordinates": [ 121.5181, 25.0762 ] } },
{ "type": "Feature", "properties": { "name": "市立瑠公國中小田園", "type": "小田園", "dept": "教育局", "area": 125.0, "method": "盆植及地植皆有", "introduction": "市立瑠公國中" }, "geometry": { "type": "Point", "coordinates": [ 121.5854, 25.0374 ] } },
{ "type": "Feature", "properties": { "name": "市立明湖國小小田園", "type": "小田園", "dept": "教育局", "area": 8.0, "method": "盆植及地植皆有", "introduction": "市立明湖國小" }, "geometry": { "type": "Point", "coordinates": [ 121.6108, 25.0717 ] } },
{ "type": "Feature", "properties": { "name": "市立啟智學校小田園", "type": "小田園", "dept": "教育局", "area": 460.0, "method": "盆植及地植皆有", "introduction": "市立啟智學校" }, "geometry": { "type": "Point", "coordinates": [ 121.5362, 25.1169 ] } },
{ "type": "Feature", "properties": { "name": "市立大學附小小田園", "type": "小田園", "dept": "教育局", "area": 48.0, "method": "盆植及地植皆有", "introduction": "市立大學附小" }, "geometry": { "type": "Point", "coordinates": [ 121.5153, 25.0364 ] } },
{ "type": "Feature", "properties": { "name": "市立松山國小小田園", "type": "小田園", "dept": "教育局", "area": 96.75, "method": "盆植及地植皆有", "introduction": "市立松山國小" }, "geometry": { "type": "Point", "coordinates": [ 121.5776, 25.0503 ] } },
{ "type": "Feature", "properties": { "name": "市立永春國小小田園", "type": "小田園", "dept": "教育局", "area": 720.0, "method": "盆植及地植皆有", "introduction": "市立永春國小" }, "geometry": { "type": "Point", "coordinates": [ 121.5791, 25.0449 ] } },
{ "type": "Feature", "properties": { "name": "市立葫蘆國小小田園", "type": "小田園", "dept": "教育局", "area": 18.0, "method": "盆植及地植皆有", "introduction": "市立葫蘆國小" }, "geometry": { "type": "Point", "coordinates": [ 121.5069, 25.084 ] } },
{ "type": "Feature", "properties": { "name": "私立開南商工小田園", "type": "小田園", "dept": "教育局", "area": 320.5, "method": "盆植及地植皆有", "introduction": "私立開南商工" }, "geometry": { "type": "Point", "coordinates": [ 121.5219, 25.0427 ] } },
{ "type": "Feature", "properties": { "name": "市立北投國中小田園", "type": "小田園", "dept": "教育局", "area": 70.0, "method": "盆植及地植皆有", "introduction": "市立北投國中" }, "geometry": { "type": "Point", "coordinates": [ 121.5046, 25.1352 ] } },
{ "type": "Feature", "properties": { "name": "私立延平中學小田園", "type": "小田園", "dept": "教育局", "area": 20.0, "method": "盆植及地植皆有", "introduction": "私立延平中學" }, "geometry": { "type": "Point", "coordinates": [ 121.5385, 25.0366 ] } },
{ "type": "Feature", "properties": { "name": "市立懷生國小小田園", "type": "小田園", "dept": "教育局", "area": 61.0, "method": "盆植及地植皆有", "introduction": "市立懷生國小" }, "geometry": { "type": "Point", "coordinates": [ 121.5418, 25.0456 ] } },
{ "type": "Feature", "properties": { "name": "市立太平國小小田園", "type": "小田園", "dept": "教育局", "area": 772.0, "method": "盆植及地植皆有", "introduction": "市立太平國小" }, "geometry": { "type": "Point", "coordinates": [ 121.5115, 25.0617 ] } },
{ "type": "Feature", "properties": { "name": "市立劍潭國小小田園", "type": "小田園", "dept": "教育局", "area": 180.0, "method": "盆植及地植皆有", "introduction": "市立劍潭國小" }, "geometry": { "type": "Point", "coordinates": [ 121.5653, 25.0435 ] } },
{ "type": "Feature", "properties": { "name": "市立萬芳國小小田園", "type": "小田園", "dept": "教育局", "area": 95.0, "method": "盆植及地植皆有", "introduction": "市立萬芳國小" }, "geometry": { "type": "Point", "coordinates": [ 121.5672, 25.0009 ] } },
{ "type": "Feature", "properties": { "name": "市立松山高中小田園", "type": "小田園", "dept": "教育局", "area": 90.0, "method": "盆植及地植皆有", "introduction": "市立松山高中" }, "geometry": { "type": "Point", "coordinates": [ 121.5656, 25.0439 ] } },
{ "type": "Feature", "properties": { "name": "市立成德國中小田園", "type": "小田園", "dept": "教育局", "area": 180.0, "method": "盆植及地植皆有", "introduction": "市立成德國中" }, "geometry": { "type": "Point", "coordinates": [ 121.5877, 25.0453 ] } },
{ "type": "Feature", "properties": { "name": "市立仁愛國小小田園", "type": "小田園", "dept": "教育局", "area": 80.0, "method": "盆植及地植皆有", "introduction": "市立仁愛國小" }, "geometry": { "type": "Point", "coordinates": [ 121.5513, 25.0366 ] } },
{ "type": "Feature", "properties": { "name": "市立泉源實驗國小小田園", "type": "小田園", "dept": "教育局", "area": 35.0, "method": "盆植及地植皆有", "introduction": "市立泉源實驗國小" }, "geometry": { "type": "Point", "coordinates": [ 121.5244, 25.1496 ] } },
{ "type": "Feature", "properties": { "name": "市立南門國小小田園", "type": "小田園", "dept": "教育局", "area": 180.0, "method": "盆植及地植皆有", "introduction": "市立南門國小" }, "geometry": { "type": "Point", "coordinates": [ 121.509, 25.0356 ] } },
{ "type": "Feature", "properties": { "name": "市立中正國小小田園", "type": "小田園", "dept": "教育局", "area": 35.0, "method": "盆植及地植皆有", "introduction": "市立中正國小" }, "geometry": { "type": "Point", "coordinates": [ 121.5401, 25.0507 ] } },
{ "type": "Feature", "properties": { "name": "市立興華國小小田園", "type": "小田園", "dept": "教育局", "area": 283.0, "method": "盆植及地植皆有", "introduction": "市立興華國小" }, "geometry": { "type": "Point", "coordinates": [ 121.5588, 25.0001 ] } },
{ "type": "Feature", "properties": { "name": "市立大屯國小小田園", "type": "小田園", "dept": "教育局", "area": 20.0, "method": "盆植及地植皆有", "introduction": "市立大屯國小" }, "geometry": { "type": "Point", "coordinates": [ 121.504, 25.1549 ] } },
{ "type": "Feature", "properties": { "name": "市立明德國小小田園", "type": "小田園", "dept": "教育局", "area": 250.0, "method": "盆植及地植皆有", "introduction": "市立明德國小" }, "geometry": { "type": "Point", "coordinates": [ 121.5219, 25.1125 ] } },
{ "type": "Feature", "properties": { "name": "臺北市大安區和平實驗國民小學小田園", "type": "小田園", "dept": "教育局", "area": 125.0, "method": "盆植及地植皆有", "introduction": "臺北市大安區和平實驗國民小學" }, "geometry": { "type": "Point", "coordinates": [ 121.5453, 25.0217 ] } },
{ "type": "Feature", "properties": { "name": "市立文山幼兒園小田園", "type": "小田園", "dept": "教育局", "area": 28.79, "method": "盆植及地植皆有", "introduction": "市立文山幼兒園" }, "geometry": { "type": "Point", "coordinates": [ 121.5609, 24.9878 ] } },
{ "type": "Feature", "properties": { "name": "市立五常國中小田園", "type": "小田園", "dept": "教育局", "area": 320.0, "method": "盆植及地植皆有", "introduction": "市立五常國中" }, "geometry": { "type": "Point", "coordinates": [ 121.5431, 25.0638 ] } },
{ "type": "Feature", "properties": { "name": "市立大湖國小小田園", "type": "小田園", "dept": "教育局", "area": 120.0, "method": "盆植及地植皆有", "introduction": "市立大湖國小" }, "geometry": { "type": "Point", "coordinates": [ 121.6006, 25.0884 ] } },
{ "type": "Feature", "properties": { "name": "協和祐德高中小田園", "type": "小田園", "dept": "教育局", "area": 33.75, "method": "盆植及地植皆有", "introduction": "協和祐德高中" }, "geometry": { "type": "Point", "coordinates": [ 121.5834, 25.0429 ] } },
{ "type": "Feature", "properties": { "name": "市立新興國中小田園", "type": "小田園", "dept": "教育局", "area": 340.0, "method": "盆植及地植皆有", "introduction": "市立新興國中" }, "geometry": { "type": "Point", "coordinates": [ 121.5257, 25.0624 ] } },
{ "type": "Feature", "properties": { "name": "市立華江國小小田園", "type": "小田園", "dept": "教育局", "area": 50.0, "method": "盆植及地植皆有", "introduction": "市立華江國小" }, "geometry": { "type": "Point", "coordinates": [ 121.4913, 25.0344 ] } },
{ "type": "Feature", "properties": { "name": "市立五常國小小田園", "type": "小田園", "dept": "教育局", "area": 180.0, "method": "盆植及地植皆有", "introduction": "市立五常國小" }, "geometry": { "type": "Point", "coordinates": [ 121.5422, 25.0645 ] } },
{ "type": "Feature", "properties": { "name": "市立新和國小小田園", "type": "小田園", "dept": "教育局", "area": 200.0, "method": "盆植及地植皆有", "introduction": "市立新和國小" }, "geometry": { "type": "Point", "coordinates": [ 121.5033, 25.0263 ] } },
{ "type": "Feature", "properties": { "name": "市立長春國小小田園", "type": "小田園", "dept": "教育局", "area": 640.0, "method": "盆植及地植皆有", "introduction": "市立長春國小" }, "geometry": { "type": "Point", "coordinates": [ 121.5339, 25.0552 ] } },
{ "type": "Feature", "properties": { "name": "市立永安國小小田園", "type": "小田園", "dept": "教育局", "area": 182.0, "method": "盆植及地植皆有", "introduction": "市立永安國小" }, "geometry": { "type": "Point", "coordinates": [ 121.5494, 25.0791 ] } },
{ "type": "Feature", "properties": { "name": "市立興隆國小小田園", "type": "小田園", "dept": "教育局", "area": 109.0, "method": "盆植及地植皆有", "introduction": "市立興隆國小" }, "geometry": { "type": "Point", "coordinates": [ 121.5518, 25.0028 ] } },
{ "type": "Feature", "properties": { "name": "市立義方國小小田園", "type": "小田園", "dept": "教育局", "area": 330.0, "method": "盆植及地植皆有", "introduction": "市立義方國小" }, "geometry": { "type": "Point", "coordinates": [ 121.5093, 25.1422 ] } },
{ "type": "Feature", "properties": { "name": "私立文德女中小田園", "type": "小田園", "dept": "教育局", "area": 250.0, "method": "盆植及地植皆有", "introduction": "私立文德女中" }, "geometry": { "type": "Point", "coordinates": [ 121.5896, 25.0779 ] } },
{ "type": "Feature", "properties": { "name": "市立金華國中小田園", "type": "小田園", "dept": "教育局", "area": 290.0, "method": "盆植及地植皆有", "introduction": "市立金華國中" }, "geometry": { "type": "Point", "coordinates": [ 121.5331, 25.0315 ] } },
{ "type": "Feature", "properties": { "name": "市立福星國小小田園", "type": "小田園", "dept": "教育局", "area": 26.0, "method": "盆植及地植皆有", "introduction": "市立福星國小" }, "geometry": { "type": "Point", "coordinates": [ 121.5089, 25.0471 ] } },
{ "type": "Feature", "properties": { "name": "市立古亭國中小田園", "type": "小田園", "dept": "教育局", "area": 30.0, "method": "盆植及地植皆有", "introduction": "市立古亭國中" }, "geometry": { "type": "Point", "coordinates": [ 121.5111, 25.0249 ] } },
{ "type": "Feature", "properties": { "name": "私立稻江商職小田園", "type": "小田園", "dept": "教育局", "area": 60.0, "method": "盆植及地植皆有", "introduction": "私立稻江商職" }, "geometry": { "type": "Point", "coordinates": [ 121.512, 25.0646 ] } },
{ "type": "Feature", "properties": { "name": "市立景美國中小田園", "type": "小田園", "dept": "教育局", "area": 200.0, "method": "盆植及地植皆有", "introduction": "市立景美國中" }, "geometry": { "type": "Point", "coordinates": [ 121.543, 24.9933 ] } },
{ "type": "Feature", "properties": { "name": "市立景興國小小田園", "type": "小田園", "dept": "教育局", "area": 60.0, "method": "盆植及地植皆有", "introduction": "市立景興國小" }, "geometry": { "type": "Point", "coordinates": [ 121.5484, 24.9963 ] } },
{ "type": "Feature", "properties": { "name": "市立三玉國小小田園", "type": "小田園", "dept": "教育局", "area": 40.0, "method": "盆植及地植皆有", "introduction": "市立三玉國小" }, "geometry": { "type": "Point", "coordinates": [ 121.5373, 25.1181 ] } },
{ "type": "Feature", "properties": { "name": "臺北市立民族國中小田園", "type": "小田園", "dept": "教育局", "area": 132.0, "method": "盆植及地植皆有", "introduction": "臺北市立民族國中" }, "geometry": { "type": "Point", "coordinates": [ 121.5388, 25.0114 ] } },
{ "type": "Feature", "properties": { "name": "私立稻江護家小田園", "type": "小田園", "dept": "教育局", "area": 34.6, "method": "盆植及地植皆有", "introduction": "私立稻江護家" }, "geometry": { "type": "Point", "coordinates": [ 121.5289, 25.0658 ] } },
{ "type": "Feature", "properties": { "name": "市立蘭雅國中小田園", "type": "小田園", "dept": "教育局", "area": 15.3, "method": "盆植及地植皆有", "introduction": "市立蘭雅國中" }, "geometry": { "type": "Point", "coordinates": [ 121.5308, 25.111 ] } },
{ "type": "Feature", "properties": { "name": "市立老松國小小田園", "type": "小田園", "dept": "教育局", "area": 34.0, "method": "盆植及地植皆有", "introduction": "市立老松國小" }, "geometry": { "type": "Point", "coordinates": [ 121.5027, 25.0383 ] } },
{ "type": "Feature", "properties": { "name": "市立雨聲國小小田園", "type": "小田園", "dept": "教育局", "area": 27.0, "method": "盆植及地植皆有", "introduction": "市立雨聲國小" }, "geometry": { "type": "Point", "coordinates": [ 121.5353, 25.103 ] } },
{ "type": "Feature", "properties": { "name": "中正高級中學小田園", "type": "小田園", "dept": "教育局", "area": 450.0, "method": "盆植及地植皆有", "introduction": "中正高級中學" }, "geometry": { "type": "Point", "coordinates": [ 121.5166, 25.1047 ] } },
{ "type": "Feature", "properties": { "name": "私立惇敘工商小田園", "type": "小田園", "dept": "教育局", "area": 650.0, "method": "盆植及地植皆有", "introduction": "私立惇敘工商" }, "geometry": { "type": "Point", "coordinates": [ 121.527, 25.1451 ] } },
{ "type": "Feature", "properties": { "name": "市立麗湖國小小田園", "type": "小田園", "dept": "教育局", "area": 20.0, "method": "盆植及地植皆有", "introduction": "市立麗湖國小" }, "geometry": { "type": "Point", "coordinates": [ 121.6011, 25.0733 ] } },
{ "type": "Feature", "properties": { "name": "私立十信高中小田園", "type": "小田園", "dept": "教育局", "area": 20.0, "method": "盆植及地植皆有", "introduction": "私立十信高中" }, "geometry": { "type": "Point", "coordinates": [ 121.4969, 25.1337 ] } },
{ "type": "Feature", "properties": { "name": "市立龍山國中小田園", "type": "小田園", "dept": "教育局", "area": 40.0, "method": "盆植及地植皆有", "introduction": "市立龍山國中" }, "geometry": { "type": "Point", "coordinates": [ 121.5046, 25.0364 ] } },
{ "type": "Feature", "properties": { "name": "市立中正幼兒園小田園", "type": "小田園", "dept": "教育局", "area": 39.0, "method": "盆植及地植皆有", "introduction": "市立中正幼兒園" }, "geometry": { "type": "Point", "coordinates": [ 121.5308, 25.0406 ] } },
{ "type": "Feature", "properties": { "name": "市立南門國中小田園", "type": "小田園", "dept": "教育局", "area": 300.0, "method": "盆植及地植皆有", "introduction": "市立南門國中" }, "geometry": { "type": "Point", "coordinates": [ 121.5089, 25.0345 ] } },
{ "type": "Feature", "properties": { "name": "市立啟明學校小田園", "type": "小田園", "dept": "教育局", "area": 270.0, "method": "盆植及地植皆有", "introduction": "市立啟明學校" }, "geometry": { "type": "Point", "coordinates": [ 121.535, 25.117 ] } },
{ "type": "Feature", "properties": { "name": "私立華岡藝術學校小田園", "type": "小田園", "dept": "教育局", "area": 19.83, "method": "盆植及地植皆有", "introduction": "私立華岡藝術學校" }, "geometry": { "type": "Point", "coordinates": [ 121.549, 25.1375 ] } },
{ "type": "Feature", "properties": { "name": "市立北投國小小田園", "type": "小田園", "dept": "教育局", "area": 150.0, "method": "盆植及地植皆有", "introduction": "市立北投國小" }, "geometry": { "type": "Point", "coordinates": [ 121.5003, 25.1346 ] } },
{ "type": "Feature", "properties": { "name": "市立大直國小小田園", "type": "小田園", "dept": "教育局", "area": 50.0, "method": "盆植及地植皆有", "introduction": "市立大直國小" }, "geometry": { "type": "Point", "coordinates": [ 121.5464, 25.0809 ] } },
{ "type": "Feature", "properties": { "name": "市立龍門國中小田園", "type": "小田園", "dept": "教育局", "area": 40.0, "method": "盆植及地植皆有", "introduction": "市立龍門國中" }, "geometry": { "type": "Point", "coordinates": [ 121.5382, 25.025 ] } },
{ "type": "Feature", "properties": { "name": "市立中山女中小田園", "type": "小田園", "dept": "教育局", "area": 160.0, "method": "盆植及地植皆有", "introduction": "市立中山女中" }, "geometry": { "type": "Point", "coordinates": [ 121.5372, 25.0488 ] } },
{ "type": "Feature", "properties": { "name": "市立麗山高中小田園", "type": "小田園", "dept": "教育局", "area": 300.0, "method": "盆植及地植皆有", "introduction": "市立麗山高中" }, "geometry": { "type": "Point", "coordinates": [ 121.5782, 25.0849 ] } },
{ "type": "Feature", "properties": { "name": "市立華江高中小田園", "type": "小田園", "dept": "教育局", "area": 51.0, "method": "盆植及地植皆有", "introduction": "市立華江高中" }, "geometry": { "type": "Point", "coordinates": [ 121.4963, 25.0289 ] } },
{ "type": "Feature", "properties": { "name": "市立舊莊國小小田園", "type": "小田園", "dept": "教育局", "area": 195.0, "method": "盆植及地植皆有", "introduction": "市立舊莊國小" }, "geometry": { "type": "Point", "coordinates": [ 121.6195, 25.0406 ] } },
{ "type": "Feature", "properties": { "name": "市立逸仙國小小田園", "type": "小田園", "dept": "教育局", "area": 100.0, "method": "盆植及地植皆有", "introduction": "市立逸仙國小" }, "geometry": { "type": "Point", "coordinates": [ 121.5052, 25.1387 ] } },
{ "type": "Feature", "properties": { "name": "市立信義國小小田園", "type": "小田園", "dept": "教育局", "area": 118.8, "method": "盆植及地植皆有", "introduction": "市立信義國小" }, "geometry": { "type": "Point", "coordinates": [ 121.5633, 25.0322 ] } },
{ "type": "Feature", "properties": { "name": "市立民權國小小田園", "type": "小田園", "dept": "教育局", "area": 60.0, "method": "盆植及地植皆有", "introduction": "市立民權國小" }, "geometry": { "type": "Point", "coordinates": [ 121.5623, 25.0627 ] } },
{ "type": "Feature", "properties": { "name": "市立東門國小小田園", "type": "小田園", "dept": "教育局", "area": 198.0, "method": "盆植及地植皆有", "introduction": "市立東門國小" }, "geometry": { "type": "Point", "coordinates": [ 121.5209, 25.0389 ] } },
{ "type": "Feature", "properties": { "name": "市立力行國小小田園", "type": "小田園", "dept": "教育局", "area": 86.0, "method": "盆植及地植皆有", "introduction": "市立力行國小" }, "geometry": { "type": "Point", "coordinates": [ 121.5611, 24.9813 ] } },
{ "type": "Feature", "properties": { "name": "市立陽明高中小田園", "type": "小田園", "dept": "教育局", "area": 105.0, "method": "盆植及地植皆有", "introduction": "市立陽明高中" }, "geometry": { "type": "Point", "coordinates": [ 121.5171, 25.0922 ] } },
{ "type": "Feature", "properties": { "name": "市立蘭州國中小田園", "type": "小田園", "dept": "教育局", "area": 20.0, "method": "盆植及地植皆有", "introduction": "市立蘭州國中" }, "geometry": { "type": "Point", "coordinates": [ 121.5167, 25.0696 ] } },
{ "type": "Feature", "properties": { "name": "市立和平高中小田園", "type": "小田園", "dept": "教育局", "area": 100.0, "method": "盆植及地植皆有", "introduction": "市立和平高中" }, "geometry": { "type": "Point", "coordinates": [ 121.5492, 25.0199 ] } },
{ "type": "Feature", "properties": { "name": "私立東方工商小田園", "type": "小田園", "dept": "教育局", "area": 40.0, "method": "盆植及地植皆有", "introduction": "私立東方工商" }, "geometry": { "type": "Point", "coordinates": [ 121.5514, 25.0326 ] } },
{ "type": "Feature", "properties": { "name": "市立景美女中小田園", "type": "小田園", "dept": "教育局", "area": 217.46, "method": "盆植及地植皆有", "introduction": "市立景美女中" }, "geometry": { "type": "Point", "coordinates": [ 121.5566, 24.9809 ] } },
{ "type": "Feature", "properties": { "name": "私立再興小學小田園", "type": "小田園", "dept": "教育局", "area": 16.96, "method": "盆植及地植皆有", "introduction": "私立再興小學" }, "geometry": { "type": "Point", "coordinates": [ 121.5591, 24.9907 ] } },
{ "type": "Feature", "properties": { "name": "市立三興國小小田園", "type": "小田園", "dept": "教育局", "area": 110.76, "method": "盆植及地植皆有", "introduction": "市立三興國小" }, "geometry": { "type": "Point", "coordinates": [ 121.5582, 25.0297 ] } },
{ "type": "Feature", "properties": { "name": "市立永建國小小田園", "type": "小田園", "dept": "教育局", "area": 80.0, "method": "盆植及地植皆有", "introduction": "市立永建國小" }, "geometry": { "type": "Point", "coordinates": [ 121.5545, 24.9886 ] } },
{ "type": "Feature", "properties": { "name": "市立新民國中小田園", "type": "小田園", "dept": "教育局", "area": 153.0, "method": "盆植及地植皆有", "introduction": "市立新民國中" }, "geometry": { "type": "Point", "coordinates": [ 121.5076, 25.1384 ] } },
{ "type": "Feature", "properties": { "name": "市立大同高中小田園", "type": "小田園", "dept": "教育局", "area": 1203.24, "method": "盆植及地植皆有", "introduction": "市立大同高中" }, "geometry": { "type": "Point", "coordinates": [ 121.5353, 25.0553 ] } },
{ "type": "Feature", "properties": { "name": "市立明湖國中小田園", "type": "小田園", "dept": "教育局", "area": 82.0, "method": "盆植及地植皆有", "introduction": "市立明湖國中" }, "geometry": { "type": "Point", "coordinates": [ 121.6107, 25.071 ] } },
{ "type": "Feature", "properties": { "name": "市立碧湖國小小田園", "type": "小田園", "dept": "教育局", "area": 123.5, "method": "盆植及地植皆有", "introduction": "市立碧湖國小" }, "geometry": { "type": "Point", "coordinates": [ 121.5911, 25.0856 ] } },
{ "type": "Feature", "properties": { "name": "市立麗山國中小田園", "type": "小田園", "dept": "教育局", "area": 40.0, "method": "盆植及地植皆有", "introduction": "市立麗山國中" }, "geometry": { "type": "Point", "coordinates": [ 121.5756, 25.0819 ] } },
{ "type": "Feature", "properties": { "name": "市立雙園國中小田園", "type": "小田園", "dept": "教育局", "area": 140.0, "method": "盆植及地植皆有", "introduction": "市立雙園國中" }, "geometry": { "type": "Point", "coordinates": [ 121.4926, 25.0278 ] } },
{ "type": "Feature", "properties": { "name": "市立忠義國小小田園", "type": "小田園", "dept": "教育局", "area": 127.0, "method": "盆植及地植皆有", "introduction": "市立忠義國小" }, "geometry": { "type": "Point", "coordinates": [ 121.5068, 25.0299 ] } },
{ "type": "Feature", "properties": { "name": "市立文湖國小小田園", "type": "小田園", "dept": "教育局", "area": 50.0, "method": "盆植及地植皆有", "introduction": "市立文湖國小" }, "geometry": { "type": "Point", "coordinates": [ 121.5601, 25.0861 ] } },
{ "type": "Feature", "properties": { "name": "市立吳興國小小田園", "type": "小田園", "dept": "教育局", "area": 37.57, "method": "盆植及地植皆有", "introduction": "市立吳興國小" }, "geometry": { "type": "Point", "coordinates": [ 121.5687, 25.0261 ] } },
{ "type": "Feature", "properties": { "name": "市立中山國小小田園", "type": "小田園", "dept": "教育局", "area": 60.0, "method": "盆植及地植皆有", "introduction": "市立中山國小" }, "geometry": { "type": "Point", "coordinates": [ 121.5264, 25.0634 ] } },
{ "type": "Feature", "properties": { "name": "市立明道國小小田園", "type": "小田園", "dept": "教育局", "area": 22.5, "method": "盆植及地植皆有", "introduction": "市立明道國小" }, "geometry": { "type": "Point", "coordinates": [ 121.54, 24.9895 ] } },
{ "type": "Feature", "properties": { "name": "市立麗山國小小田園", "type": "小田園", "dept": "教育局", "area": 60.48, "method": "盆植及地植皆有", "introduction": "市立麗山國小" }, "geometry": { "type": "Point", "coordinates": [ 121.5725, 25.084 ] } },
{ "type": "Feature", "properties": { "name": "市立景美國小小田園", "type": "小田園", "dept": "教育局", "area": 100.0, "method": "盆植及地植皆有", "introduction": "市立景美國小" }, "geometry": { "type": "Point", "coordinates": [ 121.5416, 24.9938 ] } },
{ "type": "Feature", "properties": { "name": "市立南港幼兒園小田園", "type": "小田園", "dept": "教育局", "area": 2.0, "method": "盆植及地植皆有", "introduction": "市立南港幼兒園" }, "geometry": { "type": "Point", "coordinates": [ 121.5999, 25.058 ] } },
{ "type": "Feature", "properties": { "name": "市立士林國中小田園", "type": "小田園", "dept": "教育局", "area": 120.0, "method": "盆植及地植皆有", "introduction": "市立士林國中" }, "geometry": { "type": "Point", "coordinates": [ 121.5226, 25.0947 ] } },
{ "type": "Feature", "properties": { "name": "市立南湖高中小田園", "type": "小田園", "dept": "教育局", "area": 400.0, "method": "盆植及地植皆有", "introduction": "市立南湖高中" }, "geometry": { "type": "Point", "coordinates": [ 121.6105, 25.0668 ] } },
{ "type": "Feature", "properties": { "name": "市立銘傳國小小田園", "type": "小田園", "dept": "教育局", "area": 39.25, "method": "盆植及地植皆有", "introduction": "市立銘傳國小" }, "geometry": { "type": "Point", "coordinates": [ 121.5355, 25.0144 ] } },
{ "type": "Feature", "properties": { "name": "市立康寧國小小田園", "type": "小田園", "dept": "教育局", "area": 10.89, "method": "盆植及地植皆有", "introduction": "市立康寧國小" }, "geometry": { "type": "Point", "coordinates": [ 121.5949, 25.0804 ] } },
{ "type": "Feature", "properties": { "name": "市立長安國中小田園", "type": "小田園", "dept": "教育局", "area": 30.0, "method": "盆植及地植皆有", "introduction": "市立長安國中" }, "geometry": { "type": "Point", "coordinates": [ 121.5319, 25.0497 ] } },
{ "type": "Feature", "properties": { "name": "臺北市立至善國中小田園", "type": "小田園", "dept": "教育局", "area": 238.0, "method": "盆植及地植皆有", "introduction": "臺北市立至善國中" }, "geometry": { "type": "Point", "coordinates": [ 121.5556, 25.1039 ] } },
{ "type": "Feature", "properties": { "name": "市立福安國中小田園", "type": "小田園", "dept": "教育局", "area": 144.0, "method": "盆植及地植皆有", "introduction": "市立福安國中" }, "geometry": { "type": "Point", "coordinates": [ 121.4881, 25.1032 ] } },
{ "type": "Feature", "properties": { "name": "市立忠孝國小小田園", "type": "小田園", "dept": "教育局", "area": 102.0, "method": "盆植及地植皆有", "introduction": "市立忠孝國小" }, "geometry": { "type": "Point", "coordinates": [ 121.5316, 25.0432 ] } },
{ "type": "Feature", "properties": { "name": "市立仁愛國中小田園", "type": "小田園", "dept": "教育局", "area": 68.0, "method": "盆植及地植皆有", "introduction": "市立仁愛國中" }, "geometry": { "type": "Point", "coordinates": [ 121.5506, 25.0378 ] } },
{ "type": "Feature", "properties": { "name": "市立西園國小小田園", "type": "小田園", "dept": "教育局", "area": 92.0, "method": "盆植及地植皆有", "introduction": "市立西園國小" }, "geometry": { "type": "Point", "coordinates": [ 121.4983, 25.0274 ] } },
{ "type": "Feature", "properties": { "name": "市立桃源國中小田園", "type": "小田園", "dept": "教育局", "area": 48.5, "method": "盆植及地植皆有", "introduction": "市立桃源國中" }, "geometry": { "type": "Point", "coordinates": [ 121.4773, 25.135 ] } },
{ "type": "Feature", "properties": { "name": "市立大橋國小小田園", "type": "小田園", "dept": "教育局", "area": 12.0, "method": "盆植及地植皆有", "introduction": "市立大橋國小" }, "geometry": { "type": "Point", "coordinates": [ 121.513, 25.0645 ] } },
{ "type": "Feature", "properties": { "name": "市立古亭國小小田園", "type": "小田園", "dept": "教育局", "area": 270.0, "method": "盆植及地植皆有", "introduction": "市立古亭國小" }, "geometry": { "type": "Point", "coordinates": [ 121.5288, 25.0209 ] } },
{ "type": "Feature", "properties": { "name": "私立吉太幼兒園小田園", "type": "小田園", "dept": "教育局", "area": 10.15, "method": "盆植及地植皆有", "introduction": "私立吉太幼兒園" }, "geometry": { "type": "Point", "coordinates": [ 121.5648, 24.9823 ] } },
{ "type": "Feature", "properties": { "name": "臺北市立士林幼兒園小田園", "type": "小田園", "dept": "教育局", "area": 4.97, "method": "盆植及地植皆有", "introduction": "臺北市立士林幼兒園" }, "geometry": { "type": "Point", "coordinates": [ 121.5196, 25.0821 ] } },
{ "type": "Feature", "properties": { "name": "市立螢橋國小小田園", "type": "小田園", "dept": "教育局", "area": 250.0, "method": "盆植及地植皆有", "introduction": "市立螢橋國小" }, "geometry": { "type": "Point", "coordinates": [ 121.5144, 25.0254 ] } },
{ "type": "Feature", "properties": { "name": "私立方濟中學小田園", "type": "小田園", "dept": "教育局", "area": 300.0, "method": "盆植及地植皆有", "introduction": "私立方濟中學" }, "geometry": { "type": "Point", "coordinates": [ 121.5905, 25.0776 ] } },
{ "type": "Feature", "properties": { "name": "市立萬大國小小田園", "type": "小田園", "dept": "教育局", "area": 80.0, "method": "盆植及地植皆有", "introduction": "市立萬大國小" }, "geometry": { "type": "Point", "coordinates": [ 121.4994, 25.0232 ] } },
{ "type": "Feature", "properties": { "name": "市立雙園國小小田園", "type": "小田園", "dept": "教育局", "area": 80.0, "method": "盆植及地植皆有", "introduction": "市立雙園國小" }, "geometry": { "type": "Point", "coordinates": [ 121.498, 25.0312 ] } },
{ "type": "Feature", "properties": { "name": "台北市立東湖國中小田園", "type": "小田園", "dept": "教育局", "area": 205.0, "method": "盆植及地植皆有", "introduction": "台北市立東湖國中" }, "geometry": { "type": "Point", "coordinates": [ 121.6194, 25.0722 ] } },
{ "type": "Feature", "properties": { "name": "市立大安國小小田園", "type": "小田園", "dept": "教育局", "area": 280.0, "method": "盆植及地植皆有", "introduction": "市立大安國小" }, "geometry": { "type": "Point", "coordinates": [ 121.5495, 25.0203 ] } },
{ "type": "Feature", "properties": { "name": "市立大佳國小小田園", "type": "小田園", "dept": "教育局", "area": 100.0, "method": "盆植及地植皆有", "introduction": "市立大佳國小" }, "geometry": { "type": "Point", "coordinates": [ 121.5364, 25.0736 ] } },
{ "type": "Feature", "properties": { "name": "市立立農國小小田園", "type": "小田園", "dept": "教育局", "area": 331.0, "method": "盆植及地植皆有", "introduction": "市立立農國小" }, "geometry": { "type": "Point", "coordinates": [ 121.505, 25.1198 ] } },
{ "type": "Feature", "properties": { "name": "私立育達家商小田園", "type": "小田園", "dept": "教育局", "area": 100.0, "method": "盆植及地植皆有", "introduction": "私立育達家商" }, "geometry": { "type": "Point", "coordinates": [ 121.554, 25.0501 ] } },
{ "type": "Feature", "properties": { "name": "市立北一女中小田園", "type": "小田園", "dept": "教育局", "area": 8.0, "method": "盆植及地植皆有", "introduction": "市立北一女中" }, "geometry": { "type": "Point", "coordinates": [ 121.5132, 25.0388 ] } },
{ "type": "Feature", "properties": { "name": "市立百齡國小小田園", "type": "小田園", "dept": "教育局", "area": 200.0, "method": "盆植及地植皆有", "introduction": "市立百齡國小" }, "geometry": { "type": "Point", "coordinates": [ 121.5178, 25.0865 ] } },
{ "type": "Feature", "properties": { "name": "市立格致國中小田園", "type": "小田園", "dept": "教育局", "area": 4.0, "method": "盆植及地植皆有", "introduction": "市立格致國中" }, "geometry": { "type": "Point", "coordinates": [ 121.5464, 25.1312 ] } },
{ "type": "Feature", "properties": { "name": "市立辛亥國小小田園", "type": "小田園", "dept": "教育局", "area": 389.0, "method": "盆植及地植皆有", "introduction": "市立辛亥國小" }, "geometry": { "type": "Point", "coordinates": [ 121.5592, 25.0067 ] } },
{ "type": "Feature", "properties": { "name": "市立興德國小小田園", "type": "小田園", "dept": "教育局", "area": 280.0, "method": "盆植及地植皆有", "introduction": "市立興德國小" }, "geometry": { "type": "Point", "coordinates": [ 121.5508, 25.002 ] } },
{ "type": "Feature", "properties": { "name": "市立大龍國小小田園", "type": "小田園", "dept": "教育局", "area": 100.0, "method": "盆植及地植皆有", "introduction": "市立大龍國小" }, "geometry": { "type": "Point", "coordinates": [ 121.5168, 25.0737 ] } },
{ "type": "Feature", "properties": { "name": "市立萬興國小小田園", "type": "小田園", "dept": "教育局", "area": 25.0, "method": "盆植及地植皆有", "introduction": "市立萬興國小" }, "geometry": { "type": "Point", "coordinates": [ 121.5766, 24.9907 ] } },
{ "type": "Feature", "properties": { "name": "市立實踐國小小田園", "type": "小田園", "dept": "教育局", "area": 20.0, "method": "盆植及地植皆有", "introduction": "市立實踐國小" }, "geometry": { "type": "Point", "coordinates": [ 121.5571, 24.9844 ] } },
{ "type": "Feature", "properties": { "name": "市立三民國小小田園", "type": "小田園", "dept": "教育局", "area": 60.0, "method": "盆植及地植皆有", "introduction": "市立三民國小" }, "geometry": { "type": "Point", "coordinates": [ 121.5643, 25.0635 ] } },
{ "type": "Feature", "properties": { "name": "市立陽明山國小小田園", "type": "小田園", "dept": "教育局", "area": 132.0, "method": "盆植及地植皆有", "introduction": "市立陽明山國小" }, "geometry": { "type": "Point", "coordinates": [ 121.5528, 25.1196 ] } },
{ "type": "Feature", "properties": { "name": "市立蓬萊國小小田園", "type": "小田園", "dept": "教育局", "area": 373.0, "method": "盆植及地植皆有", "introduction": "市立蓬萊國小" }, "geometry": { "type": "Point", "coordinates": [ 121.5157, 25.0567 ] } },
{ "type": "Feature", "properties": { "name": "市立敦化國小小田園", "type": "小田園", "dept": "教育局", "area": 80.0, "method": "盆植及地植皆有", "introduction": "市立敦化國小" }, "geometry": { "type": "Point", "coordinates": [ 121.5485, 25.0494 ] } },
{ "type": "Feature", "properties": { "name": "市立湖田國小小田園", "type": "小田園", "dept": "教育局", "area": 250.0, "method": "盆植及地植皆有", "introduction": "市立湖田國小" }, "geometry": { "type": "Point", "coordinates": [ 121.5392, 25.1692 ] } },
{ "type": "Feature", "properties": { "name": "臺北市立北投幼兒園小田園", "type": "小田園", "dept": "教育局", "area": 43.0, "method": "盆植及地植皆有", "introduction": "臺北市立北投幼兒園" }, "geometry": { "type": "Point", "coordinates": [ 121.5226, 25.1134 ] } },
{ "type": "Feature", "properties": { "name": "市立修德國小小田園", "type": "小田園", "dept": "教育局", "area": 287.03, "method": "盆植及地植皆有", "introduction": "市立修德國小" }, "geometry": { "type": "Point", "coordinates": [ 121.5896, 25.0458 ] } },
{ "type": "Feature", "properties": { "name": "市立石牌國小小田園", "type": "小田園", "dept": "教育局", "area": 150.0, "method": "盆植及地植皆有", "introduction": "市立石牌國小" }, "geometry": { "type": "Point", "coordinates": [ 121.5117, 25.1161 ] } },
{ "type": "Feature", "properties": { "name": "市立大理高中小田園", "type": "小田園", "dept": "教育局", "area": 40.0, "method": "盆植及地植皆有", "introduction": "市立大理高中" }, "geometry": { "type": "Point", "coordinates": [ 121.4913, 25.0312 ] } },
{ "type": "Feature", "properties": { "name": "私立靜修女中小田園", "type": "小田園", "dept": "教育局", "area": 23.0, "method": "盆植及地植皆有", "introduction": "私立靜修女中" }, "geometry": { "type": "Point", "coordinates": [ 121.5154, 25.0582 ] } },
{ "type": "Feature", "properties": { "name": "市立大安國中小田園", "type": "小田園", "dept": "教育局", "area": 100.0, "method": "盆植及地植皆有", "introduction": "市立大安國中" }, "geometry": { "type": "Point", "coordinates": [ 121.5462, 25.0311 ] } },
{ "type": "Feature", "properties": { "name": "市立關渡國小小田園", "type": "小田園", "dept": "教育局", "area": 198.0, "method": "盆植及地植皆有", "introduction": "市立關渡國小" }, "geometry": { "type": "Point", "coordinates": [ 121.4662, 25.1268 ] } },
{ "type": "Feature", "properties": { "name": "市立幸安國小小田園", "type": "小田園", "dept": "教育局", "area": 300.0, "method": "盆植及地植皆有", "introduction": "市立幸安國小" }, "geometry": { "type": "Point", "coordinates": [ 121.535, 25.038 ] } },
{ "type": "Feature", "properties": { "name": "臺北市立內湖幼兒園小田園", "type": "小田園", "dept": "教育局", "area": 553.46, "method": "盆植及地植皆有", "introduction": "臺北市立內湖幼兒園" }, "geometry": { "type": "Point", "coordinates": [ 121.5806, 25.0737 ] } },
{ "type": "Feature", "properties": { "name": "市立南港高工小田園", "type": "小田園", "dept": "教育局", "area": 33.66, "method": "盆植及地植皆有", "introduction": "市立南港高工" }, "geometry": { "type": "Point", "coordinates": [ 121.6075, 25.0566 ] } },
{ "type": "Feature", "properties": { "name": "私立開平餐飲小田園", "type": "小田園", "dept": "教育局", "area": 200.0, "method": "盆植及地植皆有", "introduction": "私立開平餐飲" }, "geometry": { "type": "Point", "coordinates": [ 121.5423, 25.0286 ] } },
{ "type": "Feature", "properties": { "name": "市立文山特殊教育學校小田園", "type": "小田園", "dept": "教育局", "area": 96.0, "method": "盆植及地植皆有", "introduction": "市立文山特殊教育學校" }, "geometry": { "type": "Point", "coordinates": [ 121.5678, 24.9919 ] } },
{ "type": "Feature", "properties": { "name": "國北教大實小小田園", "type": "小田園", "dept": "教育局", "area": 3887.0, "method": "盆植及地植皆有", "introduction": "國北教大實小" }, "geometry": { "type": "Point", "coordinates": [ 121.541, 25.0253 ] } },
{ "type": "Feature", "properties": { "name": "市立雙蓮國小小田園", "type": "小田園", "dept": "教育局", "area": 44.0, "method": "盆植及地植皆有", "introduction": "市立雙蓮國小" }, "geometry": { "type": "Point", "coordinates": [ 121.5163, 25.0606 ] } },
{ "type": "Feature", "properties": { "name": "私立大誠高級中學小田園", "type": "小田園", "dept": "教育局", "area": 200.0, "method": "盆植及地植皆有", "introduction": "私立大誠高級中學" }, "geometry": { "type": "Point", "coordinates": [ 121.5785, 24.9914 ] } },
{ "type": "Feature", "properties": { "name": "寧馨苑幼兒園小田園", "type": "小田園", "dept": "教育局", "area": 26.45, "method": "盆植及地植皆有", "introduction": "寧馨苑幼兒園" }, "geometry": { "type": "Point", "coordinates": [ 121.4943, 25.0289 ] } },
{ "type": "Feature", "properties": { "name": "私立喬治工商小田園", "type": "小田園", "dept": "教育局", "area": 70.0, "method": "盆植及地植皆有", "introduction": "私立喬治工商" }, "geometry": { "type": "Point", "coordinates": [ 121.5545, 25.0262 ] } },
{ "type": "Feature", "properties": { "name": "市立中山國中小田園", "type": "小田園", "dept": "教育局", "area": 120.0, "method": "盆植及地植皆有", "introduction": "市立中山國中" }, "geometry": { "type": "Point", "coordinates": [ 121.5455, 25.0609 ] } },
{ "type": "Feature", "properties": { "name": "臺北市立大同幼兒園小田園", "type": "小田園", "dept": "教育局", "area": 53.0, "method": "盆植及地植皆有", "introduction": "臺北市立大同幼兒園" }, "geometry": { "type": "Point", "coordinates": [ 121.519, 25.0527 ] } },
{ "type": "Feature", "properties": { "name": "臺北市立南海實驗幼兒園小田園", "type": "小田園", "dept": "教育局", "area": 160.0, "method": "盆植及地植皆有", "introduction": "臺北市立南海實驗幼兒園" }, "geometry": { "type": "Point", "coordinates": [ 121.4977, 25.03 ] } },
{ "type": "Feature", "properties": { "name": "市立介壽國中小田園", "type": "小田園", "dept": "教育局", "area": 248.0, "method": "盆植及地植皆有", "introduction": "市立介壽國中" }, "geometry": { "type": "Point", "coordinates": [ 121.5565, 25.0567 ] } },
{ "type": "Feature", "properties": { "name": "市立明倫高中小田園", "type": "小田園", "dept": "教育局", "area": 200.0, "method": "盆植及地植皆有", "introduction": "市立明倫高中" }, "geometry": { "type": "Point", "coordinates": [ 121.5193, 25.0766 ] } },
{ "type": "Feature", "properties": { "name": "市立大同國小小田園", "type": "小田園", "dept": "教育局", "area": 220.0, "method": "盆植及地植皆有", "introduction": "市立大同國小" }, "geometry": { "type": "Point", "coordinates": [ 121.5161, 25.0652 ] } },
{ "type": "Feature", "properties": { "name": "市立胡適國小小田園", "type": "小田園", "dept": "教育局", "area": 21.3, "method": "盆植及地植皆有", "introduction": "市立胡適國小" }, "geometry": { "type": "Point", "coordinates": [ 121.5802, 25.0589 ] } },
{ "type": "Feature", "properties": { "name": "市立潭美國小小田園", "type": "小田園", "dept": "教育局", "area": 15.0, "method": "盆植及地植皆有", "introduction": "市立潭美國小" }, "geometry": { "type": "Point", "coordinates": [ 121.5803, 25.0593 ] } },
{ "type": "Feature", "properties": { "name": "市立西湖國中小田園", "type": "小田園", "dept": "教育局", "area": 600.0, "method": "盆植及地植皆有", "introduction": "市立西湖國中" }, "geometry": { "type": "Point", "coordinates": [ 121.5658, 25.0855 ] } },
{ "type": "Feature", "properties": { "name": "市立天母國小小田園", "type": "小田園", "dept": "教育局", "area": 40.0, "method": "盆植及地植皆有", "introduction": "市立天母國小" }, "geometry": { "type": "Point", "coordinates": [ 121.5275, 25.1201 ] } },
{ "type": "Feature", "properties": { "name": "市立成功高中小田園", "type": "小田園", "dept": "教育局", "area": 200.0, "method": "盆植及地植皆有", "introduction": "市立成功高中" }, "geometry": { "type": "Point", "coordinates": [ 121.5237, 25.0426 ] } },
{ "type": "Feature", "properties": { "name": "市立螢橋國中小田園", "type": "小田園", "dept": "教育局", "area": 144.0, "method": "盆植及地植皆有", "introduction": "市立螢橋國中" }, "geometry": { "type": "Point", "coordinates": [ 121.5261, 25.0198 ] } },
{ "type": "Feature", "properties": { "name": "市立指南國小小田園", "type": "小田園", "dept": "教育局", "area": 43.24, "method": "盆植及地植皆有", "introduction": "市立指南國小" }, "geometry": { "type": "Point", "coordinates": [ 121.5836, 24.9769 ] } },
{ "type": "Feature", "properties": { "name": "市立松山工農小田園", "type": "小田園", "dept": "教育局", "area": 75.0, "method": "盆植及地植皆有", "introduction": "市立松山工農" }, "geometry": { "type": "Point", "coordinates": [ 121.5721, 25.04 ] } },
{ "type": "Feature", "properties": { "name": "市立成德國小小田園", "type": "小田園", "dept": "教育局", "area": 187.0, "method": "盆植及地植皆有", "introduction": "市立成德國小" }, "geometry": { "type": "Point", "coordinates": [ 121.5869, 25.0474 ] } },
{ "type": "Feature", "properties": { "name": "市立南湖國小小田園", "type": "小田園", "dept": "教育局", "area": 300.0, "method": "盆植及地植皆有", "introduction": "市立南湖國小" }, "geometry": { "type": "Point", "coordinates": [ 121.6116, 25.0685 ] } },
{ "type": "Feature", "properties": { "name": "市立龍安國小小田園", "type": "小田園", "dept": "教育局", "area": 15.0, "method": "盆植及地植皆有", "introduction": "市立龍安國小" }, "geometry": { "type": "Point", "coordinates": [ 121.5349, 25.0242 ] } },
{ "type": "Feature", "properties": { "name": "市立文化國小小田園", "type": "小田園", "dept": "教育局", "area": 10.0, "method": "盆植及地植皆有", "introduction": "市立文化國小" }, "geometry": { "type": "Point", "coordinates": [ 121.4965, 25.1375 ] } },