{
"type": "FeatureCollection",
"crs": { "type": "name", "properties": { "name": "urn:ogc:def:crs:OGC:1.3:CRS84" } },
"features": [
{ "type": "Feature", "properties": { "stop_id": "U101001", "stop_name": "捷運科技大樓站", "capacity": 28, "lat": 25.02605, "lng": 121.5436, "available_rent_prob_median": 0.85555555555555562, "category": "中" }, "geometry": { "type": "Point", "coordinates": [ 121.5436, 25.02605 ] } },
{ "type": "Feature", "properties": { "stop_id": "U101002", "stop_name": "復興南路二段273號前", "capacity": 21, "lat": 25.02565, "lng": 121.54357, "available_rent_prob_median": 0.72129629629629632, "category": "中" }, "geometry": { "type": "Point", "coordinates": [ 121.54357, 25.02565 ] } },
{ "type": "Feature", "properties": { "stop_id": "U101003", "stop_name": "國北教大實小東側門", "capacity": 16, "lat": 25.02429, "lng": 121.54124, "available_rent_prob_median": 0.81111111111111112, "category": "中" }, "geometry": { "type": "Point", "coordinates": [ 121.54124, 25.02429 ] } },
{ "type": "Feature", "properties": { "stop_id": "U101004", "stop_name": "和平公園東側", "capacity": 11, "lat": 25.02351, "lng": 121.54282, "available_rent_prob_median": 0.825, "category": "中" }, "geometry": { "type": "Point", "coordinates": [ 121.54282, 25.02351 ] } },
{ "type": "Feature", "properties": { "stop_id": "U101005", "stop_name": "辛亥復興路口西北側", "capacity": 16, "lat": 25.02153, "lng": 121.54299, "available_rent_prob_median": 0.9, "category": "中" }, "geometry": { "type": "Point", "coordinates": [ 121.54299, 25.02153 ] } },
{ "type": "Feature", "properties": { "stop_id": "U101006", "stop_name": "復興南路二段280號前", "capacity": 11, "lat": 25.02429, "lng": 121.54328, "available_rent_prob_median": 0.7675925925925926, "category": "中" }, "geometry": { "type": "Point", "coordinates": [ 121.54328, 25.02429 ] } },
{ "type": "Feature", "properties": { "stop_id": "U101007", "stop_name": "復興南路二段340巷口", "capacity": 11, "lat": 25.02253, "lng": 121.54326, "available_rent_prob_median": 0.77592592592592591, "category": "中" }, "geometry": { "type": "Point", "coordinates": [ 121.54326, 25.02253 ] } },
{ "type": "Feature", "properties": { "stop_id": "U101008", "stop_name": "新生南路三段52號前", "capacity": 17, "lat": 25.02112, "lng": 121.53407, "available_rent_prob_median": 0.96666666666666667, "category": "高" }, "geometry": { "type": "Point", "coordinates": [ 121.53407, 25.02112 ] } },
{ "type": "Feature", "properties": { "stop_id": "U101009", "stop_name": "新生南路三段66號前", "capacity": 16, "lat": 25.01976, "lng": 121.53384, "available_rent_prob_median": 0.92777777777777781, "category": "高" }, "geometry": { "type": "Point", "coordinates": [ 121.53384, 25.01976 ] } },
{ "type": "Feature", "properties": { "stop_id": "U101010", "stop_name": "新生南路三段82號前", "capacity": 20, "lat": 25.01894, "lng": 121.53361, "available_rent_prob_median": 0.90648148148148144, "category": "高" }, "geometry": { "type": "Point", "coordinates": [ 121.53361, 25.01894 ] } },
{ "type": "Feature", "properties": { "stop_id": "U101012", "stop_name": "辛亥路一段30號前", "capacity": 8, "lat": 25.01986, "lng": 121.52982, "available_rent_prob_median": 0.76574074074074072, "category": "中" }, "geometry": { "type": "Point", "coordinates": [ 121.52982, 25.01986 ] } },
{ "type": "Feature", "properties": { "stop_id": "U101013", "stop_name": "和平復興路口西北側", "capacity": 9, "lat": 25.02543, "lng": 121.54332, "available_rent_prob_median": 0.87685185185185188, "category": "中" }, "geometry": { "type": "Point", "coordinates": [ 121.54332, 25.02543 ] } },
{ "type": "Feature", "properties": { "stop_id": "U101014", "stop_name": "羅斯福路三段311號前", "capacity": 11, "lat": 25.01717, "lng": 121.53202, "available_rent_prob_median": 0.88981481481481484, "category": "中" }, "geometry": { "type": "Point", "coordinates": [ 121.53202, 25.01717 ] } },
{ "type": "Feature", "properties": { "stop_id": "U101015", "stop_name": "大安運動中心停車場", "capacity": 14, "lat": 25.020348, "lng": 121.546446, "available_rent_prob_median": 0.85925925925925928, "category": "中" }, "geometry": { "type": "Point", "coordinates": [ 121.546446, 25.020348 ] } },
{ "type": "Feature", "properties": { "stop_id": "U101016", "stop_name": "羅斯福路三段245號前", "capacity": 8, "lat": 25.01927, "lng": 121.52989, "available_rent_prob_median": 0.78518518518518521, "category": "中" }, "geometry": { "type": "Point", "coordinates": [ 121.52989, 25.01927 ] } },
{ "type": "Feature", "properties": { "stop_id": "U101018", "stop_name": "溫州公園", "capacity": 5, "lat": 25.01895, "lng": 121.53156, "available_rent_prob_median": 0.80925925925925923, "category": "中" }, "geometry": { "type": "Point", "coordinates": [ 121.53156, 25.01895 ] } },
{ "type": "Feature", "properties": { "stop_id": "U101019", "stop_name": "和平臥龍街口", "capacity": 15, "lat": 25.024461, "lng": 121.546705, "available_rent_prob_median": 0.88888888888888884, "category": "中" }, "geometry": { "type": "Point", "coordinates": [ 121.546705, 25.024461 ] } },
{ "type": "Feature", "properties": { "stop_id": "U101020", "stop_name": "溫州停車場", "capacity": 5, "lat": 25.02093, "lng": 121.5331, "available_rent_prob_median": 0.80925925925925923, "category": "中" }, "geometry": { "type": "Point", "coordinates": [ 121.5331, 25.02093 ] } },
{ "type": "Feature", "properties": { "stop_id": "U101021", "stop_name": "銘傳國小側門", "capacity": 7, "lat": 25.01385, "lng": 121.53549, "available_rent_prob_median": 0.00092592592592588563, "category": "低" }, "geometry": { "type": "Point", "coordinates": [ 121.53549, 25.01385 ] } },
{ "type": "Feature", "properties": { "stop_id": "U101022", "stop_name": "捷運公館站(2號出口)", "capacity": 99, "lat": 25.01491, "lng": 121.53438, "available_rent_prob_median": 0.88796296296296295, "category": "中" }, "geometry": { "type": "Point", "coordinates": [ 121.53438, 25.01491 ] } },
{ "type": "Feature", "properties": { "stop_id": "U101023", "stop_name": "第二學生活動中心", "capacity": 27, "lat": 25.01244, "lng": 121.53661, "available_rent_prob_median": 0.00092592592592588563, "category": "低" }, "geometry": { "type": "Point", "coordinates": [ 121.53661, 25.01244 ] } },
{ "type": "Feature", "properties": { "stop_id": "U101024", "stop_name": "臺灣科技大學正門", "capacity": 30, "lat": 25.01451, "lng": 121.54142, "available_rent_prob_median": 0.77777777777777779, "category": "中" }, "geometry": { "type": "Point", "coordinates": [ 121.54142, 25.01451 ] } },
{ "type": "Feature", "properties": { "stop_id": "U101025", "stop_name": "臺灣科技大學側門", "capacity": 99, "lat": 25.01295, "lng": 121.53973, "available_rent_prob_median": 0.89074074074074072, "category": "中" }, "geometry": { "type": "Point", "coordinates": [ 121.53973, 25.01295 ] } },
{ "type": "Feature", "properties": { "stop_id": "U101026", "stop_name": "公館公園", "capacity": 15, "lat": 25.01137, "lng": 121.54062, "available_rent_prob_median": 0.80185185185185182, "category": "中" }, "geometry": { "type": "Point", "coordinates": [ 121.54062, 25.01137 ] } },
{ "type": "Feature", "properties": { "stop_id": "U101027", "stop_name": "臺灣科技大學後門", "capacity": 39, "lat": 25.01182, "lng": 121.54165, "available_rent_prob_median": 0.90648148148148144, "category": "高" }, "geometry": { "type": "Point", "coordinates": [ 121.54165, 25.01182 ] } },
{ "type": "Feature", "properties": { "stop_id": "U101028", "stop_name": "臺大醫學院附設癌醫中心", "capacity": 20, "lat": 25.01426, "lng": 121.54382, "available_rent_prob_median": 0.88611111111111107, "category": "中" }, "geometry": { "type": "Point", "coordinates": [ 121.54382, 25.01426 ] } },
{ "type": "Feature", "properties": { "stop_id": "U101029", "stop_name": "臺大環研大樓", "capacity": 15, "lat": 25.01234, "lng": 121.54503, "available_rent_prob_median": 0.83611111111111114, "category": "中" }, "geometry": { "type": "Point", "coordinates": [ 121.54503, 25.01234 ] } },
{ "type": "Feature", "properties": { "stop_id": "U101030", "stop_name": "臺大永齡生醫工程館", "capacity": 34, "lat": 25.0136, "lng": 121.54656, "available_rent_prob_median": 0.9194444444444444, "category": "高" }, "geometry": { "type": "Point", "coordinates": [ 121.54656, 25.0136 ] } },
{ "type": "Feature", "properties": { "stop_id": "U101031", "stop_name": "臺大男七舍前", "capacity": 20, "lat": 25.01537, "lng": 121.54698, "available_rent_prob_median": 0.90740740740740744, "category": "高" }, "geometry": { "type": "Point", "coordinates": [ 121.54698, 25.01537 ] } },
{ "type": "Feature", "properties": { "stop_id": "U101032", "stop_name": "臺大男一舍前", "capacity": 61, "lat": 25.01637, "lng": 121.54535, "available_rent_prob_median": 0.94074074074074077, "category": "高" }, "geometry": { "type": "Point", "coordinates": [ 121.54535, 25.01637 ] } },
{ "type": "Feature", "properties": { "stop_id": "U101033", "stop_name": "臺大男六舍前", "capacity": 46, "lat": 25.01664, "lng": 121.5452, "available_rent_prob_median": 0.85092592592592586, "category": "中" }, "geometry": { "type": "Point", "coordinates": [ 121.5452, 25.01664 ] } },
{ "type": "Feature", "properties": { "stop_id": "U101034", "stop_name": "臺大動物醫院前", "capacity": 18, "lat": 25.01576, "lng": 121.54291, "available_rent_prob_median": 0.7407407407407407, "category": "中" }, "geometry": { "type": "Point", "coordinates": [ 121.54291, 25.01576 ] } },
{ "type": "Feature", "properties": { "stop_id": "U101035", "stop_name": "臺大土木研究大樓前", "capacity": 24, "lat": 25.01787, "lng": 121.5476, "available_rent_prob_median": 0.92685185185185182, "category": "高" }, "geometry": { "type": "Point", "coordinates": [ 121.5476, 25.01787 ] } },
{ "type": "Feature", "properties": { "stop_id": "U101036", "stop_name": "臺大萬才館前", "capacity": 20, "lat": 25.02032, "lng": 121.54497, "available_rent_prob_median": 0.91851851851851851, "category": "高" }, "geometry": { "type": "Point", "coordinates": [ 121.54497, 25.02032 ] } },
{ "type": "Feature", "properties": { "stop_id": "U101037", "stop_name": "臺大國青大樓宿舍前", "capacity": 20, "lat": 25.02076, "lng": 121.54432, "available_rent_prob_median": 0.95092592592592595, "category": "高" }, "geometry": { "type": "Point", "coordinates": [ 121.54432, 25.02076 ] } },
{ "type": "Feature", "properties": { "stop_id": "U101038", "stop_name": "臺大社科院圖書館前", "capacity": 27, "lat": 25.02101, "lng": 121.54284, "available_rent_prob_median": 0.73796296296296293, "category": "中" }, "geometry": { "type": "Point", "coordinates": [ 121.54284, 25.02101 ] } },
{ "type": "Feature", "properties": { "stop_id": "U101039", "stop_name": "臺大法人語言訓練中心前", "capacity": 28, "lat": 25.02104, "lng": 121.54081, "available_rent_prob_median": 0.85185185185185186, "category": "中" }, "geometry": { "type": "Point", "coordinates": [ 121.54081, 25.02104 ] } },
{ "type": "Feature", "properties": { "stop_id": "U101040", "stop_name": "臺大綜合體育館停車場前", "capacity": 25, "lat": 25.0222, "lng": 121.53626, "available_rent_prob_median": 0.81574074074074077, "category": "中" }, "geometry": { "type": "Point", "coordinates": [ 121.53626, 25.0222 ] } },
{ "type": "Feature", "properties": { "stop_id": "U101041", "stop_name": "辛亥新生路口東南側", "capacity": 41, "lat": 25.02218, "lng": 121.53474, "available_rent_prob_median": 0.84537037037037033, "category": "中" }, "geometry": { "type": "Point", "coordinates": [ 121.53474, 25.02218 ] } },
{ "type": "Feature", "properties": { "stop_id": "U101042", "stop_name": "基隆長興路口東側", "capacity": 15, "lat": 25.01727, "lng": 121.54471, "available_rent_prob_median": 0.76666666666666661, "category": "中" }, "geometry": { "type": "Point", "coordinates": [ 121.54471, 25.01727 ] } },
{ "type": "Feature", "properties": { "stop_id": "U101091", "stop_name": "國北教大側門南側", "capacity": 25, "lat": 25.022864, "lng": 121.546622, "available_rent_prob_median": 0.90092592592592591, "category": "高" }, "geometry": { "type": "Point", "coordinates": [ 121.546622, 25.022864 ] } },
{ "type": "Feature", "properties": { "stop_id": "U101092", "stop_name": "和平實小東北側", "capacity": 13, "lat": 25.021641, "lng": 121.54704, "available_rent_prob_median": 0.8842592592592593, "category": "中" }, "geometry": { "type": "Point", "coordinates": [ 121.54704, 25.021641 ] } },
{ "type": "Feature", "properties": { "stop_id": "U101093", "stop_name": "大安區健康服務中心", "capacity": 15, "lat": 25.021469, "lng": 121.544069, "available_rent_prob_median": 0.80185185185185182, "category": "中" }, "geometry": { "type": "Point", "coordinates": [ 121.544069, 25.021469 ] } },
{ "type": "Feature", "properties": { "stop_id": "U101094", "stop_name": "辛亥泰順街口", "capacity": 20, "lat": 25.02193, "lng": 121.53165, "available_rent_prob_median": 0.85185185185185186, "category": "中" }, "geometry": { "type": "Point", "coordinates": [ 121.53165, 25.02193 ] } },
{ "type": "Feature", "properties": { "stop_id": "U101095", "stop_name": "芳和國中", "capacity": 28, "lat": 25.0189, "lng": 121.55013, "available_rent_prob_median": 1.0, "category": "高" }, "geometry": { "type": "Point", "coordinates": [ 121.55013, 25.0189 ] } },
{ "type": "Feature", "properties": { "stop_id": "U101097", "stop_name": "臥龍樂業街口", "capacity": 36, "lat": 25.01856, "lng": 121.55558, "available_rent_prob_median": 0.975, "category": "高" }, "geometry": { "type": "Point", "coordinates": [ 121.55558, 25.01856 ] } },
{ "type": "Feature", "properties": { "stop_id": "U101098", "stop_name": "臥龍公園", "capacity": 14, "lat": 25.01623, "lng": 121.55037, "available_rent_prob_median": 0.89074074074074072, "category": "中" }, "geometry": { "type": "Point", "coordinates": [ 121.55037, 25.01623 ] } },
{ "type": "Feature", "properties": { "stop_id": "U101099", "stop_name": "嘉興公園", "capacity": 44, "lat": 25.021, "lng": 121.55211, "available_rent_prob_median": 0.95740740740740737, "category": "高" }, "geometry": { "type": "Point", "coordinates": [ 121.55211, 25.021 ] } },
{ "type": "Feature", "properties": { "stop_id": "U101100", "stop_name": "捷運麟光站(2號出口)", "capacity": 35, "lat": 25.0181, "lng": 121.55929, "available_rent_prob_median": 1.0, "category": "高" }, "geometry": { "type": "Point", "coordinates": [ 121.55929, 25.0181 ] } },
{ "type": "Feature", "properties": { "stop_id": "U101101", "stop_name": "捷運六張犁站", "capacity": 64, "lat": 25.02397, "lng": 121.55266, "available_rent_prob_median": 0.95462962962962961, "category": "高" }, "geometry": { "type": "Point", "coordinates": [ 121.55266, 25.02397 ] } },
{ "type": "Feature", "properties": { "stop_id": "U101102", "stop_name": "喬治工商", "capacity": 26, "lat": 25.02705, "lng": 121.55551, "available_rent_prob_median": 0.87407407407407411, "category": "中" }, "geometry": { "type": "Point", "coordinates": [ 121.55551, 25.02705 ] } },
{ "type": "Feature", "properties": { "stop_id": "U101103", "stop_name": "法治公園", "capacity": 15, "lat": 25.02694, "lng": 121.55325, "available_rent_prob_median": 0.86851851851851847, "category": "中" }, "geometry": { "type": "Point", "coordinates": [ 121.55325, 25.02694 ] } },
{ "type": "Feature", "properties": { "stop_id": "U101104", "stop_name": "捷運臺電大樓站(2號出口)", "capacity": 15, "lat": 25.02021, "lng": 121.52942, "available_rent_prob_median": 0.75370370370370376, "category": "中" }, "geometry": { "type": "Point", "coordinates": [ 121.52942, 25.02021 ] } },
{ "type": "Feature", "properties": { "stop_id": "U101105", "stop_name": "和平金山路口", "capacity": 45, "lat": 25.02669, "lng": 121.52529, "available_rent_prob_median": 0.96296296296296302, "category": "高" }, "geometry": { "type": "Point", "coordinates": [ 121.52529, 25.02669 ] } },
{ "type": "Feature", "properties": { "stop_id": "U101107", "stop_name": "和平龍泉街口", "capacity": 34, "lat": 25.02638, "lng": 121.52971, "available_rent_prob_median": 0.98055555555555551, "category": "高" }, "geometry": { "type": "Point", "coordinates": [ 121.52971, 25.02638 ] } },
{ "type": "Feature", "properties": { "stop_id": "U101108", "stop_name": "和平泰順街口", "capacity": 9, "lat": 25.02621, "lng": 121.53171, "available_rent_prob_median": 0.92129629629629628, "category": "高" }, "geometry": { "type": "Point", "coordinates": [ 121.53171, 25.02621 ] } },
{ "type": "Feature", "properties": { "stop_id": "U101109", "stop_name": "臺灣師範大學(圖書館)", "capacity": 40, "lat": 25.0266, "lng": 121.52973, "available_rent_prob_median": 0.97129629629629632, "category": "高" }, "geometry": { "type": "Point", "coordinates": [ 121.52973, 25.0266 ] } },
{ "type": "Feature", "properties": { "stop_id": "U101110", "stop_name": "捷運古亭站(6號出口)", "capacity": 60, "lat": 25.0276, "lng": 121.52217, "available_rent_prob_median": 0.96111111111111114, "category": "高" }, "geometry": { "type": "Point", "coordinates": [ 121.52217, 25.0276 ] } },
{ "type": "Feature", "properties": { "stop_id": "U101111", "stop_name": "捷運古亭站(5號出口)", "capacity": 14, "lat": 25.02715, "lng": 121.52293, "available_rent_prob_median": 0.80092592592592593, "category": "中" }, "geometry": { "type": "Point", "coordinates": [ 121.52293, 25.02715 ] } },
{ "type": "Feature", "properties": { "stop_id": "U101113", "stop_name": "臺北市立圖書館(總館)", "capacity": 45, "lat": 25.02895, "lng": 121.5379, "available_rent_prob_median": 0.96574074074074079, "category": "高" }, "geometry": { "type": "Point", "coordinates": [ 121.5379, 25.02895 ] } },
{ "type": "Feature", "properties": { "stop_id": "U101114", "stop_name": "新生和平路口東北側", "capacity": 38, "lat": 25.02657, "lng": 121.53515, "available_rent_prob_median": 0.99907407407407411, "category": "高" }, "geometry": { "type": "Point", "coordinates": [ 121.53515, 25.02657 ] } },
{ "type": "Feature", "properties": { "stop_id": "U101115", "stop_name": "建國和平路口西北側", "capacity": 44, "lat": 25.02606, "lng": 121.53738, "available_rent_prob_median": 0.9916666666666667, "category": "高" }, "geometry": { "type": "Point", "coordinates": [ 121.53738, 25.02606 ] } },
{ "type": "Feature", "properties": { "stop_id": "U101116", "stop_name": "金華公園", "capacity": 35, "lat": 25.02984, "lng": 121.53107, "available_rent_prob_median": 0.95092592592592595, "category": "高" }, "geometry": { "type": "Point", "coordinates": [ 121.53107, 25.02984 ] } },
{ "type": "Feature", "properties": { "stop_id": "U101117", "stop_name": "捷運東門站(3號出口)", "capacity": 15, "lat": 25.03383, "lng": 121.52815, "available_rent_prob_median": 0.86481481481481481, "category": "中" }, "geometry": { "type": "Point", "coordinates": [ 121.52815, 25.03383 ] } },
{ "type": "Feature", "properties": { "stop_id": "U101118", "stop_name": "金甌女中", "capacity": 12, "lat": 25.03519, "lng": 121.5245, "available_rent_prob_median": 0.89444444444444449, "category": "中" }, "geometry": { "type": "Point", "coordinates": [ 121.5245, 25.03519 ] } },
{ "type": "Feature", "properties": { "stop_id": "U101119", "stop_name": "金杭公園", "capacity": 20, "lat": 25.03325, "lng": 121.52436, "available_rent_prob_median": 0.9916666666666667, "category": "高" }, "geometry": { "type": "Point", "coordinates": [ 121.52436, 25.03325 ] } },
{ "type": "Feature", "properties": { "stop_id": "U101120", "stop_name": "愛國金山路口", "capacity": 33, "lat": 25.03164, "lng": 121.52661, "available_rent_prob_median": 0.98611111111111116, "category": "高" }, "geometry": { "type": "Point", "coordinates": [ 121.52661, 25.03164 ] } },
{ "type": "Feature", "properties": { "stop_id": "U101122", "stop_name": "敦化南路二段293巷口南側", "capacity": 14, "lat": 25.0237, "lng": 121.54899, "available_rent_prob_median": 0.60925925925925928, "category": "中" }, "geometry": { "type": "Point", "coordinates": [ 121.54899, 25.0237 ] } },
{ "type": "Feature", "properties": { "stop_id": "U101123", "stop_name": "敦化基隆路口", "capacity": 29, "lat": 25.02215, "lng": 121.54839, "available_rent_prob_median": 0.88888888888888884, "category": "中" }, "geometry": { "type": "Point", "coordinates": [ 121.54839, 25.02215 ] } },
{ "type": "Feature", "properties": { "stop_id": "U101124", "stop_name": "安和路二段181巷口", "capacity": 17, "lat": 25.02721, "lng": 121.54988, "available_rent_prob_median": 0.92037037037037039, "category": "高" }, "geometry": { "type": "Point", "coordinates": [ 121.54988, 25.02721 ] } },
{ "type": "Feature", "properties": { "stop_id": "U101125", "stop_name": "臨江街夜市(通化街101巷口)", "capacity": 30, "lat": 25.02952, "lng": 121.55406, "available_rent_prob_median": 0.94537037037037042, "category": "高" }, "geometry": { "type": "Point", "coordinates": [ 121.55406, 25.02952 ] } },
{ "type": "Feature", "properties": { "stop_id": "U101126", "stop_name": "臨江街夜市(基隆路)", "capacity": 17, "lat": 25.02931, "lng": 121.55721, "available_rent_prob_median": 0.83518518518518525, "category": "中" }, "geometry": { "type": "Point", "coordinates": [ 121.55721, 25.02931 ] } },
{ "type": "Feature", "properties": { "stop_id": "U101127", "stop_name": "台北科技大學億光大樓", "capacity": 46, "lat": 25.04177, "lng": 121.53833, "available_rent_prob_median": 0.85185185185185186, "category": "中" }, "geometry": { "type": "Point", "coordinates": [ 121.53833, 25.04177 ] } },
{ "type": "Feature", "properties": { "stop_id": "U101128", "stop_name": "新生南路一段119巷口", "capacity": 33, "lat": 25.04003, "lng": 121.53299, "available_rent_prob_median": 0.96851851851851856, "category": "高" }, "geometry": { "type": "Point", "coordinates": [ 121.53299, 25.04003 ] } },
{ "type": "Feature", "properties": { "stop_id": "U101129", "stop_name": "幸安國小(仁愛路)", "capacity": 16, "lat": 25.03753, "lng": 121.53523, "available_rent_prob_median": 0.94722222222222219, "category": "高" }, "geometry": { "type": "Point", "coordinates": [ 121.53523, 25.03753 ] } },
{ "type": "Feature", "properties": { "stop_id": "U101130", "stop_name": "民榮公園", "capacity": 15, "lat": 25.03534, "lng": 121.5354, "available_rent_prob_median": 0.00092592592592588563, "category": "低" }, "geometry": { "type": "Point", "coordinates": [ 121.5354, 25.03534 ] } },
{ "type": "Feature", "properties": { "stop_id": "U101131", "stop_name": "復興南路1段340巷口", "capacity": 38, "lat": 25.03701, "lng": 121.54348, "available_rent_prob_median": 0.90277777777777779, "category": "高" }, "geometry": { "type": "Point", "coordinates": [ 121.54348, 25.03701 ] } },
{ "type": "Feature", "properties": { "stop_id": "U101132", "stop_name": "建國濟南路口", "capacity": 29, "lat": 25.03935, "lng": 121.53828, "available_rent_prob_median": 0.95185185185185184, "category": "高" }, "geometry": { "type": "Point", "coordinates": [ 121.53828, 25.03935 ] } },
{ "type": "Feature", "properties": { "stop_id": "U101133", "stop_name": "捷運忠孝復興站(2號出口)", "capacity": 43, "lat": 25.04035, "lng": 121.5436, "available_rent_prob_median": 0.92314814814814816, "category": "高" }, "geometry": { "type": "Point", "coordinates": [ 121.5436, 25.04035 ] } },
{ "type": "Feature", "properties": { "stop_id": "U101134", "stop_name": "捷運大安站(4號出口)", "capacity": 13, "lat": 25.0332, "lng": 121.5439, "available_rent_prob_median": 0.74259259259259258, "category": "中" }, "geometry": { "type": "Point", "coordinates": [ 121.5439, 25.0332 ] } },
{ "type": "Feature", "properties": { "stop_id": "U101135", "stop_name": "捷運大安站(2號出口)", "capacity": 22, "lat": 25.03358, "lng": 121.54141, "available_rent_prob_median": 0.8574074074074074, "category": "中" }, "geometry": { "type": "Point", "coordinates": [ 121.54141, 25.03358 ] } },
{ "type": "Feature", "properties": { "stop_id": "U101136", "stop_name": "信義大安路口(信維大樓)", "capacity": 12, "lat": 25.03317, "lng": 121.54639, "available_rent_prob_median": 0.82037037037037042, "category": "中" }, "geometry": { "type": "Point", "coordinates": [ 121.54639, 25.03317 ] } },
{ "type": "Feature", "properties": { "stop_id": "U101137", "stop_name": "龍門廣場", "capacity": 50, "lat": 25.04092, "lng": 121.54825, "available_rent_prob_median": 0.89907407407407403, "category": "中" }, "geometry": { "type": "Point", "coordinates": [ 121.54825, 25.04092 ] } },
{ "type": "Feature", "properties": { "stop_id": "U101138", "stop_name": "仁愛安和路口", "capacity": 25, "lat": 25.03754, "lng": 121.55285, "available_rent_prob_median": 0.89166666666666661, "category": "中" }, "geometry": { "type": "Point", "coordinates": [ 121.55285, 25.03754 ] } },
{ "type": "Feature", "properties": { "stop_id": "U101139", "stop_name": "信義敦化路口", "capacity": 46, "lat": 25.03333, "lng": 121.54977, "available_rent_prob_median": 0.95833333333333337, "category": "高" }, "geometry": { "type": "Point", "coordinates": [ 121.54977, 25.03333 ] } },
{ "type": "Feature", "properties": { "stop_id": "U101140", "stop_name": "仁愛國中", "capacity": 25, "lat": 25.03706, "lng": 121.55166, "available_rent_prob_median": 0.80648148148148147, "category": "中" }, "geometry": { "type": "Point", "coordinates": [ 121.55166, 25.03706 ] } },
{ "type": "Feature", "properties": { "stop_id": "U101141", "stop_name": "捷運信義安和站(2號出口)", "capacity": 26, "lat": 25.03304, "lng": 121.55171, "available_rent_prob_median": 0.88148148148148153, "category": "中" }, "geometry": { "type": "Point", "coordinates": [ 121.55171, 25.03304 ] } },
{ "type": "Feature", "properties": { "stop_id": "U101142", "stop_name": "八德市場", "capacity": 30, "lat": 25.04463, "lng": 121.53665, "available_rent_prob_median": 0.89166666666666661, "category": "中" }, "geometry": { "type": "Point", "coordinates": [ 121.53665, 25.04463 ] } },
{ "type": "Feature", "properties": { "stop_id": "U101143", "stop_name": "昌隆公園", "capacity": 16, "lat": 25.04448, "lng": 121.53946, "available_rent_prob_median": 0.92037037037037039, "category": "高" }, "geometry": { "type": "Point", "coordinates": [ 121.53946, 25.04448 ] } },
{ "type": "Feature", "properties": { "stop_id": "U101144", "stop_name": "捷運大安森林公園站(2號出口)", "capacity": 62, "lat": 25.03332, "lng": 121.53435, "available_rent_prob_median": 0.937037037037037, "category": "高" }, "geometry": { "type": "Point", "coordinates": [ 121.53435, 25.03332 ] } },
{ "type": "Feature", "properties": { "stop_id": "U101145", "stop_name": "信義延吉街口", "capacity": 15, "lat": 25.03318, "lng": 121.55725, "available_rent_prob_median": 0.92314814814814816, "category": "高" }, "geometry": { "type": "Point", "coordinates": [ 121.55725, 25.03318 ] } },
{ "type": "Feature", "properties": { "stop_id": "U101146", "stop_name": "光信公園(光復南路456巷)", "capacity": 15, "lat": 25.03513, "lng": 121.5561, "available_rent_prob_median": 0.90925925925925921, "category": "高" }, "geometry": { "type": "Point", "coordinates": [ 121.5561, 25.03513 ] } },
{ "type": "Feature", "properties": { "stop_id": "U101147", "stop_name": "僑安地下停車場(2號出口)東南側", "capacity": 20, "lat": 25.0391, "lng": 121.5569, "available_rent_prob_median": 0.8657407407407407, "category": "中" }, "geometry": { "type": "Point", "coordinates": [ 121.5569, 25.0391 ] } },
{ "type": "Feature", "properties": { "stop_id": "U101148", "stop_name": "建國南路一段279巷口", "capacity": 32, "lat": 25.03635, "lng": 121.53833, "available_rent_prob_median": 0.92777777777777781, "category": "高" }, "geometry": { "type": "Point", "coordinates": [ 121.53833, 25.03635 ] } },
{ "type": "Feature", "properties": { "stop_id": "U101149", "stop_name": "捷運忠孝新生站(6號出口)", "capacity": 15, "lat": 25.04091, "lng": 121.53295, "available_rent_prob_median": 0.71666666666666667, "category": "中" }, "geometry": { "type": "Point", "coordinates": [ 121.53295, 25.04091 ] } },
{ "type": "Feature", "properties": { "stop_id": "U101150", "stop_name": "捷運忠孝新生站(4號出口)", "capacity": 34, "lat": 25.04239, "lng": 121.53324, "available_rent_prob_median": 0.78518518518518521, "category": "中" }, "geometry": { "type": "Point", "coordinates": [ 121.53324, 25.04239 ] } },
{ "type": "Feature", "properties": { "stop_id": "U101151", "stop_name": "大安高工", "capacity": 23, "lat": 25.03126, "lng": 121.54339, "available_rent_prob_median": 0.81111111111111112, "category": "中" }, "geometry": { "type": "Point", "coordinates": [ 121.54339, 25.03126 ] } },
{ "type": "Feature", "properties": { "stop_id": "U101152", "stop_name": "捷運忠孝新生站(3號出口)", "capacity": 23, "lat": 25.04189, "lng": 121.53376, "available_rent_prob_median": 0.725, "category": "中" }, "geometry": { "type": "Point", "coordinates": [ 121.53376, 25.04189 ] } },
{ "type": "Feature", "properties": { "stop_id": "U101153", "stop_name": "瑠公公園", "capacity": 20, "lat": 25.04201, "lng": 121.54612, "available_rent_prob_median": 0.89907407407407403, "category": "中" }, "geometry": { "type": "Point", "coordinates": [ 121.54612, 25.04201 ] } },
{ "type": "Feature", "properties": { "stop_id": "U101154", "stop_name": "敦化市民路口", "capacity": 23, "lat": 25.04405, "lng": 121.5486, "available_rent_prob_median": 0.937037037037037, "category": "高" }, "geometry": { "type": "Point", "coordinates": [ 121.5486, 25.04405 ] } },
{ "type": "Feature", "properties": { "stop_id": "U101155", "stop_name": "捷運大安森林公園站(5號出口)", "capacity": 15, "lat": 25.03336, "lng": 121.5364, "available_rent_prob_median": 0.83981481481481479, "category": "中" }, "geometry": { "type": "Point", "coordinates": [ 121.5364, 25.03336 ] } },
{ "type": "Feature", "properties": { "stop_id": "U101156", "stop_name": "信義建國路口", "capacity": 38, "lat": 25.0328, "lng": 121.53746, "available_rent_prob_median": 0.90555555555555556, "category": "高" }, "geometry": { "type": "Point", "coordinates": [ 121.53746, 25.0328 ] } },
{ "type": "Feature", "properties": { "stop_id": "U101157", "stop_name": "東豐公園", "capacity": 19, "lat": 25.03569, "lng": 121.5451, "available_rent_prob_median": 0.88055555555555554, "category": "中" }, "geometry": { "type": "Point", "coordinates": [ 121.5451, 25.03569 ] } },
{ "type": "Feature", "properties": { "stop_id": "U101158", "stop_name": "德安公園(四維路66巷)", "capacity": 14, "lat": 25.03473, "lng": 121.54767, "available_rent_prob_median": 0.95370370370370372, "category": "高" }, "geometry": { "type": "Point", "coordinates": [ 121.54767, 25.03473 ] } },
{ "type": "Feature", "properties": { "stop_id": "U101159", "stop_name": "捷運忠孝復興站(5號出口)", "capacity": 41, "lat": 25.04262, "lng": 121.54443, "available_rent_prob_median": 0.90370370370370368, "category": "高" }, "geometry": { "type": "Point", "coordinates": [ 121.54443, 25.04262 ] } },
{ "type": "Feature", "properties": { "stop_id": "U101160", "stop_name": "捷運忠孝敦化站(2號出口)", "capacity": 17, "lat": 25.04153, "lng": 121.5524, "available_rent_prob_median": 0.96018518518518514, "category": "高" }, "geometry": { "type": "Point", "coordinates": [ 121.5524, 25.04153 ] } },
{ "type": "Feature", "properties": { "stop_id": "U101161", "stop_name": "捷運忠孝敦化站(7號出口)", "capacity": 18, "lat": 25.04159, "lng": 121.54937, "available_rent_prob_median": 0.81666666666666665, "category": "中" }, "geometry": { "type": "Point", "coordinates": [ 121.54937, 25.04159 ] } },
{ "type": "Feature", "properties": { "stop_id": "U101163", "stop_name": "瑞安街208巷", "capacity": 15, "lat": 25.02979, "lng": 121.54053, "available_rent_prob_median": 0.87777777777777777, "category": "中" }, "geometry": { "type": "Point", "coordinates": [ 121.54053, 25.02979 ] } },
{ "type": "Feature", "properties": { "stop_id": "U101165", "stop_name": "樂利路21巷口", "capacity": 17, "lat": 25.0277, "lng": 121.55132, "available_rent_prob_median": 0.92592592592592593, "category": "高" }, "geometry": { "type": "Point", "coordinates": [ 121.55132, 25.0277 ] } },
{ "type": "Feature", "properties": { "stop_id": "U101166", "stop_name": "捷運科技大樓站(台北教育大學)", "capacity": 46, "lat": 25.02469, "lng": 121.54459, "available_rent_prob_median": 0.91111111111111109, "category": "高" }, "geometry": { "type": "Point", "coordinates": [ 121.54459, 25.02469 ] } },
{ "type": "Feature", "properties": { "stop_id": "U101167", "stop_name": "捷運國父紀念館站(2號出口)", "capacity": 38, "lat": 25.04122, "lng": 121.55745, "available_rent_prob_median": 0.92685185185185182, "category": "高" }, "geometry": { "type": "Point", "coordinates": [ 121.55745, 25.04122 ] } },
{ "type": "Feature", "properties": { "stop_id": "U101168", "stop_name": "仁愛醫院", "capacity": 30, "lat": 25.03756, "lng": 121.54587, "available_rent_prob_median": 0.87222222222222223, "category": "中" }, "geometry": { "type": "Point", "coordinates": [ 121.54587, 25.03756 ] } },
{ "type": "Feature", "properties": { "stop_id": "U101169", "stop_name": "捷運信義安和站(4號出口)", "capacity": 30, "lat": 25.03305, "lng": 121.55378, "available_rent_prob_median": 0.94074074074074077, "category": "高" }, "geometry": { "type": "Point", "coordinates": [ 121.55378, 25.03305 ] } },
{ "type": "Feature", "properties": { "stop_id": "U101170", "stop_name": "成功國宅", "capacity": 30, "lat": 25.02681, "lng": 121.54668, "available_rent_prob_median": 0.94259259259259265, "category": "高" }, "geometry": { "type": "Point", "coordinates": [ 121.54668, 25.02681 ] } },
{ "type": "Feature", "properties": { "stop_id": "U101171", "stop_name": "仁愛延吉街口", "capacity": 25, "lat": 25.03748, "lng": 121.55564, "available_rent_prob_median": 0.90925925925925921, "category": "高" }, "geometry": { "type": "Point", "coordinates": [ 121.55564, 25.03748 ] } },
{ "type": "Feature", "properties": { "stop_id": "U101172", "stop_name": "捷運信義安和站(1號出口)", "capacity": 33, "lat": 25.03331, "lng": 121.55265, "available_rent_prob_median": 0.91203703703703698, "category": "高" }, "geometry": { "type": "Point", "coordinates": [ 121.55265, 25.03331 ] } },
{ "type": "Feature", "properties": { "stop_id": "U101173", "stop_name": "敦化南路二段103巷口", "capacity": 24, "lat": 25.0287, "lng": 121.54904, "available_rent_prob_median": 0.77962962962962967, "category": "中" }, "geometry": { "type": "Point", "coordinates": [ 121.54904, 25.0287 ] } },
{ "type": "Feature", "properties": { "stop_id": "U101174", "stop_name": "復興南路二段128巷口", "capacity": 28, "lat": 25.02861, "lng": 121.54336, "available_rent_prob_median": 0.92685185185185182, "category": "高" }, "geometry": { "type": "Point", "coordinates": [ 121.54336, 25.02861 ] } },
{ "type": "Feature", "properties": { "stop_id": "U101175", "stop_name": "和平東建國南路口", "capacity": 17, "lat": 25.02575, "lng": 121.5377, "available_rent_prob_median": 0.87870370370370376, "category": "中" }, "geometry": { "type": "Point", "coordinates": [ 121.5377, 25.02575 ] } },
{ "type": "Feature", "properties": { "stop_id": "U101176", "stop_name": "芳蘭山莊", "capacity": 16, "lat": 25.01223, "lng": 121.54788, "available_rent_prob_median": 1.0, "category": "高" }, "geometry": { "type": "Point", "coordinates": [ 121.54788, 25.01223 ] } },
{ "type": "Feature", "properties": { "stop_id": "U101177", "stop_name": "復興南路一段126巷口", "capacity": 15, "lat": 25.04311, "lng": 121.54313, "available_rent_prob_median": 0.82777777777777772, "category": "中" }, "geometry": { "type": "Point", "coordinates": [ 121.54313, 25.04311 ] } },
{ "type": "Feature", "properties": { "stop_id": "U101179", "stop_name": "捷運東門站(5號出口)", "capacity": 28, "lat": 25.03363, "lng": 121.52962, "available_rent_prob_median": 0.9018518518518519, "category": "高" }, "geometry": { "type": "Point", "coordinates": [ 121.52962, 25.03363 ] } },
{ "type": "Feature", "properties": { "stop_id": "U101180", "stop_name": "仁愛路四段48巷口", "capacity": 11, "lat": 25.03609, "lng": 121.54709, "available_rent_prob_median": 0.89907407407407403, "category": "中" }, "geometry": { "type": "Point", "coordinates": [ 121.54709, 25.03609 ] } },
{ "type": "Feature", "properties": { "stop_id": "U101181", "stop_name": "捷運公館站(3號出口)", "capacity": 90, "lat": 25.01551, "lng": 121.53374, "available_rent_prob_median": 0.86203703703703705, "category": "中" }, "geometry": { "type": "Point", "coordinates": [ 121.53374, 25.01551 ] } },
{ "type": "Feature", "properties": { "stop_id": "U101182", "stop_name": "臺北科技大學(電機工程系)", "capacity": 16, "lat": 25.04196, "lng": 121.53653, "available_rent_prob_median": 0.76203703703703707, "category": "中" }, "geometry": { "type": "Point", "coordinates": [ 121.53653, 25.04196 ] } },
{ "type": "Feature", "properties": { "stop_id": "U101183", "stop_name": "忠孝東路三段217巷口", "capacity": 34, "lat": 25.04176, "lng": 121.54027, "available_rent_prob_median": 0.925, "category": "高" }, "geometry": { "type": "Point", "coordinates": [ 121.54027, 25.04176 ] } },
{ "type": "Feature", "properties": { "stop_id": "U101184", "stop_name": "新生南路三段94巷口", "capacity": 15, "lat": 25.01744, "lng": 121.53334, "available_rent_prob_median": 0.88888888888888884, "category": "中" }, "geometry": { "type": "Point", "coordinates": [ 121.53334, 25.01744 ] } },
{ "type": "Feature", "properties": { "stop_id": "U101185", "stop_name": "辛亥新生路口西北側", "capacity": 12, "lat": 25.02267, "lng": 121.5341, "available_rent_prob_median": 0.83981481481481479, "category": "中" }, "geometry": { "type": "Point", "coordinates": [ 121.5341, 25.02267 ] } },
{ "type": "Feature", "properties": { "stop_id": "U101186", "stop_name": "捷運大安站(6號出口)", "capacity": 19, "lat": 25.03479, "lng": 121.54376, "available_rent_prob_median": 0.72407407407407409, "category": "中" }, "geometry": { "type": "Point", "coordinates": [ 121.54376, 25.03479 ] } },
{ "type": "Feature", "properties": { "stop_id": "U101187", "stop_name": "臥龍街195巷口", "capacity": 14, "lat": 25.01783, "lng": 121.55224, "available_rent_prob_median": 0.95, "category": "高" }, "geometry": { "type": "Point", "coordinates": [ 121.55224, 25.01783 ] } },
{ "type": "Feature", "properties": { "stop_id": "U101188", "stop_name": "辛亥路三段157巷口", "capacity": 19, "lat": 25.01727, "lng": 121.54904, "available_rent_prob_median": 0.9462962962962963, "category": "高" }, "geometry": { "type": "Point", "coordinates": [ 121.54904, 25.01727 ] } },
{ "type": "Feature", "properties": { "stop_id": "U101189", "stop_name": "臥龍基隆路口", "capacity": 16, "lat": 25.02039, "lng": 121.54853, "available_rent_prob_median": 0.92962962962962958, "category": "高" }, "geometry": { "type": "Point", "coordinates": [ 121.54853, 25.02039 ] } },
{ "type": "Feature", "properties": { "stop_id": "U101190", "stop_name": "敦親公園", "capacity": 20, "lat": 25.02347, "lng": 121.54108, "available_rent_prob_median": 0.90740740740740744, "category": "高" }, "geometry": { "type": "Point", "coordinates": [ 121.54108, 25.02347 ] } },
{ "type": "Feature", "properties": { "stop_id": "U101191", "stop_name": "大安運動中心", "capacity": 27, "lat": 25.02054, "lng": 121.54561, "available_rent_prob_median": 0.74259259259259258, "category": "中" }, "geometry": { "type": "Point", "coordinates": [ 121.54561, 25.02054 ] } },
{ "type": "Feature", "properties": { "stop_id": "U101192", "stop_name": "和平敦化路口", "capacity": 25, "lat": 25.02444, "lng": 121.54908, "available_rent_prob_median": 0.925, "category": "高" }, "geometry": { "type": "Point", "coordinates": [ 121.54908, 25.02444 ] } },
{ "type": "Feature", "properties": { "stop_id": "U101193", "stop_name": "基隆長興路口", "capacity": 43, "lat": 25.01705, "lng": 121.54435, "available_rent_prob_median": 0.72685185185185186, "category": "中" }, "geometry": { "type": "Point", "coordinates": [ 121.54435, 25.01705 ] } },
{ "type": "Feature", "properties": { "stop_id": "U101194", "stop_name": "仁愛路四段122巷口", "capacity": 16, "lat": 25.03762, "lng": 121.55009, "available_rent_prob_median": 0.73888888888888893, "category": "中" }, "geometry": { "type": "Point", "coordinates": [ 121.55009, 25.03762 ] } },
{ "type": "Feature", "properties": { "stop_id": "U101196", "stop_name": "市民敦化路口", "capacity": 15, "lat": 25.04464, "lng": 121.54944, "available_rent_prob_median": 0.82962962962962961, "category": "中" }, "geometry": { "type": "Point", "coordinates": [ 121.54944, 25.04464 ] } },
{ "type": "Feature", "properties": { "stop_id": "U101197", "stop_name": "忠孝東路四段49巷口", "capacity": 15, "lat": 25.04172, "lng": 121.54541, "available_rent_prob_median": 0.812962962962963, "category": "中" }, "geometry": { "type": "Point", "coordinates": [ 121.54541, 25.04172 ] } },
{ "type": "Feature", "properties": { "stop_id": "U101198", "stop_name": "市民復興路口(東南側)", "capacity": 16, "lat": 25.04472, "lng": 121.54401, "available_rent_prob_median": 0.86851851851851847, "category": "中" }, "geometry": { "type": "Point", "coordinates": [ 121.54401, 25.04472 ] } },
{ "type": "Feature", "properties": { "stop_id": "U101199", "stop_name": "和平新生路口西南側", "capacity": 13, "lat": 25.02598, "lng": 121.53454, "available_rent_prob_median": 0.92037037037037039, "category": "高" }, "geometry": { "type": "Point", "coordinates": [ 121.53454, 25.02598 ] } },
{ "type": "Feature", "properties": { "stop_id": "U101200", "stop_name": "全安公園", "capacity": 16, "lat": 25.02535, "lng": 121.55101, "available_rent_prob_median": 0.975, "category": "高" }, "geometry": { "type": "Point", "coordinates": [ 121.55101, 25.02535 ] } },
{ "type": "Feature", "properties": { "stop_id": "U101201", "stop_name": "信義路三段134巷口", "capacity": 19, "lat": 25.03333, "lng": 121.53968, "available_rent_prob_median": 0.86481481481481481, "category": "中" }, "geometry": { "type": "Point", "coordinates": [ 121.53968, 25.03333 ] } },
{ "type": "Feature", "properties": { "stop_id": "U101202", "stop_name": "仁愛敦南圓環(東南側)", "capacity": 16, "lat": 25.03715, "lng": 121.54936, "available_rent_prob_median": 0.73333333333333339, "category": "中" }, "geometry": { "type": "Point", "coordinates": [ 121.54936, 25.03715 ] } },
{ "type": "Feature", "properties": { "stop_id": "U101203", "stop_name": "臺北遠企購物中心", "capacity": 33, "lat": 25.02709, "lng": 121.54902, "available_rent_prob_median": 0.83148148148148149, "category": "中" }, "geometry": { "type": "Point", "coordinates": [ 121.54902, 25.02709 ] } },
{ "type": "Feature", "properties": { "stop_id": "U101204", "stop_name": "外交部外交及國際事務學院", "capacity": 17, "lat": 25.0371, "lng": 121.54839, "available_rent_prob_median": 0.73888888888888893, "category": "中" }, "geometry": { "type": "Point", "coordinates": [ 121.54839, 25.0371 ] } },
{ "type": "Feature", "properties": { "stop_id": "U101205", "stop_name": "四維路170巷口", "capacity": 22, "lat": 25.02821, "lng": 121.54864, "available_rent_prob_median": 0.89907407407407403, "category": "中" }, "geometry": { "type": "Point", "coordinates": [ 121.54864, 25.02821 ] } },
{ "type": "Feature", "properties": { "stop_id": "U101206", "stop_name": "捷運大安站(3號出口)", "capacity": 44, "lat": 25.03328, "lng": 121.5425, "available_rent_prob_median": 0.91666666666666663, "category": "高" }, "geometry": { "type": "Point", "coordinates": [ 121.5425, 25.03328 ] } },
{ "type": "Feature", "properties": { "stop_id": "U101207", "stop_name": "捷運臺電大樓站(2號出口)", "capacity": 31, "lat": 25.02055, "lng": 121.52855, "available_rent_prob_median": 0.84166666666666667, "category": "中" }, "geometry": { "type": "Point", "coordinates": [ 121.52855, 25.02055 ] } },
{ "type": "Feature", "properties": { "stop_id": "U101208", "stop_name": "信義路四段199巷", "capacity": 15, "lat": 25.03459, "lng": 121.55164, "available_rent_prob_median": 0.89444444444444449, "category": "中" }, "geometry": { "type": "Point", "coordinates": [ 121.55164, 25.03459 ] } },
{ "type": "Feature", "properties": { "stop_id": "U101209", "stop_name": "臺大資訊大樓", "capacity": 40, "lat": 25.02101, "lng": 121.54153, "available_rent_prob_median": 0.70555555555555549, "category": "中" }, "geometry": { "type": "Point", "coordinates": [ 121.54153, 25.02101 ] } },
{ "type": "Feature", "properties": { "stop_id": "U101210", "stop_name": "敦化南路二段81巷", "capacity": 40, "lat": 25.03002, "lng": 121.54893, "available_rent_prob_median": 0.90092592592592591, "category": "高" }, "geometry": { "type": "Point", "coordinates": [ 121.54893, 25.03002 ] } },
{ "type": "Feature", "properties": { "stop_id": "U101211", "stop_name": "原臺北刑務所官舍", "capacity": 23, "lat": 25.03054, "lng": 121.52466, "available_rent_prob_median": 0.97222222222222221, "category": "高" }, "geometry": { "type": "Point", "coordinates": [ 121.52466, 25.03054 ] } },
{ "type": "Feature", "properties": { "stop_id": "U101212", "stop_name": "捷運國父紀念館站(1號出口)", "capacity": 25, "lat": 25.04205, "lng": 121.55657, "available_rent_prob_median": 0.93148148148148147, "category": "高" }, "geometry": { "type": "Point", "coordinates": [ 121.55657, 25.04205 ] } },
{ "type": "Feature", "properties": { "stop_id": "U101213", "stop_name": "懷生國中", "capacity": 15, "lat": 25.0401, "lng": 121.54122, "available_rent_prob_median": 0.97222222222222221, "category": "高" }, "geometry": { "type": "Point", "coordinates": [ 121.54122, 25.0401 ] } },
{ "type": "Feature", "properties": { "stop_id": "U101214", "stop_name": "仁愛敦南圓環(西北側)", "capacity": 20, "lat": 25.03827, "lng": 121.54802, "available_rent_prob_median": 0.81018518518518512, "category": "中" }, "geometry": { "type": "Point", "coordinates": [ 121.54802, 25.03827 ] } },
{ "type": "Feature", "properties": { "stop_id": "U101215", "stop_name": "立人國小", "capacity": 17, "lat": 25.02974, "lng": 121.55146, "available_rent_prob_median": 0.89814814814814814, "category": "中" }, "geometry": { "type": "Point", "coordinates": [ 121.55146, 25.02974 ] } },
{ "type": "Feature", "properties": { "stop_id": "U101216", "stop_name": "和平東路二段18巷口", "capacity": 24, "lat": 25.02268, "lng": 121.53608, "available_rent_prob_median": 0.8925925925925926, "category": "中" }, "geometry": { "type": "Point", "coordinates": [ 121.53608, 25.02268 ] } },
{ "type": "Feature", "properties": { "stop_id": "U101217", "stop_name": "捷運大安站(5號出口)", "capacity": 19, "lat": 25.03303, "lng": 121.54372, "available_rent_prob_median": 0.68240740740740735, "category": "中" }, "geometry": { "type": "Point", "coordinates": [ 121.54372, 25.03303 ] } },
{ "type": "Feature", "properties": { "stop_id": "U101218", "stop_name": "臨江公園", "capacity": 13, "lat": 25.02832, "lng": 121.55592, "available_rent_prob_median": 0.80277777777777781, "category": "中" }, "geometry": { "type": "Point", "coordinates": [ 121.55592, 25.02832 ] } },
{ "type": "Feature", "properties": { "stop_id": "U101219", "stop_name": "羅斯福路四段113巷19弄口", "capacity": 14, "lat": 25.01027, "lng": 121.53998, "available_rent_prob_median": 0.7231481481481481, "category": "中" }, "geometry": { "type": "Point", "coordinates": [ 121.53998, 25.01027 ] } },
{ "type": "Feature", "properties": { "stop_id": "U101221", "stop_name": "忠孝東路四段248巷口", "capacity": 15, "lat": 25.04132, "lng": 121.55393, "available_rent_prob_median": 0.84722222222222221, "category": "中" }, "geometry": { "type": "Point", "coordinates": [ 121.55393, 25.04132 ] } },
{ "type": "Feature", "properties": { "stop_id": "U101222", "stop_name": "仁愛延吉路口(西北側)", "capacity": 18, "lat": 25.03795, "lng": 121.55466, "available_rent_prob_median": 0.90092592592592591, "category": "高" }, "geometry": { "type": "Point", "coordinates": [ 121.55466, 25.03795 ] } },
{ "type": "Feature", "properties": { "stop_id": "U101223", "stop_name": "樂利路101巷口", "capacity": 13, "lat": 25.02528, "lng": 121.55224, "available_rent_prob_median": 0.94166666666666665, "category": "高" }, "geometry": { "type": "Point", "coordinates": [ 121.55224, 25.02528 ] } },
{ "type": "Feature", "properties": { "stop_id": "U101224", "stop_name": "羅斯福浦城街口", "capacity": 15, "lat": 25.02208, "lng": 121.52678, "available_rent_prob_median": 0.9, "category": "中" }, "geometry": { "type": "Point", "coordinates": [ 121.52678, 25.02208 ] } },
{ "type": "Feature", "properties": { "stop_id": "U101225", "stop_name": "敦化南路一段295巷口", "capacity": 18, "lat": 25.03551, "lng": 121.54951, "available_rent_prob_median": 0.87592592592592589, "category": "中" }, "geometry": { "type": "Point", "coordinates": [ 121.54951, 25.03551 ] } },
{ "type": "Feature", "properties": { "stop_id": "U101226", "stop_name": "通安區民活動中心", "capacity": 19, "lat": 25.02942, "lng": 121.55294, "available_rent_prob_median": 0.812962962962963, "category": "中" }, "geometry": { "type": "Point", "coordinates": [ 121.55294, 25.02942 ] } },
{ "type": "Feature", "properties": { "stop_id": "U101228", "stop_name": "仁愛大安路口(東北側)", "capacity": 20, "lat": 25.03813, "lng": 121.54631, "available_rent_prob_median": 0.75648148148148153, "category": "中" }, "geometry": { "type": "Point", "coordinates": [ 121.54631, 25.03813 ] } },
{ "type": "Feature", "properties": { "stop_id": "U103001", "stop_name": "延平國宅", "capacity": 30, "lat": 25.07894, "lng": 121.51121, "available_rent_prob_median": 1.0, "category": "高" }, "geometry": { "type": "Point", "coordinates": [ 121.51121, 25.07894 ] } },
{ "type": "Feature", "properties": { "stop_id": "U103002", "stop_name": "臺北市立圖書館大同分館", "capacity": 20, "lat": 25.0741, "lng": 121.51349, "available_rent_prob_median": 0.90555555555555556, "category": "高" }, "geometry": { "type": "Point", "coordinates": [ 121.51349, 25.0741 ] } },
{ "type": "Feature", "properties": { "stop_id": "U103003", "stop_name": "合昌宮", "capacity": 15, "lat": 25.07717, "lng": 121.50934, "available_rent_prob_median": 1.0, "category": "高" }, "geometry": { "type": "Point", "coordinates": [ 121.50934, 25.07717 ] } },
{ "type": "Feature", "properties": { "stop_id": "U103004", "stop_name": "民族延平路口", "capacity": 23, "lat": 25.06864, "lng": 121.5107, "available_rent_prob_median": 0.94259259259259265, "category": "高" }, "geometry": { "type": "Point", "coordinates": [ 121.5107, 25.06864 ] } },
{ "type": "Feature", "properties": { "stop_id": "U103005", "stop_name": "重慶酒泉街口", "capacity": 30, "lat": 25.07158, "lng": 121.51368, "available_rent_prob_median": 0.9555555555555556, "category": "高" }, "geometry": { "type": "Point", "coordinates": [ 121.51368, 25.07158 ] } },
{ "type": "Feature", "properties": { "stop_id": "U103006", "stop_name": "樹德公園", "capacity": 14, "lat": 25.06647, "lng": 121.5165, "available_rent_prob_median": 0.90648148148148144, "category": "高" }, "geometry": { "type": "Point", "coordinates": [ 121.5165, 25.06647 ] } },
{ "type": "Feature", "properties": { "stop_id": "U103007", "stop_name": "陳天來故居", "capacity": 18, "lat": 25.05601, "lng": 121.50895, "available_rent_prob_median": 0.93611111111111112, "category": "高" }, "geometry": { "type": "Point", "coordinates": [ 121.50895, 25.05601 ] } },
{ "type": "Feature", "properties": { "stop_id": "U103008", "stop_name": "臺北孔廟", "capacity": 27, "lat": 25.07378, "lng": 121.51583, "available_rent_prob_median": 0.94537037037037042, "category": "高" }, "geometry": { "type": "Point", "coordinates": [ 121.51583, 25.07378 ] } },
{ "type": "Feature", "properties": { "stop_id": "U103009", "stop_name": "捷運圓山站(1號出口)", "capacity": 44, "lat": 25.07133, "lng": 121.52024, "available_rent_prob_median": 0.95648148148148149, "category": "高" }, "geometry": { "type": "Point", "coordinates": [ 121.52024, 25.07133 ] } },
{ "type": "Feature", "properties": { "stop_id": "U103010", "stop_name": "酒泉延平路口", "capacity": 26, "lat": 25.0722, "lng": 121.51057, "available_rent_prob_median": 0.96481481481481479, "category": "高" }, "geometry": { "type": "Point", "coordinates": [ 121.51057, 25.0722 ] } },
{ "type": "Feature", "properties": { "stop_id": "U103011", "stop_name": "重慶國中", "capacity": 37, "lat": 25.07567, "lng": 121.51862, "available_rent_prob_median": 0.92129629629629628, "category": "高" }, "geometry": { "type": "Point", "coordinates": [ 121.51862, 25.07567 ] } },
{ "type": "Feature", "properties": { "stop_id": "U103012", "stop_name": "重慶北路三段383巷口", "capacity": 25, "lat": 25.07598, "lng": 121.51409, "available_rent_prob_median": 1.0, "category": "高" }, "geometry": { "type": "Point", "coordinates": [ 121.51409, 25.07598 ] } },
{ "type": "Feature", "properties": { "stop_id": "U103013", "stop_name": "台北數位產業園區", "capacity": 24, "lat": 25.07447, "lng": 121.52003, "available_rent_prob_median": 0.94074074074074077, "category": "高" }, "geometry": { "type": "Point", "coordinates": [ 121.52003, 25.07447 ] } },
{ "type": "Feature", "properties": { "stop_id": "U103019", "stop_name": "民權延平路口(西北側)", "capacity": 20, "lat": 25.06326, "lng": 121.51099, "available_rent_prob_median": 0.92777777777777781, "category": "高" }, "geometry": { "type": "Point", "coordinates": [ 121.51099, 25.06326 ] } },
{ "type": "Feature", "properties": { "stop_id": "U103020", "stop_name": "民權迪化街口", "capacity": 23, "lat": 25.06327, "lng": 121.50943, "available_rent_prob_median": 0.95925925925925926, "category": "高" }, "geometry": { "type": "Point", "coordinates": [ 121.50943, 25.06327 ] } },
{ "type": "Feature", "properties": { "stop_id": "U103021", "stop_name": "大稻埕公園", "capacity": 25, "lat": 25.05915, "lng": 121.51033, "available_rent_prob_median": 0.98703703703703705, "category": "高" }, "geometry": { "type": "Point", "coordinates": [ 121.51033, 25.05915 ] } },
{ "type": "Feature", "properties": { "stop_id": "U103022", "stop_name": "大龍老人住宅", "capacity": 14, "lat": 25.06853, "lng": 121.51729, "available_rent_prob_median": 0.88055555555555554, "category": "中" }, "geometry": { "type": "Point", "coordinates": [ 121.51729, 25.06853 ] } },
{ "type": "Feature", "properties": { "stop_id": "U103023", "stop_name": "大龍峒社會住宅", "capacity": 20, "lat": 25.0708, "lng": 121.51826, "available_rent_prob_median": 0.91018518518518521, "category": "高" }, "geometry": { "type": "Point", "coordinates": [ 121.51826, 25.0708 ] } },
{ "type": "Feature", "properties": { "stop_id": "U103024", "stop_name": "捷運大橋頭站(2號出口)", "capacity": 57, "lat": 25.06314, "lng": 121.51308, "available_rent_prob_median": 0.92685185185185182, "category": "高" }, "geometry": { "type": "Point", "coordinates": [ 121.51308, 25.06314 ] } },
{ "type": "Feature", "properties": { "stop_id": "U103025", "stop_name": "捷運大橋頭站(1A出口)", "capacity": 18, "lat": 25.06325, "lng": 121.51162, "available_rent_prob_median": 0.79351851851851851, "category": "中" }, "geometry": { "type": "Point", "coordinates": [ 121.51162, 25.06325 ] } },
{ "type": "Feature", "properties": { "stop_id": "U103026", "stop_name": "捷運民權西路站(2號出口)", "capacity": 25, "lat": 25.06174, "lng": 121.51969, "available_rent_prob_median": 0.81388888888888888, "category": "中" }, "geometry": { "type": "Point", "coordinates": [ 121.51969, 25.06174 ] } },
{ "type": "Feature", "properties": { "stop_id": "U103027", "stop_name": "捷運雙連站(2號出口)", "capacity": 41, "lat": 25.05826, "lng": 121.52063, "available_rent_prob_median": 0.92962962962962958, "category": "高" }, "geometry": { "type": "Point", "coordinates": [ 121.52063, 25.05826 ] } },
{ "type": "Feature", "properties": { "stop_id": "U103028", "stop_name": "捷運北門站(3號出口)", "capacity": 62, "lat": 25.04991, "lng": 121.5104, "available_rent_prob_median": 0.96944444444444444, "category": "高" }, "geometry": { "type": "Point", "coordinates": [ 121.5104, 25.04991 ] } },
{ "type": "Feature", "properties": { "stop_id": "U103029", "stop_name": "朝陽公園", "capacity": 10, "lat": 25.05592, "lng": 121.51367, "available_rent_prob_median": 0.88796296296296295, "category": "中" }, "geometry": { "type": "Point", "coordinates": [ 121.51367, 25.05592 ] } },
{ "type": "Feature", "properties": { "stop_id": "U103030", "stop_name": "永樂市場", "capacity": 38, "lat": 25.05454, "lng": 121.51052, "available_rent_prob_median": 0.97129629629629632, "category": "高" }, "geometry": { "type": "Point", "coordinates": [ 121.51052, 25.05454 ] } },
{ "type": "Feature", "properties": { "stop_id": "U103031", "stop_name": "大龍公園", "capacity": 18, "lat": 25.07049, "lng": 121.51596, "available_rent_prob_median": 0.9462962962962963, "category": "高" }, "geometry": { "type": "Point", "coordinates": [ 121.51596, 25.07049 ] } },
{ "type": "Feature", "properties": { "stop_id": "U103032", "stop_name": "重慶涼州街口", "capacity": 13, "lat": 25.06054, "lng": 121.51338, "available_rent_prob_median": 0.80092592592592593, "category": "中" }, "geometry": { "type": "Point", "coordinates": [ 121.51338, 25.06054 ] } },
{ "type": "Feature", "properties": { "stop_id": "U103033", "stop_name": "圓山線形公園", "capacity": 14, "lat": 25.06867, "lng": 121.51993, "available_rent_prob_median": 0.875, "category": "中" }, "geometry": { "type": "Point", "coordinates": [ 121.51993, 25.06867 ] } },
{ "type": "Feature", "properties": { "stop_id": "U103034", "stop_name": "圓環站", "capacity": 28, "lat": 25.05369, "lng": 121.51418, "available_rent_prob_median": 0.94444444444444442, "category": "高" }, "geometry": { "type": "Point", "coordinates": [ 121.51418, 25.05369 ] } },
{ "type": "Feature", "properties": { "stop_id": "U103035", "stop_name": "重慶民族路口", "capacity": 20, "lat": 25.06853, "lng": 121.51359, "available_rent_prob_median": 0.91203703703703698, "category": "高" }, "geometry": { "type": "Point", "coordinates": [ 121.51359, 25.06853 ] } },
{ "type": "Feature", "properties": { "stop_id": "U103036", "stop_name": "承德路三段8巷口", "capacity": 16, "lat": 25.06407, "lng": 121.51822, "available_rent_prob_median": 0.87685185185185188, "category": "中" }, "geometry": { "type": "Point", "coordinates": [ 121.51822, 25.06407 ] } },
{ "type": "Feature", "properties": { "stop_id": "U103037", "stop_name": "太原廣場", "capacity": 31, "lat": 25.04925, "lng": 121.51468, "available_rent_prob_median": 0.99814814814814812, "category": "高" }, "geometry": { "type": "Point", "coordinates": [ 121.51468, 25.04925 ] } },
{ "type": "Feature", "properties": { "stop_id": "U103038", "stop_name": "國順公園", "capacity": 20, "lat": 25.06594, "lng": 121.51078, "available_rent_prob_median": 0.92962962962962958, "category": "高" }, "geometry": { "type": "Point", "coordinates": [ 121.51078, 25.06594 ] } },
{ "type": "Feature", "properties": { "stop_id": "U103039", "stop_name": "聯合醫院中興院區", "capacity": 27, "lat": 25.05205, "lng": 121.50818, "available_rent_prob_median": 0.98796296296296293, "category": "高" }, "geometry": { "type": "Point", "coordinates": [ 121.50818, 25.05205 ] } },
{ "type": "Feature", "properties": { "stop_id": "U103040", "stop_name": "蔣渭水紀念公園", "capacity": 24, "lat": 25.06011, "lng": 121.51729, "available_rent_prob_median": 0.95370370370370372, "category": "高" }, "geometry": { "type": "Point", "coordinates": [ 121.51729, 25.06011 ] } },
{ "type": "Feature", "properties": { "stop_id": "U103041", "stop_name": "迪化休閒運動公園", "capacity": 15, "lat": 25.07491, "lng": 121.5115, "available_rent_prob_median": 0.94722222222222219, "category": "高" }, "geometry": { "type": "Point", "coordinates": [ 121.5115, 25.07491 ] } },
{ "type": "Feature", "properties": { "stop_id": "U103042", "stop_name": "大同運動中心", "capacity": 16, "lat": 25.06496, "lng": 121.51608, "available_rent_prob_median": 0.96388888888888891, "category": "高" }, "geometry": { "type": "Point", "coordinates": [ 121.51608, 25.06496 ] } },
{ "type": "Feature", "properties": { "stop_id": "U103043", "stop_name": "重慶保安街口(家樂福重慶店)", "capacity": 20, "lat": 25.05918, "lng": 121.51373, "available_rent_prob_median": 0.98148148148148151, "category": "高" }, "geometry": { "type": "Point", "coordinates": [ 121.51373, 25.05918 ] } },
{ "type": "Feature", "properties": { "stop_id": "U103044", "stop_name": "大稻埕碼頭", "capacity": 35, "lat": 25.05662, "lng": 121.50783, "available_rent_prob_median": 0.96851851851851856, "category": "高" }, "geometry": { "type": "Point", "coordinates": [ 121.50783, 25.05662 ] } },
{ "type": "Feature", "properties": { "stop_id": "U103045", "stop_name": "歸綏戲曲公園", "capacity": 20, "lat": 25.05805, "lng": 121.51353, "available_rent_prob_median": 0.97037037037037033, "category": "高" }, "geometry": { "type": "Point", "coordinates": [ 121.51353, 25.05805 ] } },
{ "type": "Feature", "properties": { "stop_id": "U103046", "stop_name": "民權國中(民權西路)", "capacity": 17, "lat": 25.06322, "lng": 121.5144, "available_rent_prob_median": 0.84722222222222221, "category": "中" }, "geometry": { "type": "Point", "coordinates": [ 121.5144, 25.06322 ] } },
{ "type": "Feature", "properties": { "stop_id": "U103047", "stop_name": "承德民權路口", "capacity": 17, "lat": 25.06247, "lng": 121.51839, "available_rent_prob_median": 0.84074074074074079, "category": "中" }, "geometry": { "type": "Point", "coordinates": [ 121.51839, 25.06247 ] } },
{ "type": "Feature", "properties": { "stop_id": "U103048", "stop_name": "南京太原路口", "capacity": 18, "lat": 25.05366, "lng": 121.51638, "available_rent_prob_median": 0.87037037037037035, "category": "中" }, "geometry": { "type": "Point", "coordinates": [ 121.51638, 25.05366 ] } },
{ "type": "Feature", "properties": { "stop_id": "U103049", "stop_name": "承德民生西路口", "capacity": 11, "lat": 25.05756, "lng": 121.51828, "available_rent_prob_median": 0.82685185185185184, "category": "中" }, "geometry": { "type": "Point", "coordinates": [ 121.51828, 25.05756 ] } },
{ "type": "Feature", "properties": { "stop_id": "U103050", "stop_name": "太原五原路口", "capacity": 24, "lat": 25.05646, "lng": 121.51698, "available_rent_prob_median": 0.98148148148148151, "category": "高" }, "geometry": { "type": "Point", "coordinates": [ 121.51698, 25.05646 ] } },
{ "type": "Feature", "properties": { "stop_id": "U103051", "stop_name": "臺北轉運站(華陰街)", "capacity": 20, "lat": 25.04937, "lng": 121.51914, "available_rent_prob_median": 0.93888888888888888, "category": "高" }, "geometry": { "type": "Point", "coordinates": [ 121.51914, 25.04937 ] } },
{ "type": "Feature", "properties": { "stop_id": "U103052", "stop_name": "捷運民權西路站(3號出口)", "capacity": 50, "lat": 25.06129, "lng": 121.52021, "available_rent_prob_median": 0.95648148148148149, "category": "高" }, "geometry": { "type": "Point", "coordinates": [ 121.52021, 25.06129 ] } },
{ "type": "Feature", "properties": { "stop_id": "U103053", "stop_name": "捷運中山站(5號出口)", "capacity": 11, "lat": 25.05296, "lng": 121.51938, "available_rent_prob_median": 0.85833333333333339, "category": "中" }, "geometry": { "type": "Point", "coordinates": [ 121.51938, 25.05296 ] } },
{ "type": "Feature", "properties": { "stop_id": "U103054", "stop_name": "重慶長安路口", "capacity": 15, "lat": 25.0515, "lng": 121.51398, "available_rent_prob_median": 0.91481481481481486, "category": "高" }, "geometry": { "type": "Point", "coordinates": [ 121.51398, 25.0515 ] } },
{ "type": "Feature", "properties": { "stop_id": "U103055", "stop_name": "承德昌吉街口", "capacity": 18, "lat": 25.06587, "lng": 121.51847, "available_rent_prob_median": 0.87129629629629624, "category": "中" }, "geometry": { "type": "Point", "coordinates": [ 121.51847, 25.06587 ] } },
{ "type": "Feature", "properties": { "stop_id": "U103056", "stop_name": "大同16號廣場", "capacity": 14, "lat": 25.05658, "lng": 121.50826, "available_rent_prob_median": 0.79166666666666663, "category": "中" }, "geometry": { "type": "Point", "coordinates": [ 121.50826, 25.05658 ] } },
{ "type": "Feature", "properties": { "stop_id": "U103057", "stop_name": "捷運圓山站(2號出口)", "capacity": 37, "lat": 25.07182, "lng": 121.51929, "available_rent_prob_median": 0.92037037037037039, "category": "高" }, "geometry": { "type": "Point", "coordinates": [ 121.51929, 25.07182 ] } },
{ "type": "Feature", "properties": { "stop_id": "U103058", "stop_name": "樹德公園", "capacity": 21, "lat": 25.06669, "lng": 121.51615, "available_rent_prob_median": 0.94259259259259265, "category": "高" }, "geometry": { "type": "Point", "coordinates": [ 121.51615, 25.06669 ] } },
{ "type": "Feature", "properties": { "stop_id": "U103059", "stop_name": "承德鄭州路口(市民高架下)", "capacity": 38, "lat": 25.04879, "lng": 121.51626, "available_rent_prob_median": 1.0, "category": "高" }, "geometry": { "type": "Point", "coordinates": [ 121.51626, 25.04879 ] } },
{ "type": "Feature", "properties": { "stop_id": "U103060", "stop_name": "成淵高中", "capacity": 14, "lat": 25.06036, "lng": 121.51996, "available_rent_prob_median": 0.91296296296296298, "category": "高" }, "geometry": { "type": "Point", "coordinates": [ 121.51996, 25.06036 ] } },
{ "type": "Feature", "properties": { "stop_id": "U103061", "stop_name": "雙蓮國小", "capacity": 20, "lat": 25.06157, "lng": 121.51683, "available_rent_prob_median": 0.9916666666666667, "category": "高" }, "geometry": { "type": "Point", "coordinates": [ 121.51683, 25.06157 ] } },
{ "type": "Feature", "properties": { "stop_id": "U103062", "stop_name": "寧夏涼州街口", "capacity": 15, "lat": 25.06095, "lng": 121.51428, "available_rent_prob_median": 0.93055555555555558, "category": "高" }, "geometry": { "type": "Point", "coordinates": [ 121.51428, 25.06095 ] } },
{ "type": "Feature", "properties": { "stop_id": "U103063", "stop_name": "延平涼州街口", "capacity": 14, "lat": 25.06092, "lng": 121.51126, "available_rent_prob_median": 1.0, "category": "高" }, "geometry": { "type": "Point", "coordinates": [ 121.51126, 25.06092 ] } },
{ "type": "Feature", "properties": { "stop_id": "U104001", "stop_name": "劍潭抽水站", "capacity": 17, "lat": 25.08128, "lng": 121.51784, "available_rent_prob_median": 0.89166666666666661, "category": "中" }, "geometry": { "type": "Point", "coordinates": [ 121.51784, 25.08128 ] } },
{ "type": "Feature", "properties": { "stop_id": "U104002", "stop_name": "通河東街大南路口", "capacity": 15, "lat": 25.08914, "lng": 121.51542, "available_rent_prob_median": 0.98611111111111116, "category": "高" }, "geometry": { "type": "Point", "coordinates": [ 121.51542, 25.08914 ] } },
{ "type": "Feature", "properties": { "stop_id": "U104003", "stop_name": "福港街停車場", "capacity": 22, "lat": 25.08695, "lng": 121.51901, "available_rent_prob_median": 0.91296296296296298, "category": "高" }, "geometry": { "type": "Point", "coordinates": [ 121.51901, 25.08695 ] } },
{ "type": "Feature", "properties": { "stop_id": "U104004", "stop_name": "百齡國小", "capacity": 50, "lat": 25.08521, "lng": 121.51918, "available_rent_prob_median": 0.9287037037037037, "category": "高" }, "geometry": { "type": "Point", "coordinates": [ 121.51918, 25.08521 ] } },
{ "type": "Feature", "properties": { "stop_id": "U104005", "stop_name": "雨聲街165巷口", "capacity": 15, "lat": 25.10277, "lng": 121.53357, "available_rent_prob_median": 0.90648148148148144, "category": "高" }, "geometry": { "type": "Point", "coordinates": [ 121.53357, 25.10277 ] } },
{ "type": "Feature", "properties": { "stop_id": "U104006", "stop_name": "天和公園", "capacity": 13, "lat": 25.12001, "lng": 121.53342, "available_rent_prob_median": 0.92407407407407405, "category": "高" }, "geometry": { "type": "Point", "coordinates": [ 121.53342, 25.12001 ] } },
{ "type": "Feature", "properties": { "stop_id": "U104007", "stop_name": "中山天母路口", "capacity": 29, "lat": 25.11856, "lng": 121.52964, "available_rent_prob_median": 0.92314814814814816, "category": "高" }, "geometry": { "type": "Point", "coordinates": [ 121.52964, 25.11856 ] } },
{ "type": "Feature", "properties": { "stop_id": "U104008", "stop_name": "天母運動公園", "capacity": 27, "lat": 25.11633, "lng": 121.53414, "available_rent_prob_median": 0.98888888888888893, "category": "高" }, "geometry": { "type": "Point", "coordinates": [ 121.53414, 25.11633 ] } },
{ "type": "Feature", "properties": { "stop_id": "U104009", "stop_name": "臺北市立大學(天母校區)", "capacity": 23, "lat": 25.11356, "lng": 121.53718, "available_rent_prob_median": 0.97037037037037033, "category": "高" }, "geometry": { "type": "Point", "coordinates": [ 121.53718, 25.11356 ] } },
{ "type": "Feature", "properties": { "stop_id": "U104010", "stop_name": "忠誠路二段53巷", "capacity": 18, "lat": 25.11127, "lng": 121.53244, "available_rent_prob_median": 0.93333333333333335, "category": "高" }, "geometry": { "type": "Point", "coordinates": [ 121.53244, 25.11127 ] } },
{ "type": "Feature", "properties": { "stop_id": "U104012", "stop_name": "天母棒球場", "capacity": 26, "lat": 25.11341, "lng": 121.53195, "available_rent_prob_median": 0.9731481481481481, "category": "高" }, "geometry": { "type": "Point", "coordinates": [ 121.53195, 25.11341 ] } },
{ "type": "Feature", "properties": { "stop_id": "U104013", "stop_name": "天母北天玉街口", "capacity": 15, "lat": 25.12011, "lng": 121.52652, "available_rent_prob_median": 0.88611111111111107, "category": "中" }, "geometry": { "type": "Point", "coordinates": [ 121.52652, 25.12011 ] } },
{ "type": "Feature", "properties": { "stop_id": "U104014", "stop_name": "蘭興公園", "capacity": 48, "lat": 25.11184, "lng": 121.52589, "available_rent_prob_median": 0.97777777777777775, "category": "高" }, "geometry": { "type": "Point", "coordinates": [ 121.52589, 25.11184 ] } },
{ "type": "Feature", "properties": { "stop_id": "U104015", "stop_name": "明勝公園", "capacity": 14, "lat": 25.08009, "lng": 121.51895, "available_rent_prob_median": 0.8842592592592593, "category": "中" }, "geometry": { "type": "Point", "coordinates": [ 121.51895, 25.08009 ] } },
{ "type": "Feature", "properties": { "stop_id": "U104016", "stop_name": "劍潭海外青年活動中心", "capacity": 23, "lat": 25.07994, "lng": 121.52426, "available_rent_prob_median": 0.84074074074074079, "category": "中" }, "geometry": { "type": "Point", "coordinates": [ 121.52426, 25.07994 ] } },
{ "type": "Feature", "properties": { "stop_id": "U104018", "stop_name": "忠誠路一段173巷口", "capacity": 11, "lat": 25.10813, "lng": 121.5304, "available_rent_prob_median": 0.88703703703703707, "category": "中" }, "geometry": { "type": "Point", "coordinates": [ 121.5304, 25.10813 ] } },
{ "type": "Feature", "properties": { "stop_id": "U104019", "stop_name": "雨農國小", "capacity": 35, "lat": 25.10543, "lng": 121.529309, "available_rent_prob_median": 0.99907407407407411, "category": "高" }, "geometry": { "type": "Point", "coordinates": [ 121.529309, 25.10543 ] } },
{ "type": "Feature", "properties": { "stop_id": "U104020", "stop_name": "忠誠公園", "capacity": 14, "lat": 25.10399, "lng": 121.52593, "available_rent_prob_median": 0.89907407407407403, "category": "中" }, "geometry": { "type": "Point", "coordinates": [ 121.52593, 25.10399 ] } },
{ "type": "Feature", "properties": { "stop_id": "U104021", "stop_name": "芝山抽水站", "capacity": 21, "lat": 25.10155, "lng": 121.52832, "available_rent_prob_median": 0.93611111111111112, "category": "高" }, "geometry": { "type": "Point", "coordinates": [ 121.52832, 25.10155 ] } },
{ "type": "Feature", "properties": { "stop_id": "U104022", "stop_name": "至誠路一段305巷口", "capacity": 21, "lat": 25.10186, "lng": 121.53083, "available_rent_prob_median": 0.95462962962962961, "category": "高" }, "geometry": { "type": "Point", "coordinates": [ 121.53083, 25.10186 ] } },
{ "type": "Feature", "properties": { "stop_id": "U104023", "stop_name": "華齡公園", "capacity": 25, "lat": 25.08302, "lng": 121.52069, "available_rent_prob_median": 0.96018518518518514, "category": "高" }, "geometry": { "type": "Point", "coordinates": [ 121.52069, 25.08302 ] } },
{ "type": "Feature", "properties": { "stop_id": "U104024", "stop_name": "前港公園(福德宮)", "capacity": 18, "lat": 25.08671, "lng": 121.52096, "available_rent_prob_median": 0.91759259259259263, "category": "高" }, "geometry": { "type": "Point", "coordinates": [ 121.52096, 25.08671 ] } },
{ "type": "Feature", "properties": { "stop_id": "U104025", "stop_name": "華齡街185巷口", "capacity": 12, "lat": 25.08828, "lng": 121.51985, "available_rent_prob_median": 0.83888888888888891, "category": "中" }, "geometry": { "type": "Point", "coordinates": [ 121.51985, 25.08828 ] } },
{ "type": "Feature", "properties": { "stop_id": "U104026", "stop_name": "前港公園(前港街)", "capacity": 19, "lat": 25.0848, "lng": 121.52125, "available_rent_prob_median": 0.90648148148148144, "category": "高" }, "geometry": { "type": "Point", "coordinates": [ 121.52125, 25.0848 ] } },
{ "type": "Feature", "properties": { "stop_id": "U104027", "stop_name": "百齡高中", "capacity": 15, "lat": 25.08736, "lng": 121.52272, "available_rent_prob_median": 0.975, "category": "高" }, "geometry": { "type": "Point", "coordinates": [ 121.52272, 25.08736 ] } },
{ "type": "Feature", "properties": { "stop_id": "U104028", "stop_name": "捷運芝山站(2號出口)", "capacity": 21, "lat": 25.10364, "lng": 121.52219, "available_rent_prob_median": 0.92777777777777781, "category": "高" }, "geometry": { "type": "Point", "coordinates": [ 121.52219, 25.10364 ] } },
{ "type": "Feature", "properties": { "stop_id": "U104029", "stop_name": "臺灣戲曲中心", "capacity": 14, "lat": 25.10208, "lng": 121.51979, "available_rent_prob_median": 0.98333333333333328, "category": "高" }, "geometry": { "type": "Point", "coordinates": [ 121.51979, 25.10208 ] } },
{ "type": "Feature", "properties": { "stop_id": "U104030", "stop_name": "捷運劍潭站(2號出口)", "capacity": 79, "lat": 25.08288, "lng": 121.52455, "available_rent_prob_median": 0.9194444444444444, "category": "高" }, "geometry": { "type": "Point", "coordinates": [ 121.52455, 25.08288 ] } },
{ "type": "Feature", "properties": { "stop_id": "U104031", "stop_name": "劍潭基河路口", "capacity": 20, "lat": 25.08403, "lng": 121.5249, "available_rent_prob_median": 0.90833333333333333, "category": "高" }, "geometry": { "type": "Point", "coordinates": [ 121.5249, 25.08403 ] } },
{ "type": "Feature", "properties": { "stop_id": "U104032", "stop_name": "志成公園", "capacity": 23, "lat": 25.09667, "lng": 121.53206, "available_rent_prob_median": 0.99351851851851847, "category": "高" }, "geometry": { "type": "Point", "coordinates": [ 121.53206, 25.09667 ] } },
{ "type": "Feature", "properties": { "stop_id": "U104033", "stop_name": "福林國小", "capacity": 14, "lat": 25.09896, "lng": 121.53025, "available_rent_prob_median": 0.90092592592592591, "category": "高" }, "geometry": { "type": "Point", "coordinates": [ 121.53025, 25.09896 ] } },
{ "type": "Feature", "properties": { "stop_id": "U104034", "stop_name": "中山中正路口", "capacity": 19, "lat": 25.09651, "lng": 121.52753, "available_rent_prob_median": 1.0, "category": "高" }, "geometry": { "type": "Point", "coordinates": [ 121.52753, 25.09651 ] } },
{ "type": "Feature", "properties": { "stop_id": "U104035", "stop_name": "士林運動中心", "capacity": 30, "lat": 25.08911, "lng": 121.52154, "available_rent_prob_median": 0.97962962962962963, "category": "高" }, "geometry": { "type": "Point", "coordinates": [ 121.52154, 25.08911 ] } },
{ "type": "Feature", "properties": { "stop_id": "U104036", "stop_name": "陽明高中", "capacity": 36, "lat": 25.09164, "lng": 121.51706, "available_rent_prob_median": 0.99537037037037035, "category": "高" }, "geometry": { "type": "Point", "coordinates": [ 121.51706, 25.09164 ] } },
{ "type": "Feature", "properties": { "stop_id": "U104037", "stop_name": "兒童新樂園", "capacity": 23, "lat": 25.09631, "lng": 121.51449, "available_rent_prob_median": 0.92314814814814816, "category": "高" }, "geometry": { "type": "Point", "coordinates": [ 121.51449, 25.09631 ] } },
{ "type": "Feature", "properties": { "stop_id": "U104038", "stop_name": "臺北市立天文館", "capacity": 31, "lat": 25.09598, "lng": 121.51776, "available_rent_prob_median": 0.9916666666666667, "category": "高" }, "geometry": { "type": "Point", "coordinates": [ 121.51776, 25.09598 ] } },
{ "type": "Feature", "properties": { "stop_id": "U104039", "stop_name": "華聲公園", "capacity": 27, "lat": 25.09619, "lng": 121.5223, "available_rent_prob_median": 0.00092592592592588563, "category": "低" }, "geometry": { "type": "Point", "coordinates": [ 121.5223, 25.09619 ] } },
{ "type": "Feature", "properties": { "stop_id": "U104040", "stop_name": "福林公園", "capacity": 17, "lat": 25.09419, "lng": 121.52833, "available_rent_prob_median": 0.9287037037037037, "category": "高" }, "geometry": { "type": "Point", "coordinates": [ 121.52833, 25.09419 ] } },
{ "type": "Feature", "properties": { "stop_id": "U104041", "stop_name": "捷運士林站(2號出口)", "capacity": 30, "lat": 25.09343, "lng": 121.52642, "available_rent_prob_median": 0.91018518518518521, "category": "高" }, "geometry": { "type": "Point", "coordinates": [ 121.52642, 25.09343 ] } },
{ "type": "Feature", "properties": { "stop_id": "U104042", "stop_name": "銘傳大學", "capacity": 30, "lat": 25.08771, "lng": 121.52677, "available_rent_prob_median": 0.00092592592592588563, "category": "低" }, "geometry": { "type": "Point", "coordinates": [ 121.52677, 25.08771 ] } },
{ "type": "Feature", "properties": { "stop_id": "U104043", "stop_name": "士林高商", "capacity": 26, "lat": 25.09435, "lng": 121.51702, "available_rent_prob_median": 0.98703703703703705, "category": "高" }, "geometry": { "type": "Point", "coordinates": [ 121.51702, 25.09435 ] } },
{ "type": "Feature", "properties": { "stop_id": "U104044", "stop_name": "蘭雅公園", "capacity": 32, "lat": 25.10991, "lng": 121.53039, "available_rent_prob_median": 0.98703703703703705, "category": "高" }, "geometry": { "type": "Point", "coordinates": [ 121.53039, 25.10991 ] } },
{ "type": "Feature", "properties": { "stop_id": "U104045", "stop_name": "聯合醫院陽明院區", "capacity": 15, "lat": 25.10455, "lng": 121.53195, "available_rent_prob_median": 0.97870370370370374, "category": "高" }, "geometry": { "type": "Point", "coordinates": [ 121.53195, 25.10455 ] } },
{ "type": "Feature", "properties": { "stop_id": "U104046", "stop_name": "捷運芝山站(1號出口)", "capacity": 36, "lat": 25.10225, "lng": 121.52286, "available_rent_prob_median": 0.87222222222222223, "category": "中" }, "geometry": { "type": "Point", "coordinates": [ 121.52286, 25.10225 ] } },
{ "type": "Feature", "properties": { "stop_id": "U104047", "stop_name": "至誠公園", "capacity": 15, "lat": 25.10143, "lng": 121.53585, "available_rent_prob_median": 1.0, "category": "高" }, "geometry": { "type": "Point", "coordinates": [ 121.53585, 25.10143 ] } },
{ "type": "Feature", "properties": { "stop_id": "U104048", "stop_name": "原住民文化主題公園", "capacity": 21, "lat": 25.10113, "lng": 121.55159, "available_rent_prob_median": 1.0, "category": "高" }, "geometry": { "type": "Point", "coordinates": [ 121.55159, 25.10113 ] } },
{ "type": "Feature", "properties": { "stop_id": "U104049", "stop_name": "通河東街2段10巷口", "capacity": 15, "lat": 25.09106, "lng": 121.51502, "available_rent_prob_median": 1.0, "category": "高" }, "geometry": { "type": "Point", "coordinates": [ 121.51502, 25.09106 ] } },
{ "type": "Feature", "properties": { "stop_id": "U104050", "stop_name": "梅林新村", "capacity": 15, "lat": 25.09755, "lng": 121.54036, "available_rent_prob_median": 1.0, "category": "高" }, "geometry": { "type": "Point", "coordinates": [ 121.54036, 25.09755 ] } },
{ "type": "Feature", "properties": { "stop_id": "U104051", "stop_name": "延平北中正路口", "capacity": 30, "lat": 25.08678, "lng": 121.50948, "available_rent_prob_median": 1.0, "category": "高" }, "geometry": { "type": "Point", "coordinates": [ 121.50948, 25.08678 ] } },
{ "type": "Feature", "properties": { "stop_id": "U104052", "stop_name": "重慶北路四段190巷口", "capacity": 13, "lat": 25.08505, "lng": 121.51166, "available_rent_prob_median": 1.0, "category": "高" }, "geometry": { "type": "Point", "coordinates": [ 121.51166, 25.08505 ] } },
{ "type": "Feature", "properties": { "stop_id": "U104053", "stop_name": "重慶北葫東街口", "capacity": 15, "lat": 25.08393, "lng": 121.51169, "available_rent_prob_median": 0.98703703703703705, "category": "高" }, "geometry": { "type": "Point", "coordinates": [ 121.51169, 25.08393 ] } },
{ "type": "Feature", "properties": { "stop_id": "U104054", "stop_name": "葫蘆國小", "capacity": 20, "lat": 25.08254, "lng": 121.5075, "available_rent_prob_median": 1.0, "category": "高" }, "geometry": { "type": "Point", "coordinates": [ 121.5075, 25.08254 ] } },
{ "type": "Feature", "properties": { "stop_id": "U104055", "stop_name": "士林3號廣場", "capacity": 30, "lat": 25.10459, "lng": 121.52417, "available_rent_prob_median": 0.87962962962962965, "category": "中" }, "geometry": { "type": "Point", "coordinates": [ 121.52417, 25.10459 ] } },
{ "type": "Feature", "properties": { "stop_id": "U104056", "stop_name": "社正公園", "capacity": 15, "lat": 25.08824, "lng": 121.51054, "available_rent_prob_median": 0.97962962962962963, "category": "高" }, "geometry": { "type": "Point", "coordinates": [ 121.51054, 25.08824 ] } },
{ "type": "Feature", "properties": { "stop_id": "U104057", "stop_name": "社子國小", "capacity": 15, "lat": 25.09058, "lng": 121.50142, "available_rent_prob_median": 1.0, "category": "高" }, "geometry": { "type": "Point", "coordinates": [ 121.50142, 25.09058 ] } },
{ "type": "Feature", "properties": { "stop_id": "U104058", "stop_name": "社中街384巷口", "capacity": 18, "lat": 25.09346, "lng": 121.50376, "available_rent_prob_median": 1.0, "category": "高" }, "geometry": { "type": "Point", "coordinates": [ 121.50376, 25.09346 ] } },
{ "type": "Feature", "properties": { "stop_id": "U104059", "stop_name": "忠誠路一段138號", "capacity": 15, "lat": 25.10641, "lng": 121.52944, "available_rent_prob_median": 0.95, "category": "高" }, "geometry": { "type": "Point", "coordinates": [ 121.52944, 25.10641 ] } },
{ "type": "Feature", "properties": { "stop_id": "U104060", "stop_name": "社子公園", "capacity": 14, "lat": 25.0902, "lng": 121.50622, "available_rent_prob_median": 0.97222222222222221, "category": "高" }, "geometry": { "type": "Point", "coordinates": [ 121.50622, 25.0902 ] } },
{ "type": "Feature", "properties": { "stop_id": "U104061", "stop_name": "國立故宮博物院", "capacity": 17, "lat": 25.09833, "lng": 121.54788, "available_rent_prob_median": 1.0, "category": "高" }, "geometry": { "type": "Point", "coordinates": [ 121.54788, 25.09833 ] } },
{ "type": "Feature", "properties": { "stop_id": "U104062", "stop_name": "泰北高中", "capacity": 16, "lat": 25.09763, "lng": 121.53402, "available_rent_prob_median": 1.0, "category": "高" }, "geometry": { "type": "Point", "coordinates": [ 121.53402, 25.09763 ] } },
{ "type": "Feature", "properties": { "stop_id": "U104063", "stop_name": "後港公園", "capacity": 15, "lat": 25.09312, "lng": 121.51419, "available_rent_prob_median": 1.0, "category": "高" }, "geometry": { "type": "Point", "coordinates": [ 121.51419, 25.09312 ] } },
{ "type": "Feature", "properties": { "stop_id": "U104064", "stop_name": "重慶北路四段117號", "capacity": 18, "lat": 25.08279, "lng": 121.51219, "available_rent_prob_median": 1.0, "category": "高" }, "geometry": { "type": "Point", "coordinates": [ 121.51219, 25.08279 ] } },
{ "type": "Feature", "properties": { "stop_id": "U104065", "stop_name": "社子島島頭公園", "capacity": 15, "lat": 25.10893, "lng": 121.46639, "available_rent_prob_median": 0.97962962962962963, "category": "高" }, "geometry": { "type": "Point", "coordinates": [ 121.46639, 25.10893 ] } },
{ "type": "Feature", "properties": { "stop_id": "U104066", "stop_name": "延平北路八段133巷口", "capacity": 15, "lat": 25.10304, "lng": 121.48297, "available_rent_prob_median": 1.0, "category": "高" }, "geometry": { "type": "Point", "coordinates": [ 121.48297, 25.10304 ] } },
{ "type": "Feature", "properties": { "stop_id": "U104067", "stop_name": "坤天亭", "capacity": 14, "lat": 25.1064, "lng": 121.4836, "available_rent_prob_median": 1.0, "category": "高" }, "geometry": { "type": "Point", "coordinates": [ 121.4836, 25.1064 ] } },
{ "type": "Feature", "properties": { "stop_id": "U104068", "stop_name": "社子島濕地解說小築", "capacity": 15, "lat": 25.11314, "lng": 121.48974, "available_rent_prob_median": 1.0, "category": "高" }, "geometry": { "type": "Point", "coordinates": [ 121.48974, 25.11314 ] } },
{ "type": "Feature", "properties": { "stop_id": "U104069", "stop_name": "福安國中", "capacity": 11, "lat": 25.10261, "lng": 121.48819, "available_rent_prob_median": 1.0, "category": "高" }, "geometry": { "type": "Point", "coordinates": [ 121.48819, 25.10261 ] } },
{ "type": "Feature", "properties": { "stop_id": "U104070", "stop_name": "福安消防分隊", "capacity": 15, "lat": 25.09669, "lng": 121.49706, "available_rent_prob_median": 1.0, "category": "高" }, "geometry": { "type": "Point", "coordinates": [ 121.49706, 25.09669 ] } },
{ "type": "Feature", "properties": { "stop_id": "U104071", "stop_name": "聖山綠地", "capacity": 15, "lat": 25.10696, "lng": 121.53234, "available_rent_prob_median": 0.91388888888888886, "category": "高" }, "geometry": { "type": "Point", "coordinates": [ 121.53234, 25.10696 ] } },
{ "type": "Feature", "properties": { "stop_id": "U104072", "stop_name": "芝山國小", "capacity": 30, "lat": 25.11044, "lng": 121.53595, "available_rent_prob_median": 0.99814814814814812, "category": "高" }, "geometry": { "type": "Point", "coordinates": [ 121.53595, 25.11044 ] } },
{ "type": "Feature", "properties": { "stop_id": "U104073", "stop_name": "士林新天地", "capacity": 29, "lat": 25.08899, "lng": 121.51751, "available_rent_prob_median": 0.975, "category": "高" }, "geometry": { "type": "Point", "coordinates": [ 121.51751, 25.08899 ] } },
{ "type": "Feature", "properties": { "stop_id": "U104074", "stop_name": "蘭雅國小", "capacity": 27, "lat": 25.10775, "lng": 121.52312, "available_rent_prob_median": 0.93425925925925923, "category": "高" }, "geometry": { "type": "Point", "coordinates": [ 121.52312, 25.10775 ] } },
{ "type": "Feature", "properties": { "stop_id": "U104075", "stop_name": "中正基河路口", "capacity": 28, "lat": 25.0933, "lng": 121.51962, "available_rent_prob_median": 0.96574074074074079, "category": "高" }, "geometry": { "type": "Point", "coordinates": [ 121.51962, 25.0933 ] } },
{ "type": "Feature", "properties": { "stop_id": "U104076", "stop_name": "福林公園(中正路)", "capacity": 27, "lat": 25.09609, "lng": 121.53006, "available_rent_prob_median": 1.0, "category": "高" }, "geometry": { "type": "Point", "coordinates": [ 121.53006, 25.09609 ] } },
{ "type": "Feature", "properties": { "stop_id": "U104077", "stop_name": "至善臨溪路口", "capacity": 22, "lat": 25.09709, "lng": 121.54229, "available_rent_prob_median": 0.97870370370370374, "category": "高" }, "geometry": { "type": "Point", "coordinates": [ 121.54229, 25.09709 ] } },
{ "type": "Feature", "properties": { "stop_id": "U104078", "stop_name": "市立圖書館葫蘆堵分館", "capacity": 13, "lat": 25.08217, "lng": 121.51074, "available_rent_prob_median": 0.96851851851851856, "category": "高" }, "geometry": { "type": "Point", "coordinates": [ 121.51074, 25.08217 ] } },
{ "type": "Feature", "properties": { "stop_id": "U104079", "stop_name": "東山路110巷口", "capacity": 16, "lat": 25.11306, "lng": 121.53945, "available_rent_prob_median": 1.0, "category": "高" }, "geometry": { "type": "Point", "coordinates": [ 121.53945, 25.11306 ] } },
{ "type": "Feature", "properties": { "stop_id": "U104080", "stop_name": "永平社會住宅", "capacity": 15, "lat": 25.08887, "lng": 121.50314, "available_rent_prob_median": 1.0, "category": "高" }, "geometry": { "type": "Point", "coordinates": [ 121.50314, 25.08887 ] } },
{ "type": "Feature", "properties": { "stop_id": "U104081", "stop_name": "雨農橋", "capacity": 16, "lat": 25.10012, "lng": 121.53253, "available_rent_prob_median": 0.9462962962962963, "category": "高" }, "geometry": { "type": "Point", "coordinates": [ 121.53253, 25.10012 ] } },
{ "type": "Feature", "properties": { "stop_id": "U104082", "stop_name": "通河街76巷/承德路四段10巷口", "capacity": 14, "lat": 25.08019, "lng": 121.5202, "available_rent_prob_median": 0.87870370370370376, "category": "中" }, "geometry": { "type": "Point", "coordinates": [ 121.5202, 25.08019 ] } },
{ "type": "Feature", "properties": { "stop_id": "U104083", "stop_name": "芝山聖佑宮", "capacity": 15, "lat": 25.10455, "lng": 121.53025, "available_rent_prob_median": 1.0, "category": "高" }, "geometry": { "type": "Point", "coordinates": [ 121.53025, 25.10455 ] } },
{ "type": "Feature", "properties": { "stop_id": "U104084", "stop_name": "至誠雨聲街口", "capacity": 9, "lat": 25.10199, "lng": 121.52927, "available_rent_prob_median": 0.80740740740740735, "category": "中" }, "geometry": { "type": "Point", "coordinates": [ 121.52927, 25.10199 ] } },
{ "type": "Feature", "properties": { "stop_id": "U104085", "stop_name": "捷運線型公園(後街)", "capacity": 13, "lat": 25.09812, "lng": 121.52449, "available_rent_prob_median": 0.90092592592592591, "category": "高" }, "geometry": { "type": "Point", "coordinates": [ 121.52449, 25.09812 ] } },
{ "type": "Feature", "properties": { "stop_id": "U104086", "stop_name": "天母公園", "capacity": 12, "lat": 25.12408, "lng": 121.53003, "available_rent_prob_median": 0.93518518518518523, "category": "高" }, "geometry": { "type": "Point", "coordinates": [ 121.53003, 25.12408 ] } },
{ "type": "Feature", "properties": { "stop_id": "U104087", "stop_name": "基河文林路口", "capacity": 16, "lat": 25.08637, "lng": 121.5247, "available_rent_prob_median": 0.97407407407407409, "category": "高" }, "geometry": { "type": "Point", "coordinates": [ 121.5247, 25.08637 ] } },
{ "type": "Feature", "properties": { "stop_id": "U104088", "stop_name": "文林福華路口", "capacity": 19, "lat": 25.10094, "lng": 121.52243, "available_rent_prob_median": 0.96388888888888891, "category": "高" }, "geometry": { "type": "Point", "coordinates": [ 121.52243, 25.10094 ] } },
{ "type": "Feature", "properties": { "stop_id": "U104089", "stop_name": "劍潭海外青年活動中心", "capacity": 24, "lat": 25.0796, "lng": 121.5237, "available_rent_prob_median": 0.96944444444444444, "category": "高" }, "geometry": { "type": "Point", "coordinates": [ 121.5237, 25.0796 ] } },
{ "type": "Feature", "properties": { "stop_id": "U104090", "stop_name": "社子國小", "capacity": 20, "lat": 25.09029, "lng": 121.50189, "available_rent_prob_median": 1.0, "category": "高" }, "geometry": { "type": "Point", "coordinates": [ 121.50189, 25.09029 ] } },
{ "type": "Feature", "properties": { "stop_id": "U104091", "stop_name": "捷運劍潭站(1號出口)", "capacity": 70, "lat": 25.08577, "lng": 121.52531, "available_rent_prob_median": 0.97685185185185186, "category": "高" }, "geometry": { "type": "Point", "coordinates": [ 121.52531, 25.08577 ] } },
{ "type": "Feature", "properties": { "stop_id": "U104092", "stop_name": "德行東山路口", "capacity": 12, "lat": 25.1107, "lng": 121.53999, "available_rent_prob_median": 0.97037037037037033, "category": "高" }, "geometry": { "type": "Point", "coordinates": [ 121.53999, 25.1107 ] } },
{ "type": "Feature", "properties": { "stop_id": "U104094", "stop_name": "重慶北通河西街口", "capacity": 12, "lat": 25.08756, "lng": 121.51177, "available_rent_prob_median": 0.96203703703703702, "category": "高" }, "geometry": { "type": "Point", "coordinates": [ 121.51177, 25.08756 ] } },
{ "type": "Feature", "properties": { "stop_id": "U104095", "stop_name": "葫蘆國小(延平北路五段285巷)", "capacity": 15, "lat": 25.08406, "lng": 121.5067, "available_rent_prob_median": 0.98796296296296293, "category": "高" }, "geometry": { "type": "Point", "coordinates": [ 121.5067, 25.08406 ] } },
{ "type": "Feature", "properties": { "stop_id": "U104096", "stop_name": "社子市場", "capacity": 15, "lat": 25.0881, "lng": 121.50873, "available_rent_prob_median": 0.97870370370370374, "category": "高" }, "geometry": { "type": "Point", "coordinates": [ 121.50873, 25.0881 ] } },
{ "type": "Feature", "properties": { "stop_id": "U104097", "stop_name": "士林區農會社子分部", "capacity": 8, "lat": 25.08912, "lng": 121.5049, "available_rent_prob_median": 0.90833333333333333, "category": "高" }, "geometry": { "type": "Point", "coordinates": [ 121.5049, 25.08912 ] } },
{ "type": "Feature", "properties": { "stop_id": "U104098", "stop_name": "承德劍潭路口", "capacity": 19, "lat": 25.0841, "lng": 121.52341, "available_rent_prob_median": 0.9287037037037037, "category": "高" }, "geometry": { "type": "Point", "coordinates": [ 121.52341, 25.0841 ] } },
{ "type": "Feature", "properties": { "stop_id": "U104099", "stop_name": "文林路101巷口", "capacity": 17, "lat": 25.08761, "lng": 121.52608, "available_rent_prob_median": 1.0, "category": "高" }, "geometry": { "type": "Point", "coordinates": [ 121.52608, 25.08761 ] } },
{ "type": "Feature", "properties": { "stop_id": "U104100", "stop_name": "延平北路五段257巷15弄口", "capacity": 13, "lat": 25.08408, "lng": 121.50959, "available_rent_prob_median": 0.937962962962963, "category": "高" }, "geometry": { "type": "Point", "coordinates": [ 121.50959, 25.08408 ] } },
{ "type": "Feature", "properties": { "stop_id": "U104101", "stop_name": "延平北路五段257巷4弄口", "capacity": 15, "lat": 25.08471, "lng": 121.5089, "available_rent_prob_median": 0.96759259259259256, "category": "高" }, "geometry": { "type": "Point", "coordinates": [ 121.5089, 25.08471 ] } },
{ "type": "Feature", "properties": { "stop_id": "U104102", "stop_name": "啟明學校", "capacity": 16, "lat": 25.11742, "lng": 121.53472, "available_rent_prob_median": 0.90277777777777779, "category": "高" }, "geometry": { "type": "Point", "coordinates": [ 121.53472, 25.11742 ] } },
{ "type": "Feature", "properties": { "stop_id": "U104103", "stop_name": "中山福國路口", "capacity": 14, "lat": 25.10203, "lng": 121.52561, "available_rent_prob_median": 0.86759259259259258, "category": "中" }, "geometry": { "type": "Point", "coordinates": [ 121.52561, 25.10203 ] } },
{ "type": "Feature", "properties": { "stop_id": "U104104", "stop_name": "德行公園", "capacity": 14, "lat": 25.10585, "lng": 121.52376, "available_rent_prob_median": 0.87870370370370376, "category": "中" }, "geometry": { "type": "Point", "coordinates": [ 121.52376, 25.10585 ] } },
{ "type": "Feature", "properties": { "stop_id": "U104105", "stop_name": "承德後港街口", "capacity": 11, "lat": 25.08238, "lng": 121.52309, "available_rent_prob_median": 0.8925925925925926, "category": "中" }, "geometry": { "type": "Point", "coordinates": [ 121.52309, 25.08238 ] } },
{ "type": "Feature", "properties": { "stop_id": "U104106", "stop_name": "中山北路五段698巷口", "capacity": 15, "lat": 25.09765, "lng": 121.52757, "available_rent_prob_median": 0.97685185185185186, "category": "高" }, "geometry": { "type": "Point", "coordinates": [ 121.52757, 25.09765 ] } },
{ "type": "Feature", "properties": { "stop_id": "U104107", "stop_name": "捷運士林站(1號出口)", "capacity": 38, "lat": 25.09561, "lng": 121.52552, "available_rent_prob_median": 0.93981481481481477, "category": "高" }, "geometry": { "type": "Point", "coordinates": [ 121.52552, 25.09561 ] } },
{ "type": "Feature", "properties": { "stop_id": "U104108", "stop_name": "捷運芝山站(2號出口)", "capacity": 62, "lat": 25.10336, "lng": 121.52263, "available_rent_prob_median": 0.89907407407407403, "category": "中" }, "geometry": { "type": "Point", "coordinates": [ 121.52263, 25.10336 ] } },
{ "type": "Feature", "properties": { "stop_id": "U104109", "stop_name": "銘傳大學(中山北路五段280巷口)", "capacity": 23, "lat": 25.08762, "lng": 121.52711, "available_rent_prob_median": 1.0, "category": "高" }, "geometry": { "type": "Point", "coordinates": [ 121.52711, 25.08762 ] } },
{ "type": "Feature", "properties": { "stop_id": "U104110", "stop_name": "海光公園南側", "capacity": 12, "lat": 25.08036, "lng": 121.5084, "available_rent_prob_median": 0.96388888888888891, "category": "高" }, "geometry": { "type": "Point", "coordinates": [ 121.5084, 25.08036 ] } },
{ "type": "Feature", "properties": { "stop_id": "U104111", "stop_name": "士商路40巷口", "capacity": 15, "lat": 25.09013, "lng": 121.52054, "available_rent_prob_median": 0.94166666666666665, "category": "高" }, "geometry": { "type": "Point", "coordinates": [ 121.52054, 25.09013 ] } },
{ "type": "Feature", "properties": { "stop_id": "U104112", "stop_name": "劍潭郵局", "capacity": 16, "lat": 25.08182, "lng": 121.52431, "available_rent_prob_median": 0.91018518518518521, "category": "高" }, "geometry": { "type": "Point", "coordinates": [ 121.52431, 25.08182 ] } },
{ "type": "Feature", "properties": { "stop_id": "U104113", "stop_name": "士東路91巷口", "capacity": 16, "lat": 25.11247, "lng": 121.52914, "available_rent_prob_median": 0.92777777777777781, "category": "高" }, "geometry": { "type": "Point", "coordinates": [ 121.52914, 25.11247 ] } },
{ "type": "Feature", "properties": { "stop_id": "U104114", "stop_name": "美崙公園", "capacity": 13, "lat": 25.09677, "lng": 121.51931, "available_rent_prob_median": 0.95833333333333337, "category": "高" }, "geometry": { "type": "Point", "coordinates": [ 121.51931, 25.09677 ] } },
{ "type": "Feature", "properties": { "stop_id": "U104115", "stop_name": "臺北市立大學(忠誠路二段207巷)", "capacity": 17, "lat": 25.11642, "lng": 121.53743, "available_rent_prob_median": 0.98981481481481481, "category": "高" }, "geometry": { "type": "Point", "coordinates": [ 121.53743, 25.11642 ] } },
{ "type": "Feature", "properties": { "stop_id": "U104116", "stop_name": "天母東路8巷/忠誠路二段154巷口", "capacity": 14, "lat": 25.11579, "lng": 121.53113, "available_rent_prob_median": 0.9731481481481481, "category": "高" }, "geometry": { "type": "Point", "coordinates": [ 121.53113, 25.11579 ] } },
{ "type": "Feature", "properties": { "stop_id": "U104117", "stop_name": "美崙公園(東北側)", "capacity": 15, "lat": 25.09886, "lng": 121.51835, "available_rent_prob_median": 1.0, "category": "高" }, "geometry": { "type": "Point", "coordinates": [ 121.51835, 25.09886 ] } },
{ "type": "Feature", "properties": { "stop_id": "U104118", "stop_name": "福安河濱公園", "capacity": 14, "lat": 25.09646, "lng": 121.49358, "available_rent_prob_median": 1.0, "category": "高" }, "geometry": { "type": "Point", "coordinates": [ 121.49358, 25.09646 ] } },
{ "type": "Feature", "properties": { "stop_id": "U105001", "stop_name": "台北花木批發市場", "capacity": 32, "lat": 25.00402, "lng": 121.54074, "available_rent_prob_median": 1.0, "category": "高" }, "geometry": { "type": "Point", "coordinates": [ 121.54074, 25.00402 ] } },
{ "type": "Feature", "properties": { "stop_id": "U105002", "stop_name": "捷運萬隆站(4號出口)", "capacity": 21, "lat": 25.0027, "lng": 121.53861, "available_rent_prob_median": 0.90740740740740744, "category": "高" }, "geometry": { "type": "Point", "coordinates": [ 121.53861, 25.0027 ] } },
{ "type": "Feature", "properties": { "stop_id": "U105003", "stop_name": "捷運萬隆站(1號出口)", "capacity": 34, "lat": 25.00115, "lng": 121.53916, "available_rent_prob_median": 0.95092592592592595, "category": "高" }, "geometry": { "type": "Point", "coordinates": [ 121.53916, 25.00115 ] } },
{ "type": "Feature", "properties": { "stop_id": "U105004", "stop_name": "萬和二號公園", "capacity": 26, "lat": 25.00154, "lng": 121.5364, "available_rent_prob_median": 1.0, "category": "高" }, "geometry": { "type": "Point", "coordinates": [ 121.5364, 25.00154 ] } },
{ "type": "Feature", "properties": { "stop_id": "U105005", "stop_name": "捷運萬隆站(2號出口)", "capacity": 12, "lat": 25.00144, "lng": 121.53983, "available_rent_prob_median": 0.81481481481481488, "category": "中" }, "geometry": { "type": "Point", "coordinates": [ 121.53983, 25.00144 ] } },
{ "type": "Feature", "properties": { "stop_id": "U105006", "stop_name": "景仁公園", "capacity": 16, "lat": 24.99621, "lng": 121.54043, "available_rent_prob_median": 0.94351851851851853, "category": "高" }, "geometry": { "type": "Point", "coordinates": [ 121.54043, 24.99621 ] } },
{ "type": "Feature", "properties": { "stop_id": "U105007", "stop_name": "捷運景美站(2號出口)", "capacity": 63, "lat": 24.99366, "lng": 121.54124, "available_rent_prob_median": 0.98425925925925928, "category": "高" }, "geometry": { "type": "Point", "coordinates": [ 121.54124, 24.99366 ] } },
{ "type": "Feature", "properties": { "stop_id": "U105008", "stop_name": "羅斯福景隆街口", "capacity": 20, "lat": 24.99898, "lng": 121.5403, "available_rent_prob_median": 0.937962962962963, "category": "高" }, "geometry": { "type": "Point", "coordinates": [ 121.5403, 24.99898 ] } },
{ "type": "Feature", "properties": { "stop_id": "U105009", "stop_name": "景福街/羅斯福路6段142巷口", "capacity": 28, "lat": 24.99812, "lng": 121.53663, "available_rent_prob_median": 1.0, "category": "高" }, "geometry": { "type": "Point", "coordinates": [ 121.53663, 24.99812 ] } },
{ "type": "Feature", "properties": { "stop_id": "U105010", "stop_name": "興旺公園", "capacity": 30, "lat": 25.00587, "lng": 121.55012, "available_rent_prob_median": 0.98981481481481481, "category": "高" }, "geometry": { "type": "Point", "coordinates": [ 121.55012, 25.00587 ] } },
{ "type": "Feature", "properties": { "stop_id": "U105011", "stop_name": "興福國中", "capacity": 25, "lat": 25.00465, "lng": 121.54916, "available_rent_prob_median": 0.91018518518518521, "category": "高" }, "geometry": { "type": "Point", "coordinates": [ 121.54916, 25.00465 ] } },
{ "type": "Feature", "properties": { "stop_id": "U105012", "stop_name": "興隆路2段203巷", "capacity": 32, "lat": 25.00346, "lng": 121.54709, "available_rent_prob_median": 1.0, "category": "高" }, "geometry": { "type": "Point", "coordinates": [ 121.54709, 25.00346 ] } },
{ "type": "Feature", "properties": { "stop_id": "U105013", "stop_name": "景美運動公園", "capacity": 11, "lat": 25.00219, "lng": 121.54454, "available_rent_prob_median": 0.8574074074074074, "category": "中" }, "geometry": { "type": "Point", "coordinates": [ 121.54454, 25.00219 ] } },
{ "type": "Feature", "properties": { "stop_id": "U105014", "stop_name": "景美醫院", "capacity": 18, "lat": 24.99136, "lng": 121.54008, "available_rent_prob_median": 0.9731481481481481, "category": "高" }, "geometry": { "type": "Point", "coordinates": [ 121.54008, 24.99136 ] } },
{ "type": "Feature", "properties": { "stop_id": "U105015", "stop_name": "師範大學公館校區", "capacity": 14, "lat": 25.00792, "lng": 121.53731, "available_rent_prob_median": 0.86111111111111116, "category": "中" }, "geometry": { "type": "Point", "coordinates": [ 121.53731, 25.00792 ] } },
{ "type": "Feature", "properties": { "stop_id": "U105016", "stop_name": "景華街128巷口", "capacity": 20, "lat": 24.99543, "lng": 121.54725, "available_rent_prob_median": 0.88518518518518519, "category": "中" }, "geometry": { "type": "Point", "coordinates": [ 121.54725, 24.99543 ] } },
{ "type": "Feature", "properties": { "stop_id": "U105017", "stop_name": "仙跡岩登山口(景興路)", "capacity": 22, "lat": 24.99118, "lng": 121.5436, "available_rent_prob_median": 0.9824074074074074, "category": "高" }, "geometry": { "type": "Point", "coordinates": [ 121.5436, 24.99118 ] } },
{ "type": "Feature", "properties": { "stop_id": "U105018", "stop_name": "國立政治大學", "capacity": 35, "lat": 24.98737, "lng": 121.57726, "available_rent_prob_median": 1.0, "category": "高" }, "geometry": { "type": "Point", "coordinates": [ 121.57726, 24.98737 ] } },
{ "type": "Feature", "properties": { "stop_id": "U105019", "stop_name": "捷運動物園站", "capacity": 18, "lat": 24.99873, "lng": 121.57985, "available_rent_prob_median": 0.79722222222222228, "category": "中" }, "geometry": { "type": "Point", "coordinates": [ 121.57985, 24.99873 ] } },