{
	"type": "FeatureCollection",
	"crs": {
		"type": "name",
		"properties": { "name": "urn:ogc:def:crs:OGC:1.3:CRS84" }
	},
	"features": [
		{
			"type": "Feature",
			"properties": {
				"行政區": "松山區",
				"醫療機構": "三軍總醫院松山分院附設民眾診療服務處",
				"婚後孕前健康檢查": "V",
				"初期孕婦唐氏症篩檢": "V",
				"中期孕婦唐氏症篩檢": "V",
				"地址": "台北市松山區健康路131號",
				"category": 6
			},
			"geometry": {
				"type": "Point",
				"coordinates": [121.557700038681617, 25.053940007953884]
			}
		},
		{
			"type": "Feature",
			"properties": {
				"行政區": "松山區",
				"醫療機構": "美人魚時尚婦產科診所",
				"婚後孕前健康檢查": "V",
				"初期孕婦唐氏症篩檢": null,
				"中期孕婦唐氏症篩檢": "V",
				"地址": "台北市松山區南京東路三段331號9樓",
				"category": 4
			},
			"geometry": {
				"type": "Point",
				"coordinates": [121.547289966394771, 25.051979983715327]
			}
		},
		{
			"type": "Feature",
			"properties": {
				"行政區": "松山區",
				"醫療機構": "高國隆婦產科診所",
				"婚後孕前健康檢查": "V",
				"初期孕婦唐氏症篩檢": "V",
				"中期孕婦唐氏症篩檢": "V",
				"地址": "台北市松山區八德路四段257號2樓",
				"category": 6
			},
			"geometry": {
				"type": "Point",
				"coordinates": [121.565150041862012, 25.04903998926703]
			}
		},
		{
			"type": "Feature",
			"properties": {
				"行政區": "松山區",
				"醫療機構": "博仁綜合醫院",
				"婚後孕前健康檢查": "V",
				"初期孕婦唐氏症篩檢": "V",
				"中期孕婦唐氏症篩檢": "V",
				"地址": "台北市松山區光復北路66號",
				"category": 6
			},
			"geometry": {
				"type": "Point",
				"coordinates": [121.557689980397811, 25.049900014442343]
			}
		},
		{
			"type": "Feature",
			"properties": {
				"行政區": "松山區",
				"醫療機構": "長庚醫療財團法人臺北長庚紀念醫院",
				"婚後孕前健康檢查": "V",
				"初期孕婦唐氏症篩檢": "V",
				"中期孕婦唐氏症篩檢": "V",
				"地址": "台北市松山區敦化北路199號",
				"category": 6
			},
			"geometry": {
				"type": "Point",
				"coordinates": [121.549619967839476, 25.055500005863379]
			}
		},
		{
			"type": "Feature",
			"properties": {
				"行政區": "松山區",
				"醫療機構": "基督復臨安息日會醫療財團法人臺安醫院",
				"婚後孕前健康檢查": null,
				"初期孕婦唐氏症篩檢": "V",
				"中期孕婦唐氏症篩檢": "V",
				"地址": "台北市大安區敦化南路二段76號11樓",
				"category": 5
			},
			"geometry": {
				"type": "Point",
				"coordinates": [121.548390007367516, 25.029099986436364]
			}
		},
		{
			"type": "Feature",
			"properties": {
				"行政區": "信義區",
				"醫療機構": "臺北醫學大學附設醫院",
				"婚後孕前健康檢查": "V",
				"初期孕婦唐氏症篩檢": "V",
				"中期孕婦唐氏症篩檢": "V",
				"地址": "臺北市信義區吳興街252號",
				"category": 6
			},
			"geometry": {
				"type": "Point",
				"coordinates": [121.563639958185888, 25.026630007208624]
			}
		},
		{
			"type": "Feature",
			"properties": {
				"行政區": "信義區",
				"醫療機構": "王知行婦產科診所",
				"婚後孕前健康檢查": "V",
				"初期孕婦唐氏症篩檢": null,
				"中期孕婦唐氏症篩檢": "V",
				"地址": "台北市信義區永吉路308號",
				"category": 4
			},
			"geometry": {
				"type": "Point",
				"coordinates": [121.575000035378594, 25.045349982122588]
			}
		},
		{
			"type": "Feature",
			"properties": {
				"行政區": "信義區",
				"醫療機構": "信義邱婦產科診所",
				"婚後孕前健康檢查": "V",
				"初期孕婦唐氏症篩檢": null,
				"中期孕婦唐氏症篩檢": "V",
				"地址": "台北市信義區虎林街198號",
				"category": 4
			},
			"geometry": {
				"type": "Point",
				"coordinates": [121.576880012441848, 25.038439983054275]
			}
		},
		{
			"type": "Feature",
			"properties": {
				"行政區": "信義區",
				"醫療機構": "聯合報系員工診療所",
				"婚後孕前健康檢查": "V",
				"初期孕婦唐氏症篩檢": null,
				"中期孕婦唐氏症篩檢": null,
				"地址": "台北市信義區忠孝東路四段559巷1號6樓",
				"category": 0
			},
			"geometry": {
				"type": "Point",
				"coordinates": [121.56359997650776, 25.042060001307192]
			}
		},
		{
			"type": "Feature",
			"properties": {
				"行政區": "大安區",
				"醫療機構": "臺北市立聯合醫院仁愛院區",
				"婚後孕前健康檢查": "V",
				"初期孕婦唐氏症篩檢": "V",
				"中期孕婦唐氏症篩檢": "V",
				"地址": "台北市大安區仁愛路四段10號",
				"category": 6
			},
			"geometry": {
				"type": "Point",
				"coordinates": [121.545620039825167, 25.037660005054278]
			}
		},
		{
			"type": "Feature",
			"properties": {
				"行政區": "大安區",
				"醫療機構": "窈窕診所",
				"婚後孕前健康檢查": "V",
				"初期孕婦唐氏症篩檢": null,
				"中期孕婦唐氏症篩檢": null,
				"地址": "台北市大安區復興南路二段6號",
				"category": 0
			},
			"geometry": {
				"type": "Point",
				"coordinates": [121.543370001736719, 25.032939987738118]
			}
		},
		{
			"type": "Feature",
			"properties": {
				"行政區": "大安區",
				"醫療機構": "劉賢平婦產科診所",
				"婚後孕前健康檢查": "V",
				"初期孕婦唐氏症篩檢": "V",
				"中期孕婦唐氏症篩檢": "V",
				"地址": "台北市大安區延吉街175號2樓",
				"category": 5
			},
			"geometry": {
				"type": "Point",
				"coordinates": [121.555450000593169, 25.038269998057871]
			}
		},
		{
			"type": "Feature",
			"properties": {
				"行政區": "大安區",
				"醫療機構": "吳坤光婦產科診所",
				"婚後孕前健康檢查": "V",
				"初期孕婦唐氏症篩檢": "V",
				"中期孕婦唐氏症篩檢": "V",
				"地址": "臺北市大安區信義路四段59號",
				"category": 6
			},
			"geometry": {
				"type": "Point",
				"coordinates": [121.545430022080154, 25.033529989902647]
			}
		},
		{
			"type": "Feature",
			"properties": {
				"行政區": "大安區",
				"醫療機構": "莊國豐婦產科診所",
				"婚後孕前健康檢查": "V",
				"初期孕婦唐氏症篩檢": "V",
				"中期孕婦唐氏症篩檢": "V",
				"地址": "台北市大安區和平東路一段8號2樓",
				"category": 6
			},
			"geometry": {
				"type": "Point",
				"coordinates": [121.523180008643862, 25.026829999418382]
			}
		},
		{
			"type": "Feature",
			"properties": {
				"行政區": "大安區",
				"醫療機構": "康婕婦產科診所",
				"婚後孕前健康檢查": "V",
				"初期孕婦唐氏症篩檢": "V",
				"中期孕婦唐氏症篩檢": "V",
				"地址": "臺北市大安區光復南路240巷",
				"category": 6
			},
			"geometry": {
				"type": "Point",
				"coordinates": [121.55607991625493, 25.04074782358752]
			}
		},
		{
			"type": "Feature",
			"properties": {
				"行政區": "大安區",
				"醫療機構": "李婦產科診所",
				"婚後孕前健康檢查": "V",
				"初期孕婦唐氏症篩檢": "V",
				"中期孕婦唐氏症篩檢": null,
				"地址": "臺北市大安區羅斯福路2段41號",
				"category": 3
			},
			"geometry": {
				"type": "Point",
				"coordinates": [121.522269985416074, 25.027610019327895]
			}
		},
		{
			"type": "Feature",
			"properties": {
				"行政區": "大安區",
				"醫療機構": "許世賓婦產科診所",
				"婚後孕前健康檢查": "V",
				"初期孕婦唐氏症篩檢": null,
				"中期孕婦唐氏症篩檢": "V",
				"地址": "臺北市大安區和平東路1段169號",
				"category": 4
			},
			"geometry": {
				"type": "Point",
				"coordinates": [121.531789983404678, 25.026530011103731]
			}
		},
		{
			"type": "Feature",
			"properties": {
				"行政區": "大安區",
				"醫療機構": "忠孝世賓婦產科診所",
				"婚後孕前健康檢查": "V",
				"初期孕婦唐氏症篩檢": "V",
				"中期孕婦唐氏症篩檢": "V",
				"地址": "臺北市大安區忠孝東路4段176號4樓",
				"category": 6
			},
			"geometry": {
				"type": "Point",
				"coordinates": [121.55134001819016, 25.041259990558615]
			}
		},
		{
			"type": "Feature",
			"properties": {
				"行政區": "大安區",
				"醫療機構": "林正宗婦產科診所",
				"婚後孕前健康檢查": "V",
				"初期孕婦唐氏症篩檢": "V",
				"中期孕婦唐氏症篩檢": "V",
				"地址": "臺北市大安區和平東路3段100號2樓",
				"category": 6
			},
			"geometry": {
				"type": "Point",
				"coordinates": [121.551319985441523, 25.024280014924841]
			}
		},
		{
			"type": "Feature",
			"properties": {
				"行政區": "大安區",
				"醫療機構": "金郁婦產科診所",
				"婚後孕前健康檢查": "V",
				"初期孕婦唐氏症篩檢": "V",
				"中期孕婦唐氏症篩檢": "V",
				"地址": "台北市大安區忠孝東路四段177號7號樓之4",
				"category": 6
			},
			"geometry": {
				"type": "Point",
				"coordinates": [121.550650019920738, 25.041689982191514]
			}
		},
		{
			"type": "Feature",
			"properties": {
				"行政區": "大安區",
				"醫療機構": "國泰醫療財團法人國泰綜合醫院",
				"婚後孕前健康檢查": "V",
				"初期孕婦唐氏症篩檢": "V",
				"中期孕婦唐氏症篩檢": "V",
				"地址": "臺北市仁愛路四段280號",
				"category": 6
			},
			"geometry": {
				"type": "Point",
				"coordinates": [121.553659961351059, 25.036939999571501]
			}
		},
		{
			"type": "Feature",
			"properties": {
				"行政區": "大安區",
				"醫療機構": "中山醫療社團法人中山醫院",
				"婚後孕前健康檢查": "V",
				"初期孕婦唐氏症篩檢": "V",
				"中期孕婦唐氏症篩檢": "V",
				"地址": "台北市大安區仁愛路四段112巷11號",
				"category": 6
			},
			"geometry": {
				"type": "Point",
				"coordinates": [121.549709989479595, 25.036549989616759]
			}
		},
		{
			"type": "Feature",
			"properties": {
				"行政區": "大安區",
				"醫療機構": "宏恩醫療財團法人宏恩綜合醫院",
				"婚後孕前健康檢查": "V",
				"初期孕婦唐氏症篩檢": null,
				"中期孕婦唐氏症篩檢": "V",
				"地址": "台北市大安區仁愛路四段61號",
				"category": 4
			},
			"geometry": {
				"type": "Point",
				"coordinates": [121.546680015300694, 25.038189992792056]
			}
		},
		{
			"type": "Feature",
			"properties": {
				"行政區": "大安區",
				"醫療機構": "滿意婦產科診所",
				"婚後孕前健康檢查": null,
				"初期孕婦唐氏症篩檢": "V",
				"中期孕婦唐氏症篩檢": "V",
				"地址": "台北市大安區羅斯福路三段271號",
				"category": 5
			},
			"geometry": {
				"type": "Point",
				"coordinates": [121.53070000071574, 25.01857998548941]
			}
		},
		{
			"type": "Feature",
			"properties": {
				"行政區": "大安區",
				"醫療機構": "林慧雯婦產科診所",
				"婚後孕前健康檢查": "V",
				"初期孕婦唐氏症篩檢": "V",
				"中期孕婦唐氏症篩檢": "V",
				"地址": "臺北市大安區忠孝東路4段210之1號",
				"category": 6
			},
			"geometry": {
				"type": "Point",
				"coordinates": [121.552490015305807, 25.041229983345247]
			}
		},
		{
			"type": "Feature",
			"properties": {
				"行政區": "大安區",
				"醫療機構": "禾馨新生婦幼診所",
				"婚後孕前健康檢查": null,
				"初期孕婦唐氏症篩檢": "V",
				"中期孕婦唐氏症篩檢": null,
				"地址": "台北市大安區新生南路三段2號",
				"category": 1
			},
			"geometry": {
				"type": "Point",
				"coordinates": [121.534630023657655, 25.025769982033296]
			}
		},
		{
			"type": "Feature",
			"properties": {
				"行政區": "大安區",
				"醫療機構": "謝婦產科診所",
				"婚後孕前健康檢查": null,
				"初期孕婦唐氏症篩檢": "V",
				"中期孕婦唐氏症篩檢": "V",
				"地址": "台北市大安區忠孝東路四段311號3樓",
				"category": 5
			},
			"geometry": {
				"type": "Point",
				"coordinates": [121.555800028869783, 25.041580011621846]
			}
		},
		{
			"type": "Feature",
			"properties": {
				"行政區": "中山區",
				"醫療機構": "台兒診所",
				"婚後孕前健康檢查": null,
				"初期孕婦唐氏症篩檢": "V",
				"中期孕婦唐氏症篩檢": null,
				"地址": "台北市中山區中山北路二段162號4樓",
				"category": 1
			},
			"geometry": {
				"type": "Point",
				"coordinates": [121.522309967094259, 25.063199999305979]
			}
		},
		{
			"type": "Feature",
			"properties": {
				"行政區": "中山區",
				"醫療機構": "林丹薇診所",
				"婚後孕前健康檢查": null,
				"初期孕婦唐氏症篩檢": "V",
				"中期孕婦唐氏症篩檢": null,
				"地址": "台北市中山區中山北路二段163號",
				"category": 1
			},
			"geometry": {
				"type": "Point",
				"coordinates": [121.522893534308437, 25.062483847472866]
			}
		},
		{
			"type": "Feature",
			"properties": {
				"行政區": "中山區",
				"醫療機構": "周昱青診所",
				"婚後孕前健康檢查": null,
				"初期孕婦唐氏症篩檢": "V",
				"中期孕婦唐氏症篩檢": null,
				"地址": "台北市中山區中山北路二段164號",
				"category": 1
			},
			"geometry": {
				"type": "Point",
				"coordinates": [121.522328233703263, 25.063312731410708]
			}
		},
		{
			"type": "Feature",
			"properties": {
				"行政區": "中山區",
				"醫療機構": "吳佩臻診所",
				"婚後孕前健康檢查": null,
				"初期孕婦唐氏症篩檢": "V",
				"中期孕婦唐氏症篩檢": null,
				"地址": "北市中山區中山北路二段161號",
				"category": 1
			},
			"geometry": {
				"type": "Point",
				"coordinates": [121.522893534308437, 25.062483847472866]
			}
		},
		{
			"type": "Feature",
			"properties": {
				"行政區": "中山區",
				"醫療機構": "木生婦幼診所",
				"婚後孕前健康檢查": "V",
				"初期孕婦唐氏症篩檢": "V",
				"中期孕婦唐氏症篩檢": "V",
				"地址": "台北市中山區長安東路二段90號",
				"category": 6
			},
			"geometry": {
				"type": "Point",
				"coordinates": [121.534440005912643, 25.048319983784253]
			}
		},
		{
			"type": "Feature",
			"properties": {
				"行政區": "中山區",
				"醫療機構": "黃大倫婦產科診所",
				"婚後孕前健康檢查": "V",
				"初期孕婦唐氏症篩檢": null,
				"中期孕婦唐氏症篩檢": null,
				"地址": "台北市中山區長安東路二段131之3號一樓",
				"category": 0
			},
			"geometry": {
				"type": "Point",
				"coordinates": [121.536059976339345, 25.048499985154947]
			}
		},
		{
			"type": "Feature",
			"properties": {
				"行政區": "中山區",
				"醫療機構": "台灣基督長老教會馬偕醫療財團法人馬偕紀念醫院",
				"婚後孕前健康檢查": "V",
				"初期孕婦唐氏症篩檢": "V",
				"中期孕婦唐氏症篩檢": "V",
				"地址": "臺北市中山區中山北路2段92號",
				"category": 6
			},
			"geometry": {
				"type": "Point",
				"coordinates": [121.52255999926598, 25.058880008318866]
			}
		},
		{
			"type": "Feature",
			"properties": {
				"行政區": "中山區",
				"醫療機構": "王三郎婦產科診所",
				"婚後孕前健康檢查": "V",
				"初期孕婦唐氏症篩檢": "V",
				"中期孕婦唐氏症篩檢": "V",
				"地址": "臺北市中山區中山北路二段166號之2.",
				"category": 6
			},
			"geometry": {
				"type": "Point",
				"coordinates": [121.522315023290446, 25.06336724859651]
			}
		},
		{
			"type": "Feature",
			"properties": {
				"行政區": "中山區",
				"醫療機構": "協和婦女醫院",
				"婚後孕前健康檢查": "V",
				"初期孕婦唐氏症篩檢": null,
				"中期孕婦唐氏症篩檢": "V",
				"地址": "臺北市中山區松江路85巷5號",
				"category": 4
			},
			"geometry": {
				"type": "Point",
				"coordinates": [121.533940025388233, 25.050269991648506]
			}
		},
		{
			"type": "Feature",
			"properties": {
				"行政區": "中山區",
				"醫療機構": "四季和安婦幼診所",
				"婚後孕前健康檢查": "V",
				"初期孕婦唐氏症篩檢": "V",
				"中期孕婦唐氏症篩檢": "V",
				"地址": "臺北市中山區林森北路458號",
				"category": 6
			},
			"geometry": {
				"type": "Point",
				"coordinates": [121.525470028410439, 25.060880014235565]
			}
		},
		{
			"type": "Feature",
			"properties": {
				"行政區": "中山區",
				"醫療機構": "李義男婦產科診所【新增】",
				"婚後孕前健康檢查": "V",
				"初期孕婦唐氏症篩檢": "V",
				"中期孕婦唐氏症篩檢": "V",
				"地址": "臺北市中山區中山北路二段71號4樓",
				"category": 6
			},
			"geometry": {
				"type": "Point",
				"coordinates": [121.523050005325615, 25.057279986821712]
			}
		},
		{
			"type": "Feature",
			"properties": {
				"行政區": "中山區",
				"醫療機構": "繼承婦產科診所【新增】",
				"婚後孕前健康檢查": "V",
				"初期孕婦唐氏症篩檢": "V",
				"中期孕婦唐氏症篩檢": "V",
				"地址": "台北市中山區中山區276號",
				"category": 5
			},
			"geometry": {
				"type": "Point",
				"coordinates": [121.53331, 25.06443]
			}
		},
		{
			"type": "Feature",
			"properties": {
				"行政區": "中正區",
				"醫療機構": "臺北市立聯合醫院婦幼院區",
				"婚後孕前健康檢查": "V",
				"初期孕婦唐氏症篩檢": "V",
				"中期孕婦唐氏症篩檢": "V",
				"地址": "臺北市中華路二段33號",
				"category": 6
			},
			"geometry": {
				"type": "Point",
				"coordinates": [121.506700013534498, 25.035579993871778]
			}
		},
		{
			"type": "Feature",
			"properties": {
				"行政區": "中正區",
				"醫療機構": "臺北市立聯合醫院和平院區",
				"婚後孕前健康檢查": "V",
				"初期孕婦唐氏症篩檢": "V",
				"中期孕婦唐氏症篩檢": "V",
				"地址": "臺北市福州街12號",
				"category": 6
			},
			"geometry": {
				"type": "Point",
				"coordinates": [121.519249985702004, 25.029099986436364]
			}
		},
		{
			"type": "Feature",
			"properties": {
				"行政區": "中正區",
				"醫療機構": "禾馨婦產科診所",
				"婚後孕前健康檢查": null,
				"初期孕婦唐氏症篩檢": "V",
				"中期孕婦唐氏症篩檢": null,
				"地址": "台北市懷寧街78號 ",
				"category": 1
			},
			"geometry": {
				"type": "Point",
				"coordinates": [121.513990006183292, 25.04309001147891]
			}
		},
		{
			"type": "Feature",
			"properties": {
				"行政區": "中正區",
				"醫療機構": "國立臺灣大學醫學院附設醫院",
				"婚後孕前健康檢查": "V",
				"初期孕婦唐氏症篩檢": "V",
				"中期孕婦唐氏症篩檢": "V",
				"地址": "臺北市中正區中山南路7號",
				"category": 6
			},
			"geometry": {
				"type": "Point",
				"coordinates": [121.518559987432582, 25.040780000873269]
			}
		},
		{
			"type": "Feature",
			"properties": {
				"行政區": "中正區",
				"醫療機構": "小禾馨懷寧小兒專科診",
				"婚後孕前健康檢查": null,
				"初期孕婦唐氏症篩檢": "V",
				"中期孕婦唐氏症篩檢": null,
				"地址": "台北市中正區重慶南路一段99號",
				"category": 1
			},
			"geometry": {
				"type": "Point",
				"coordinates": [121.513330015127224, 25.043040013426463]
			}
		},
		{
			"type": "Feature",
			"properties": {
				"行政區": "大同區",
				"醫療機構": "臺北市立聯合醫院中興院區",
				"婚後孕前健康檢查": "V",
				"初期孕婦唐氏症篩檢": "V",
				"中期孕婦唐氏症篩檢": "V",
				"地址": "台北市大同區鄭州路145號",
				"category": 6
			},
			"geometry": {
				"type": "Point",
				"coordinates": [121.508890037196181, 25.05069000881663]
			}
		},
		{
			"type": "Feature",
			"properties": {
				"行政區": "萬華區",
				"醫療機構": "大元婦產科診所",
				"婚後孕前健康檢查": "V",
				"初期孕婦唐氏症篩檢": null,
				"中期孕婦唐氏症篩檢": null,
				"地址": "台北市萬華區西園路二段140巷8號",
				"category": 0
			},
			"geometry": {
				"type": "Point",
				"coordinates": [121.495890040647168, 25.030489999349456]
			}
		},
		{
			"type": "Feature",
			"properties": {
				"行政區": "萬華區",
				"醫療機構": "聖約翰婦產科診所",
				"婚後孕前健康檢查": "V",
				"初期孕婦唐氏症篩檢": "V",
				"中期孕婦唐氏症篩檢": "V",
				"地址": "台北市萬華區東園街175號",
				"category": 6
			},
			"geometry": {
				"type": "Point",
				"coordinates": [121.497350000542269, 25.024159986071368]
			}
		},
		{
			"type": "Feature",
			"properties": {
				"行政區": "萬華區",
				"醫療機構": "益生婦產科診所",
				"婚後孕前健康檢查": "V",
				"初期孕婦唐氏症篩檢": "V",
				"中期孕婦唐氏症篩檢": "V",
				"地址": "台北市萬華區萬大路406－1號",
				"category": 6
			},
			"geometry": {
				"type": "Point",
				"coordinates": [121.498450041515014, 25.021479998259565]
			}
		},
		{
			"type": "Feature",
			"properties": {
				"行政區": "萬華區",
				"醫療機構": "國立臺灣大學醫學院附設醫院北護分院",
				"婚後孕前健康檢查": "V",
				"初期孕婦唐氏症篩檢": "V",
				"中期孕婦唐氏症篩檢": "V",
				"地址": "臺北市萬華區內江街87號",
				"category": 5
			},
			"geometry": {
				"type": "Point",
				"coordinates": [121.503550010502124, 25.04173998024396]
			}
		},
		{
			"type": "Feature",
			"properties": {
				"行政區": "萬華區",
				"醫療機構": "城中瑪麗安婦產科診所",
				"婚後孕前健康檢查": "V",
				"初期孕婦唐氏症篩檢": null,
				"中期孕婦唐氏症篩檢": null,
				"地址": "台北市萬華區成都路4號2樓",
				"category": 7
			},
			"geometry": {
				"type": "Point",
				"coordinates": [121.506349985257884, 25.042569998205906]
			}
		},
		{
			"type": "Feature",
			"properties": {
				"行政區": "文山區",
				"醫療機構": "愛文診所",
				"婚後孕前健康檢查": "V",
				"初期孕婦唐氏症篩檢": "V",
				"中期孕婦唐氏症篩檢": "V",
				"地址": "台北市文山區興隆路三段79巷3號",
				"category": 6
			},
			"geometry": {
				"type": "Point",
				"coordinates": [121.556530008817333, 25.00022001331682]
			}
		},
		{
			"type": "Feature",
			"properties": {
				"行政區": "文山區",
				"醫療機構": "長欣婦產科診所",
				"婚後孕前健康檢查": "V",
				"初期孕婦唐氏症篩檢": "V",
				"中期孕婦唐氏症篩檢": "V",
				"地址": "台北市文山區興隆路四段60號",
				"category": 6
			},
			"geometry": {
				"type": "Point",
				"coordinates": [121.561229993384927, 24.985409986686619]
			}
		},
		{
			"type": "Feature",
			"properties": {
				"行政區": "文山區",
				"醫療機構": "臺北市立萬芳醫院－委託財團法人臺北醫學大學辦理",
				"婚後孕前健康檢查": "V",
				"初期孕婦唐氏症篩檢": "V",
				"中期孕婦唐氏症篩檢": "V",
				"地址": "台北市文山區興隆路三段111號",
				"category": 6
			},
			"geometry": {
				"type": "Point",
				"coordinates": [121.557670031468206, 24.999630011152306]
			}
		},
		{
			"type": "Feature",
			"properties": {
				"行政區": "文山區",
				"醫療機構": "芳馨診所",
				"婚後孕前健康檢查": "V",
				"初期孕婦唐氏症篩檢": "V",
				"中期孕婦唐氏症篩檢": "V",
				"地址": "台北市文山區興隆路二段62號",
				"category": 6
			},
			"geometry": {
				"type": "Point",
				"coordinates": [121.547820037951624, 24.999600003938937]
			}
		},
		{
			"type": "Feature",
			"properties": {
				"行政區": "南港區",
				"醫療機構": "臺北市立聯合醫院忠孝院區",
				"婚後孕前健康檢查": "V",
				"初期孕婦唐氏症篩檢": "V",
				"中期孕婦唐氏症篩檢": "V",
				"地址": "台北市南港區同德路87號",
				"category": 6
			},
			"geometry": {
				"type": "Point",
				"coordinates": [121.586160036542537, 25.046499979238263]
			}
		},
		{
			"type": "Feature",
			"properties": {
				"行政區": "南港區",
				"醫療機構": "劉聖亞診所",
				"婚後孕前健康檢查": "V",
				"初期孕婦唐氏症篩檢": "V",
				"中期孕婦唐氏症篩檢": "V",
				"地址": "台北市南港區興華路82號",
				"category": 6
			},
			"geometry": {
				"type": "Point",
				"coordinates": [121.605730020257511, 25.055810010552321]
			}
		},
		{
			"type": "Feature",
			"properties": {
				"行政區": "內湖區",
				"醫療機構": "顏鳳麟婦產科診所",
				"婚後孕前健康檢查": "V",
				"初期孕婦唐氏症篩檢": "V",
				"中期孕婦唐氏症篩檢": null,
				"地址": "台北市內湖區成功路四段28號2樓",
				"category": 1
			},
			"geometry": {
				"type": "Point",
				"coordinates": [121.597260023279716, 25.084689983671851]
			}
		},
		{
			"type": "Feature",
			"properties": {
				"行政區": "內湖區",
				"醫療機構": "三軍總醫院附設民眾診療服務處",
				"婚後孕前健康檢查": "V",
				"初期孕婦唐氏症篩檢": "V",
				"中期孕婦唐氏症篩檢": "V",
				"地址": "台北市內湖區成功路二段325號",
				"category": 6
			},
			"geometry": {
				"type": "Point",
				"coordinates": [121.590549974511646, 25.070190003640107]
			}
		},
		{
			"type": "Feature",
			"properties": {
				"行政區": "內湖區",
				"醫療機構": "康寧醫療財團法人康寧醫院",
				"婚後孕前健康檢查": "V",
				"初期孕婦唐氏症篩檢": "V",
				"中期孕婦唐氏症篩檢": "V",
				"地址": "台北市內湖區成功路五段420巷26號",
				"category": 6
			},
			"geometry": {
				"type": "Point",
				"coordinates": [121.608420024443603, 25.075030007900224]
			}
		},
		{
			"type": "Feature",
			"properties": {
				"行政區": "內湖區",
				"醫療機構": "國泰醫療財團法人內湖國泰診所",
				"婚後孕前健康檢查": "V",
				"初期孕婦唐氏症篩檢": null,
				"中期孕婦唐氏症篩檢": null,
				"地址": "台北市內湖區瑞光路337號",
				"category": 0
			},
			"geometry": {
				"type": "Point",
				"coordinates": [121.573323812522403, 25.077186644114356]
			}
		},
		{
			"type": "Feature",
			"properties": {
				"行政區": "內湖區",
				"醫療機構": "中國醫藥大學附設醫院臺北分院",
				"婚後孕前健康檢查": "V",
				"初期孕婦唐氏症篩檢": null,
				"中期孕婦唐氏症篩檢": "V",
				"地址": "台北市內湖區內湖路二段360號",
				"category": 4
			},
			"geometry": {
				"type": "Point",
				"coordinates": [121.59060001447358, 25.082120008339231]
			}
		},
		{
			"type": "Feature",
			"properties": {
				"行政區": "內湖區",
				"醫療機構": "禾馨民權婦幼診所",
				"婚後孕前健康檢查": null,
				"初期孕婦唐氏症篩檢": "V",
				"中期孕婦唐氏症篩檢": null,
				"地址": "台北市內湖區民權東路六段42號",
				"category": 1
			},
			"geometry": {
				"type": "Point",
				"coordinates": [121.581679993114278, 25.067729998877141]
			}
		},
		{
			"type": "Feature",
			"properties": {
				"行政區": "內湖區",
				"醫療機構": "禾馨內湖婦幼診所",
				"婚後孕前健康檢查": null,
				"初期孕婦唐氏症篩檢": "V",
				"中期孕婦唐氏症篩檢": null,
				"地址": "台北市內湖區民權東路六段42號",
				"category": 1
			},
			"geometry": {
				"type": "Point",
				"coordinates": [121.581679993114278, 25.067729998877141]
			}
		},
		{
			"type": "Feature",
			"properties": {
				"行政區": "士林區",
				"醫療機構": "臺北市立聯合醫院陽明院區",
				"婚後孕前健康檢查": "V",
				"初期孕婦唐氏症篩檢": null,
				"中期孕婦唐氏症篩檢": "V",
				"地址": "台北市士林區雨聲街105號",
				"category": 4
			},
			"geometry": {
				"type": "Point",
				"coordinates": [121.531569958446369, 25.105189981453677]
			}
		},
		{
			"type": "Feature",
			"properties": {
				"行政區": "士林區",
				"醫療機構": "鄭福山婦產科診所",
				"婚後孕前健康檢查": "V",
				"初期孕婦唐氏症篩檢": "V",
				"中期孕婦唐氏症篩檢": "V",
				"地址": "台北市士林區中山北路六段256號",
				"category": 6
			},
			"geometry": {
				"type": "Point",
				"coordinates": [121.525510010088567, 25.109460016297859]
			}
		},
		{
			"type": "Feature",
			"properties": {
				"行政區": "士林區",
				"醫療機構": "李文達婦產科診所",
				"婚後孕前健康檢查": "V",
				"初期孕婦唐氏症篩檢": "V",
				"中期孕婦唐氏症篩檢": "V",
				"地址": "台北市士林區文林路458號",
				"category": 5
			},
			"geometry": {
				"type": "Point",
				"coordinates": [121.52456000518265, 25.095590020108773]
			}
		},
		{
			"type": "Feature",
			"properties": {
				"行政區": "士林區",
				"醫療機構": "新光醫療財團法人新光吳火獅紀念醫院",
				"婚後孕前健康檢查": "V",
				"初期孕婦唐氏症篩檢": "V",
				"中期孕婦唐氏症篩檢": "V",
				"地址": "臺北市士林區文昌路95號",
				"category": 6
			},
			"geometry": {
				"type": "Point",
				"coordinates": [121.520320019461337, 25.096280018378181]
			}
		},
		{
			"type": "Feature",
			"properties": {
				"行政區": "士林區",
				"醫療機構": "永恆美診所",
				"婚後孕前健康檢查": "V",
				"初期孕婦唐氏症篩檢": "V",
				"中期孕婦唐氏症篩檢": "V",
				"地址": "台北市士林區忠誠路一段58號",
				"category": 6
			},
			"geometry": {
				"type": "Point",
				"coordinates": [121.527110031585721, 25.104709991768331]
			}
		},
		{
			"type": "Feature",
			"properties": {
				"行政區": "士林區",
				"醫療機構": "佩佩婦幼診所",
				"婚後孕前健康檢查": "V",
				"初期孕婦唐氏症篩檢": "V",
				"中期孕婦唐氏症篩檢": "V",
				"地址": "台北市士林區中山北路六段182號",
				"category": 6
			},
			"geometry": {
				"type": "Point",
				"coordinates": [121.525189989025307, 25.107579997325118]
			}
		},
		{
			"type": "Feature",
			"properties": {
				"行政區": "北投區",
				"醫療機構": "佳韻婦產科診所",
				"婚後孕前健康檢查": "V",
				"初期孕婦唐氏症篩檢": null,
				"中期孕婦唐氏症篩檢": null,
				"地址": "台北市北投區中央南路一段42號",
				"category": 0
			},
			"geometry": {
				"type": "Point",
				"coordinates": [121.50119997630884, 25.13229001552439]
			}
		},
		{
			"type": "Feature",
			"properties": {
				"行政區": "北投區",
				"醫療機構": "臺北市立關渡醫院－委託臺北榮民總醫院經營",
				"婚後孕前健康檢查": "V",
				"初期孕婦唐氏症篩檢": null,
				"中期孕婦唐氏症篩檢": null,
				"地址": "台北市北投區知行路225巷12號",
				"category": 0
			},
			"geometry": {
				"type": "Point",
				"coordinates": [121.466350034562083, 25.120180009454572]
			}
		},
		{
			"type": "Feature",
			"properties": {
				"行政區": "北投區",
				"醫療機構": "振興醫療財團法人振興醫院",
				"婚後孕前健康檢查": "V",
				"初期孕婦唐氏症篩檢": null,
				"中期孕婦唐氏症篩檢": "V",
				"地址": "台北市北投區振興街45號",
				"category": 4
			},
			"geometry": {
				"type": "Point",
				"coordinates": [121.522399988734321, 25.117540003320926]
			}
		},
		{
			"type": "Feature",
			"properties": {
				"行政區": "北投區",
				"醫療機構": "臺北榮民總醫院",
				"婚後孕前健康檢查": "V",
				"初期孕婦唐氏症篩檢": "V",
				"中期孕婦唐氏症篩檢": "V",
				"地址": "台北巿北投區石牌路201號",
				"category": 6
			},
			"geometry": {
				"type": "Point",
				"coordinates": [121.510004997956571, 25.117669985684408]
			}
		}
	]
}
