{
"type": "FeatureCollection",
"crs": { "type": "name", "properties": { "name": "urn:ogc:def:crs:OGC:1.3:CRS84" } },
"features": [
{ "type": "Feature", "properties": { "station_id": "TPE500101001", "station": "捷運科技大樓站", "total_bikes": 28, "left_bikes": 1 }, "geometry": { "type": "Point", "coordinates": [ 121.5436, 25.0261 ] } },
{ "type": "Feature", "properties": { "station_id": "TPE500101002", "station": "復興南路二段273號前", "total_bikes": 21, "left_bikes": 0 }, "geometry": { "type": "Point", "coordinates": [ 121.5436, 25.0257 ] } },
{ "type": "Feature", "properties": { "station_id": "TPE500101003", "station": "國北教大實小東側門", "total_bikes": 16, "left_bikes": 6 }, "geometry": { "type": "Point", "coordinates": [ 121.5412, 25.0243 ] } },
{ "type": "Feature", "properties": { "station_id": "TPE500101004", "station": "和平公園東側", "total_bikes": 11, "left_bikes": 10 }, "geometry": { "type": "Point", "coordinates": [ 121.5428, 25.0235 ] } },
{ "type": "Feature", "properties": { "station_id": "TPE500101005", "station": "辛亥復興路口西北側", "total_bikes": 16, "left_bikes": 10 }, "geometry": { "type": "Point", "coordinates": [ 121.543, 25.0215 ] } },
{ "type": "Feature", "properties": { "station_id": "TPE500101006", "station": "復興南路二段280號前", "total_bikes": 11, "left_bikes": 4 }, "geometry": { "type": "Point", "coordinates": [ 121.5433, 25.0243 ] } },
{ "type": "Feature", "properties": { "station_id": "TPE500101007", "station": "復興南路二段340巷口", "total_bikes": 11, "left_bikes": 9 }, "geometry": { "type": "Point", "coordinates": [ 121.5433, 25.0225 ] } },
{ "type": "Feature", "properties": { "station_id": "TPE500101008", "station": "新生南路三段52號前", "total_bikes": 17, "left_bikes": 4 }, "geometry": { "type": "Point", "coordinates": [ 121.5341, 25.0211 ] } },
{ "type": "Feature", "properties": { "station_id": "TPE500101009", "station": "新生南路三段66號前", "total_bikes": 16, "left_bikes": 12 }, "geometry": { "type": "Point", "coordinates": [ 121.5338, 25.0198 ] } },
{ "type": "Feature", "properties": { "station_id": "TPE500101010", "station": "新生南路三段82號前", "total_bikes": 20, "left_bikes": 10 }, "geometry": { "type": "Point", "coordinates": [ 121.5336, 25.0189 ] } },
{ "type": "Feature", "properties": { "station_id": "TPE500101012", "station": "辛亥路一段30號前", "total_bikes": 8, "left_bikes": 0 }, "geometry": { "type": "Point", "coordinates": [ 121.5298, 25.0199 ] } },
{ "type": "Feature", "properties": { "station_id": "TPE500101013", "station": "和平復興路口西北側", "total_bikes": 9, "left_bikes": 2 }, "geometry": { "type": "Point", "coordinates": [ 121.5433, 25.0254 ] } },
{ "type": "Feature", "properties": { "station_id": "TPE500101014", "station": "羅斯福路三段311號前", "total_bikes": 11, "left_bikes": 5 }, "geometry": { "type": "Point", "coordinates": [ 121.532, 25.0172 ] } },
{ "type": "Feature", "properties": { "station_id": "TPE500101015", "station": "大安運動中心停車場", "total_bikes": 14, "left_bikes": 7 }, "geometry": { "type": "Point", "coordinates": [ 121.5464, 25.0203 ] } },
{ "type": "Feature", "properties": { "station_id": "TPE500101016", "station": "羅斯福路三段245號前", "total_bikes": 8, "left_bikes": 3 }, "geometry": { "type": "Point", "coordinates": [ 121.5299, 25.0193 ] } },
{ "type": "Feature", "properties": { "station_id": "TPE500101018", "station": "溫州公園", "total_bikes": 5, "left_bikes": 2 }, "geometry": { "type": "Point", "coordinates": [ 121.5316, 25.019 ] } },
{ "type": "Feature", "properties": { "station_id": "TPE500101019", "station": "和平臥龍街口", "total_bikes": 15, "left_bikes": 15 }, "geometry": { "type": "Point", "coordinates": [ 121.5467, 25.0245 ] } },
{ "type": "Feature", "properties": { "station_id": "TPE500101020", "station": "溫州停車場", "total_bikes": 5, "left_bikes": 1 }, "geometry": { "type": "Point", "coordinates": [ 121.5331, 25.0209 ] } },
{ "type": "Feature", "properties": { "station_id": "TPE500101021", "station": "銘傳國小側門", "total_bikes": 7, "left_bikes": 0 }, "geometry": { "type": "Point", "coordinates": [ 121.5355, 25.0139 ] } },
{ "type": "Feature", "properties": { "station_id": "TPE500101022", "station": "捷運公館站(2號出口)", "total_bikes": 99, "left_bikes": 0 }, "geometry": { "type": "Point", "coordinates": [ 121.5344, 25.0149 ] } },
{ "type": "Feature", "properties": { "station_id": "TPE500101023", "station": "第二學生活動中心", "total_bikes": 27, "left_bikes": 2 }, "geometry": { "type": "Point", "coordinates": [ 121.5366, 25.0124 ] } },
{ "type": "Feature", "properties": { "station_id": "TPE500101024", "station": "臺灣科技大學正門", "total_bikes": 30, "left_bikes": 11 }, "geometry": { "type": "Point", "coordinates": [ 121.5414, 25.0145 ] } },
{ "type": "Feature", "properties": { "station_id": "TPE500101025", "station": "臺灣科技大學側門", "total_bikes": 99, "left_bikes": 33 }, "geometry": { "type": "Point", "coordinates": [ 121.5397, 25.013 ] } },
{ "type": "Feature", "properties": { "station_id": "TPE500101026", "station": "公館公園", "total_bikes": 15, "left_bikes": 7 }, "geometry": { "type": "Point", "coordinates": [ 121.5406, 25.0114 ] } },
{ "type": "Feature", "properties": { "station_id": "TPE500101027", "station": "臺灣科技大學後門", "total_bikes": 39, "left_bikes": 6 }, "geometry": { "type": "Point", "coordinates": [ 121.5417, 25.0118 ] } },
{ "type": "Feature", "properties": { "station_id": "TPE500101028", "station": "臺大醫學院附設癌醫中心", "total_bikes": 20, "left_bikes": 12 }, "geometry": { "type": "Point", "coordinates": [ 121.5438, 25.0143 ] } },
{ "type": "Feature", "properties": { "station_id": "TPE500101029", "station": "臺大環研大樓", "total_bikes": 15, "left_bikes": 12 }, "geometry": { "type": "Point", "coordinates": [ 121.545, 25.0123 ] } },
{ "type": "Feature", "properties": { "station_id": "TPE500101030", "station": "臺大永齡生醫工程館", "total_bikes": 34, "left_bikes": 20 }, "geometry": { "type": "Point", "coordinates": [ 121.5466, 25.0136 ] } },
{ "type": "Feature", "properties": { "station_id": "TPE500101031", "station": "臺大男七舍前", "total_bikes": 20, "left_bikes": 5 }, "geometry": { "type": "Point", "coordinates": [ 121.547, 25.0154 ] } },
{ "type": "Feature", "properties": { "station_id": "TPE500101032", "station": "臺大男一舍前", "total_bikes": 61, "left_bikes": 8 }, "geometry": { "type": "Point", "coordinates": [ 121.5454, 25.0164 ] } },
{ "type": "Feature", "properties": { "station_id": "TPE500101033", "station": "臺大男六舍前", "total_bikes": 46, "left_bikes": 20 }, "geometry": { "type": "Point", "coordinates": [ 121.5452, 25.0166 ] } },
{ "type": "Feature", "properties": { "station_id": "TPE500101034", "station": "臺大動物醫院前", "total_bikes": 18, "left_bikes": 7 }, "geometry": { "type": "Point", "coordinates": [ 121.5429, 25.0158 ] } },
{ "type": "Feature", "properties": { "station_id": "TPE500101035", "station": "臺大土木研究大樓前", "total_bikes": 24, "left_bikes": 9 }, "geometry": { "type": "Point", "coordinates": [ 121.5476, 25.0179 ] } },
{ "type": "Feature", "properties": { "station_id": "TPE500101036", "station": "臺大萬才館前", "total_bikes": 20, "left_bikes": 17 }, "geometry": { "type": "Point", "coordinates": [ 121.545, 25.0203 ] } },
{ "type": "Feature", "properties": { "station_id": "TPE500101037", "station": "臺大國青大樓宿舍前", "total_bikes": 20, "left_bikes": 6 }, "geometry": { "type": "Point", "coordinates": [ 121.5443, 25.0208 ] } },
{ "type": "Feature", "properties": { "station_id": "TPE500101038", "station": "臺大社科院圖書館前", "total_bikes": 27, "left_bikes": 10 }, "geometry": { "type": "Point", "coordinates": [ 121.5428, 25.021 ] } },
{ "type": "Feature", "properties": { "station_id": "TPE500101039", "station": "臺大法人語言訓練中心前", "total_bikes": 28, "left_bikes": 26 }, "geometry": { "type": "Point", "coordinates": [ 121.5408, 25.021 ] } },
{ "type": "Feature", "properties": { "station_id": "TPE500101040", "station": "臺大綜合體育館停車場前", "total_bikes": 25, "left_bikes": 7 }, "geometry": { "type": "Point", "coordinates": [ 121.5363, 25.0222 ] } },
{ "type": "Feature", "properties": { "station_id": "TPE500101041", "station": "辛亥新生路口東南側", "total_bikes": 41, "left_bikes": 17 }, "geometry": { "type": "Point", "coordinates": [ 121.5347, 25.0222 ] } },
{ "type": "Feature", "properties": { "station_id": "TPE500101042", "station": "基隆長興路口東側", "total_bikes": 15, "left_bikes": 1 }, "geometry": { "type": "Point", "coordinates": [ 121.5447, 25.0173 ] } },
{ "type": "Feature", "properties": { "station_id": "TPE500101091", "station": "國北教大側門南側", "total_bikes": 25, "left_bikes": 25 }, "geometry": { "type": "Point", "coordinates": [ 121.5466, 25.0229 ] } },
{ "type": "Feature", "properties": { "station_id": "TPE500101092", "station": "和平實小東北側", "total_bikes": 13, "left_bikes": 6 }, "geometry": { "type": "Point", "coordinates": [ 121.547, 25.0216 ] } },
{ "type": "Feature", "properties": { "station_id": "TPE500101093", "station": "大安區健康服務中心", "total_bikes": 15, "left_bikes": 9 }, "geometry": { "type": "Point", "coordinates": [ 121.5441, 25.0215 ] } },
{ "type": "Feature", "properties": { "station_id": "TPE500101094", "station": "辛亥泰順街口", "total_bikes": 20, "left_bikes": 8 }, "geometry": { "type": "Point", "coordinates": [ 121.5317, 25.0219 ] } },
{ "type": "Feature", "properties": { "station_id": "TPE500101095", "station": "芳和國中", "total_bikes": 28, "left_bikes": 19 }, "geometry": { "type": "Point", "coordinates": [ 121.5501, 25.0189 ] } },
{ "type": "Feature", "properties": { "station_id": "TPE500101097", "station": "臥龍樂業街口", "total_bikes": 36, "left_bikes": 20 }, "geometry": { "type": "Point", "coordinates": [ 121.5556, 25.0186 ] } },
{ "type": "Feature", "properties": { "station_id": "TPE500101098", "station": "臥龍公園", "total_bikes": 14, "left_bikes": 3 }, "geometry": { "type": "Point", "coordinates": [ 121.5504, 25.0162 ] } },
{ "type": "Feature", "properties": { "station_id": "TPE500101099", "station": "嘉興公園", "total_bikes": 44, "left_bikes": 13 }, "geometry": { "type": "Point", "coordinates": [ 121.5521, 25.021 ] } },
{ "type": "Feature", "properties": { "station_id": "TPE500101100", "station": "捷運麟光站(2號出口)", "total_bikes": 35, "left_bikes": 11 }, "geometry": { "type": "Point", "coordinates": [ 121.5593, 25.0181 ] } },
{ "type": "Feature", "properties": { "station_id": "TPE500101101", "station": "捷運六張犁站", "total_bikes": 57, "left_bikes": 0 }, "geometry": { "type": "Point", "coordinates": [ 121.5527, 25.024 ] } },
{ "type": "Feature", "properties": { "station_id": "TPE500101102", "station": "喬治工商", "total_bikes": 26, "left_bikes": 10 }, "geometry": { "type": "Point", "coordinates": [ 121.5555, 25.0271 ] } },
{ "type": "Feature", "properties": { "station_id": "TPE500101103", "station": "法治公園", "total_bikes": 15, "left_bikes": 1 }, "geometry": { "type": "Point", "coordinates": [ 121.5533, 25.0269 ] } },
{ "type": "Feature", "properties": { "station_id": "TPE500101104", "station": "捷運臺電大樓站(2號出口)", "total_bikes": 15, "left_bikes": 0 }, "geometry": { "type": "Point", "coordinates": [ 121.5294, 25.0202 ] } },
{ "type": "Feature", "properties": { "station_id": "TPE500101105", "station": "和平金山路口", "total_bikes": 45, "left_bikes": 15 }, "geometry": { "type": "Point", "coordinates": [ 121.5253, 25.0267 ] } },
{ "type": "Feature", "properties": { "station_id": "TPE500101107", "station": "和平龍泉街口", "total_bikes": 41, "left_bikes": 13 }, "geometry": { "type": "Point", "coordinates": [ 121.5297, 25.0264 ] } },
{ "type": "Feature", "properties": { "station_id": "TPE500101108", "station": "和平泰順街口", "total_bikes": 9, "left_bikes": 4 }, "geometry": { "type": "Point", "coordinates": [ 121.5317, 25.0262 ] } },
{ "type": "Feature", "properties": { "station_id": "TPE500101109", "station": "臺灣師範大學(圖書館)", "total_bikes": 33, "left_bikes": 25 }, "geometry": { "type": "Point", "coordinates": [ 121.5297, 25.0266 ] } },
{ "type": "Feature", "properties": { "station_id": "TPE500101110", "station": "捷運古亭站(6號出口)", "total_bikes": 60, "left_bikes": 18 }, "geometry": { "type": "Point", "coordinates": [ 121.5222, 25.0276 ] } },
{ "type": "Feature", "properties": { "station_id": "TPE500101111", "station": "捷運古亭站(5號出口)", "total_bikes": 14, "left_bikes": 3 }, "geometry": { "type": "Point", "coordinates": [ 121.5229, 25.0272 ] } },
{ "type": "Feature", "properties": { "station_id": "TPE500101113", "station": "臺北市立圖書館(總館)", "total_bikes": 40, "left_bikes": 5 }, "geometry": { "type": "Point", "coordinates": [ 121.5379, 25.0289 ] } },
{ "type": "Feature", "properties": { "station_id": "TPE500101114", "station": "新生和平路口東北側", "total_bikes": 35, "left_bikes": 14 }, "geometry": { "type": "Point", "coordinates": [ 121.5352, 25.0266 ] } },
{ "type": "Feature", "properties": { "station_id": "TPE500101115", "station": "建國和平路口西北側", "total_bikes": 41, "left_bikes": 22 }, "geometry": { "type": "Point", "coordinates": [ 121.5374, 25.0261 ] } },
{ "type": "Feature", "properties": { "station_id": "TPE500101116", "station": "金華公園", "total_bikes": 31, "left_bikes": 10 }, "geometry": { "type": "Point", "coordinates": [ 121.5311, 25.0298 ] } },
{ "type": "Feature", "properties": { "station_id": "TPE500101117", "station": "捷運東門站(3號出口)", "total_bikes": 15, "left_bikes": 3 }, "geometry": { "type": "Point", "coordinates": [ 121.5282, 25.0338 ] } },
{ "type": "Feature", "properties": { "station_id": "TPE500101118", "station": "金甌女中", "total_bikes": 12, "left_bikes": 4 }, "geometry": { "type": "Point", "coordinates": [ 121.5245, 25.0352 ] } },
{ "type": "Feature", "properties": { "station_id": "TPE500101119", "station": "金杭公園", "total_bikes": 20, "left_bikes": 12 }, "geometry": { "type": "Point", "coordinates": [ 121.5244, 25.0333 ] } },
{ "type": "Feature", "properties": { "station_id": "TPE500101120", "station": "愛國金山路口", "total_bikes": 33, "left_bikes": 28 }, "geometry": { "type": "Point", "coordinates": [ 121.5266, 25.0316 ] } },
{ "type": "Feature", "properties": { "station_id": "TPE500101122", "station": "敦化南路二段293巷口南側", "total_bikes": 14, "left_bikes": 1 }, "geometry": { "type": "Point", "coordinates": [ 121.549, 25.0237 ] } },
{ "type": "Feature", "properties": { "station_id": "TPE500101123", "station": "敦化基隆路口", "total_bikes": 29, "left_bikes": 15 }, "geometry": { "type": "Point", "coordinates": [ 121.5484, 25.0222 ] } },
{ "type": "Feature", "properties": { "station_id": "TPE500101124", "station": "安和路二段181巷口", "total_bikes": 17, "left_bikes": 10 }, "geometry": { "type": "Point", "coordinates": [ 121.5499, 25.0272 ] } },
{ "type": "Feature", "properties": { "station_id": "TPE500101125", "station": "臨江街夜市(通化街101巷口)", "total_bikes": 30, "left_bikes": 6 }, "geometry": { "type": "Point", "coordinates": [ 121.5541, 25.0295 ] } },
{ "type": "Feature", "properties": { "station_id": "TPE500101126", "station": "臨江街夜市(基隆路)", "total_bikes": 17, "left_bikes": 5 }, "geometry": { "type": "Point", "coordinates": [ 121.5572, 25.0293 ] } },
{ "type": "Feature", "properties": { "station_id": "TPE500101127", "station": "台北科技大學億光大樓", "total_bikes": 46, "left_bikes": 28 }, "geometry": { "type": "Point", "coordinates": [ 121.5383, 25.0418 ] } },
{ "type": "Feature", "properties": { "station_id": "TPE500101128", "station": "新生南路一段119巷口", "total_bikes": 33, "left_bikes": 24 }, "geometry": { "type": "Point", "coordinates": [ 121.533, 25.04 ] } },
{ "type": "Feature", "properties": { "station_id": "TPE500101129", "station": "幸安國小(仁愛路)", "total_bikes": 16, "left_bikes": 6 }, "geometry": { "type": "Point", "coordinates": [ 121.5352, 25.0375 ] } },
{ "type": "Feature", "properties": { "station_id": "TPE500101130", "station": "民榮公園", "total_bikes": 15, "left_bikes": 8 }, "geometry": { "type": "Point", "coordinates": [ 121.5354, 25.0353 ] } },
{ "type": "Feature", "properties": { "station_id": "TPE500101131", "station": "復興南路1段340巷口", "total_bikes": 38, "left_bikes": 28 }, "geometry": { "type": "Point", "coordinates": [ 121.5435, 25.037 ] } },
{ "type": "Feature", "properties": { "station_id": "TPE500101132", "station": "建國濟南路口", "total_bikes": 29, "left_bikes": 3 }, "geometry": { "type": "Point", "coordinates": [ 121.5383, 25.0394 ] } },
{ "type": "Feature", "properties": { "station_id": "TPE500101133", "station": "捷運忠孝復興站(2號出口)", "total_bikes": 48, "left_bikes": 12 }, "geometry": { "type": "Point", "coordinates": [ 121.5436, 25.0404 ] } },
{ "type": "Feature", "properties": { "station_id": "TPE500101134", "station": "捷運大安站(4號出口)", "total_bikes": 13, "left_bikes": 0 }, "geometry": { "type": "Point", "coordinates": [ 121.5439, 25.0332 ] } },
{ "type": "Feature", "properties": { "station_id": "TPE500101135", "station": "捷運大安站(2號出口)", "total_bikes": 22, "left_bikes": 13 }, "geometry": { "type": "Point", "coordinates": [ 121.5414, 25.0336 ] } },
{ "type": "Feature", "properties": { "station_id": "TPE500101136", "station": "信義大安路口(信維大樓)", "total_bikes": 12, "left_bikes": 5 }, "geometry": { "type": "Point", "coordinates": [ 121.5464, 25.0332 ] } },
{ "type": "Feature", "properties": { "station_id": "TPE500101137", "station": "龍門廣場", "total_bikes": 50, "left_bikes": 34 }, "geometry": { "type": "Point", "coordinates": [ 121.5483, 25.0409 ] } },
{ "type": "Feature", "properties": { "station_id": "TPE500101138", "station": "仁愛安和路口", "total_bikes": 20, "left_bikes": 18 }, "geometry": { "type": "Point", "coordinates": [ 121.5529, 25.0375 ] } },
{ "type": "Feature", "properties": { "station_id": "TPE500101139", "station": "信義敦化路口", "total_bikes": 42, "left_bikes": 26 }, "geometry": { "type": "Point", "coordinates": [ 121.5498, 25.0333 ] } },
{ "type": "Feature", "properties": { "station_id": "TPE500101140", "station": "仁愛國中", "total_bikes": 25, "left_bikes": 13 }, "geometry": { "type": "Point", "coordinates": [ 121.5517, 25.0371 ] } },
{ "type": "Feature", "properties": { "station_id": "TPE500101141", "station": "捷運信義安和站(2號出口)", "total_bikes": 26, "left_bikes": 1 }, "geometry": { "type": "Point", "coordinates": [ 121.5517, 25.033 ] } },
{ "type": "Feature", "properties": { "station_id": "TPE500101142", "station": "八德市場", "total_bikes": 30, "left_bikes": 4 }, "geometry": { "type": "Point", "coordinates": [ 121.5367, 25.0446 ] } },
{ "type": "Feature", "properties": { "station_id": "TPE500101143", "station": "昌隆公園", "total_bikes": 16, "left_bikes": 14 }, "geometry": { "type": "Point", "coordinates": [ 121.5395, 25.0445 ] } },
{ "type": "Feature", "properties": { "station_id": "TPE500101144", "station": "捷運大安森林公園站(2號出口)", "total_bikes": 62, "left_bikes": 8 }, "geometry": { "type": "Point", "coordinates": [ 121.5344, 25.0333 ] } },
{ "type": "Feature", "properties": { "station_id": "TPE500101145", "station": "信義延吉街口", "total_bikes": 15, "left_bikes": 6 }, "geometry": { "type": "Point", "coordinates": [ 121.5573, 25.0332 ] } },
{ "type": "Feature", "properties": { "station_id": "TPE500101146", "station": "光信公園(光復南路456巷)", "total_bikes": 15, "left_bikes": 5 }, "geometry": { "type": "Point", "coordinates": [ 121.5561, 25.0351 ] } },
{ "type": "Feature", "properties": { "station_id": "TPE500101147", "station": "僑安地下停車場(2號出口)東南側", "total_bikes": 20, "left_bikes": 13 }, "geometry": { "type": "Point", "coordinates": [ 121.5569, 25.0391 ] } },
{ "type": "Feature", "properties": { "station_id": "TPE500101148", "station": "建國南路一段279巷口", "total_bikes": 32, "left_bikes": 17 }, "geometry": { "type": "Point", "coordinates": [ 121.5383, 25.0364 ] } },
{ "type": "Feature", "properties": { "station_id": "TPE500101149", "station": "捷運忠孝新生站(6號出口)", "total_bikes": 15, "left_bikes": 2 }, "geometry": { "type": "Point", "coordinates": [ 121.533, 25.0409 ] } },
{ "type": "Feature", "properties": { "station_id": "TPE500101150", "station": "捷運忠孝新生站(4號出口)", "total_bikes": 35, "left_bikes": 19 }, "geometry": { "type": "Point", "coordinates": [ 121.5332, 25.0424 ] } },
{ "type": "Feature", "properties": { "station_id": "TPE500101151", "station": "大安高工", "total_bikes": 23, "left_bikes": 18 }, "geometry": { "type": "Point", "coordinates": [ 121.5434, 25.0313 ] } },
{ "type": "Feature", "properties": { "station_id": "TPE500101152", "station": "捷運忠孝新生站(3號出口)", "total_bikes": 23, "left_bikes": 1 }, "geometry": { "type": "Point", "coordinates": [ 121.5338, 25.0419 ] } },
{ "type": "Feature", "properties": { "station_id": "TPE500101153", "station": "瑠公公園", "total_bikes": 20, "left_bikes": 14 }, "geometry": { "type": "Point", "coordinates": [ 121.5461, 25.042 ] } },
{ "type": "Feature", "properties": { "station_id": "TPE500101154", "station": "敦化市民路口", "total_bikes": 23, "left_bikes": 17 }, "geometry": { "type": "Point", "coordinates": [ 121.5486, 25.0441 ] } },
{ "type": "Feature", "properties": { "station_id": "TPE500101155", "station": "捷運大安森林公園站(5號出口)", "total_bikes": 15, "left_bikes": 0 }, "geometry": { "type": "Point", "coordinates": [ 121.5364, 25.0334 ] } },
{ "type": "Feature", "properties": { "station_id": "TPE500101156", "station": "信義建國路口", "total_bikes": 34, "left_bikes": 0 }, "geometry": { "type": "Point", "coordinates": [ 121.5375, 25.0328 ] } },
{ "type": "Feature", "properties": { "station_id": "TPE500101157", "station": "東豐公園", "total_bikes": 19, "left_bikes": 17 }, "geometry": { "type": "Point", "coordinates": [ 121.5451, 25.0357 ] } },
{ "type": "Feature", "properties": { "station_id": "TPE500101158", "station": "德安公園(四維路66巷)", "total_bikes": 14, "left_bikes": 14 }, "geometry": { "type": "Point", "coordinates": [ 121.5477, 25.0347 ] } },
{ "type": "Feature", "properties": { "station_id": "TPE500101159", "station": "捷運忠孝復興站(5號出口)", "total_bikes": 41, "left_bikes": 13 }, "geometry": { "type": "Point", "coordinates": [ 121.5444, 25.0426 ] } },
{ "type": "Feature", "properties": { "station_id": "TPE500101160", "station": "捷運忠孝敦化站(2號出口)", "total_bikes": 17, "left_bikes": 8 }, "geometry": { "type": "Point", "coordinates": [ 121.5524, 25.0415 ] } },
{ "type": "Feature", "properties": { "station_id": "TPE500101161", "station": "捷運忠孝敦化站(7號出口)", "total_bikes": 18, "left_bikes": 1 }, "geometry": { "type": "Point", "coordinates": [ 121.5494, 25.0416 ] } },
{ "type": "Feature", "properties": { "station_id": "TPE500101163", "station": "瑞安街208巷", "total_bikes": 15, "left_bikes": 1 }, "geometry": { "type": "Point", "coordinates": [ 121.5405, 25.0298 ] } },
{ "type": "Feature", "properties": { "station_id": "TPE500101165", "station": "樂利路21巷口", "total_bikes": 17, "left_bikes": 1 }, "geometry": { "type": "Point", "coordinates": [ 121.5513, 25.0277 ] } },
{ "type": "Feature", "properties": { "station_id": "TPE500101166", "station": "捷運科技大樓站(台北教育大學)", "total_bikes": 46, "left_bikes": 41 }, "geometry": { "type": "Point", "coordinates": [ 121.5446, 25.0247 ] } },
{ "type": "Feature", "properties": { "station_id": "TPE500101167", "station": "捷運國父紀念館站(2號出口)", "total_bikes": 31, "left_bikes": 5 }, "geometry": { "type": "Point", "coordinates": [ 121.5575, 25.0412 ] } },
{ "type": "Feature", "properties": { "station_id": "TPE500101168", "station": "仁愛醫院", "total_bikes": 27, "left_bikes": 24 }, "geometry": { "type": "Point", "coordinates": [ 121.5459, 25.0376 ] } },
{ "type": "Feature", "properties": { "station_id": "TPE500101169", "station": "捷運信義安和站(4號出口)", "total_bikes": 18, "left_bikes": 8 }, "geometry": { "type": "Point", "coordinates": [ 121.5538, 25.0331 ] } },
{ "type": "Feature", "properties": { "station_id": "TPE500101170", "station": "成功國宅", "total_bikes": 28, "left_bikes": 3 }, "geometry": { "type": "Point", "coordinates": [ 121.5467, 25.0268 ] } },
{ "type": "Feature", "properties": { "station_id": "TPE500101171", "station": "仁愛延吉街口", "total_bikes": 23, "left_bikes": 15 }, "geometry": { "type": "Point", "coordinates": [ 121.5556, 25.0375 ] } },
{ "type": "Feature", "properties": { "station_id": "TPE500101172", "station": "捷運信義安和站(1號出口)", "total_bikes": 23, "left_bikes": 4 }, "geometry": { "type": "Point", "coordinates": [ 121.5527, 25.0333 ] } },
{ "type": "Feature", "properties": { "station_id": "TPE500101173", "station": "敦化南路二段103巷口", "total_bikes": 12, "left_bikes": 5 }, "geometry": { "type": "Point", "coordinates": [ 121.549, 25.0287 ] } },
{ "type": "Feature", "properties": { "station_id": "TPE500101174", "station": "復興南路二段128巷口", "total_bikes": 24, "left_bikes": 15 }, "geometry": { "type": "Point", "coordinates": [ 121.5434, 25.0286 ] } },
{ "type": "Feature", "properties": { "station_id": "TPE500101175", "station": "和平東建國南路口", "total_bikes": 17, "left_bikes": 7 }, "geometry": { "type": "Point", "coordinates": [ 121.5377, 25.0258 ] } },
{ "type": "Feature", "properties": { "station_id": "TPE500101176", "station": "芳蘭山莊", "total_bikes": 16, "left_bikes": 4 }, "geometry": { "type": "Point", "coordinates": [ 121.5479, 25.0122 ] } },
{ "type": "Feature", "properties": { "station_id": "TPE500101177", "station": "復興南路一段126巷口", "total_bikes": 15, "left_bikes": 5 }, "geometry": { "type": "Point", "coordinates": [ 121.5431, 25.0431 ] } },
{ "type": "Feature", "properties": { "station_id": "TPE500101179", "station": "捷運東門站(5號出口)", "total_bikes": 28, "left_bikes": 5 }, "geometry": { "type": "Point", "coordinates": [ 121.5296, 25.0336 ] } },
{ "type": "Feature", "properties": { "station_id": "TPE500101180", "station": "仁愛路四段48巷口", "total_bikes": 11, "left_bikes": 8 }, "geometry": { "type": "Point", "coordinates": [ 121.5471, 25.0361 ] } },
{ "type": "Feature", "properties": { "station_id": "TPE500101181", "station": "捷運公館站(3號出口)", "total_bikes": 90, "left_bikes": 25 }, "geometry": { "type": "Point", "coordinates": [ 121.5337, 25.0155 ] } },
{ "type": "Feature", "properties": { "station_id": "TPE500101182", "station": "臺北科技大學(電機工程系)", "total_bikes": 16, "left_bikes": 5 }, "geometry": { "type": "Point", "coordinates": [ 121.5365, 25.042 ] } },
{ "type": "Feature", "properties": { "station_id": "TPE500101183", "station": "忠孝東路三段217巷口", "total_bikes": 34, "left_bikes": 19 }, "geometry": { "type": "Point", "coordinates": [ 121.5403, 25.0418 ] } },
{ "type": "Feature", "properties": { "station_id": "TPE500101184", "station": "新生南路三段94巷口", "total_bikes": 15, "left_bikes": 5 }, "geometry": { "type": "Point", "coordinates": [ 121.5333, 25.0174 ] } },
{ "type": "Feature", "properties": { "station_id": "TPE500101185", "station": "辛亥新生路口西北側", "total_bikes": 12, "left_bikes": 4 }, "geometry": { "type": "Point", "coordinates": [ 121.5341, 25.0227 ] } },
{ "type": "Feature", "properties": { "station_id": "TPE500101186", "station": "捷運大安站(6號出口)", "total_bikes": 19, "left_bikes": 9 }, "geometry": { "type": "Point", "coordinates": [ 121.5438, 25.0348 ] } },
{ "type": "Feature", "properties": { "station_id": "TPE500101187", "station": "臥龍街195巷口", "total_bikes": 14, "left_bikes": 6 }, "geometry": { "type": "Point", "coordinates": [ 121.5522, 25.0178 ] } },
{ "type": "Feature", "properties": { "station_id": "TPE500101188", "station": "辛亥路三段157巷口", "total_bikes": 19, "left_bikes": 0 }, "geometry": { "type": "Point", "coordinates": [ 121.549, 25.0173 ] } },
{ "type": "Feature", "properties": { "station_id": "TPE500101189", "station": "臥龍基隆路口", "total_bikes": 16, "left_bikes": 14 }, "geometry": { "type": "Point", "coordinates": [ 121.5485, 25.0204 ] } },
{ "type": "Feature", "properties": { "station_id": "TPE500101190", "station": "敦親公園", "total_bikes": 16, "left_bikes": 6 }, "geometry": { "type": "Point", "coordinates": [ 121.5411, 25.0235 ] } },
{ "type": "Feature", "properties": { "station_id": "TPE500101191", "station": "大安運動中心", "total_bikes": 24, "left_bikes": 18 }, "geometry": { "type": "Point", "coordinates": [ 121.5456, 25.0205 ] } },
{ "type": "Feature", "properties": { "station_id": "TPE500101192", "station": "和平敦化路口", "total_bikes": 22, "left_bikes": 12 }, "geometry": { "type": "Point", "coordinates": [ 121.5491, 25.0244 ] } },
{ "type": "Feature", "properties": { "station_id": "TPE500101193", "station": "基隆長興路口", "total_bikes": 43, "left_bikes": 16 }, "geometry": { "type": "Point", "coordinates": [ 121.5444, 25.0171 ] } },
{ "type": "Feature", "properties": { "station_id": "TPE500101194", "station": "仁愛路四段122巷口", "total_bikes": 16, "left_bikes": 15 }, "geometry": { "type": "Point", "coordinates": [ 121.5501, 25.0376 ] } },
{ "type": "Feature", "properties": { "station_id": "TPE500101196", "station": "市民敦化路口", "total_bikes": 15, "left_bikes": 8 }, "geometry": { "type": "Point", "coordinates": [ 121.5494, 25.0446 ] } },
{ "type": "Feature", "properties": { "station_id": "TPE500101197", "station": "忠孝東路四段49巷口", "total_bikes": 15, "left_bikes": 8 }, "geometry": { "type": "Point", "coordinates": [ 121.5454, 25.0417 ] } },
{ "type": "Feature", "properties": { "station_id": "TPE500101198", "station": "市民復興路口(東南側)", "total_bikes": 16, "left_bikes": 9 }, "geometry": { "type": "Point", "coordinates": [ 121.544, 25.0447 ] } },
{ "type": "Feature", "properties": { "station_id": "TPE500101199", "station": "和平新生路口西南側", "total_bikes": 13, "left_bikes": 11 }, "geometry": { "type": "Point", "coordinates": [ 121.5345, 25.026 ] } },
{ "type": "Feature", "properties": { "station_id": "TPE500101200", "station": "全安公園", "total_bikes": 16, "left_bikes": 9 }, "geometry": { "type": "Point", "coordinates": [ 121.551, 25.0254 ] } },
{ "type": "Feature", "properties": { "station_id": "TPE500101201", "station": "信義路三段134巷口", "total_bikes": 19, "left_bikes": 12 }, "geometry": { "type": "Point", "coordinates": [ 121.5397, 25.0333 ] } },
{ "type": "Feature", "properties": { "station_id": "TPE500101202", "station": "仁愛敦南圓環(東南側)", "total_bikes": 17, "left_bikes": 9 }, "geometry": { "type": "Point", "coordinates": [ 121.5494, 25.0372 ] } },
{ "type": "Feature", "properties": { "station_id": "TPE500101203", "station": "臺北遠企購物中心", "total_bikes": 33, "left_bikes": 9 }, "geometry": { "type": "Point", "coordinates": [ 121.549, 25.0271 ] } },
{ "type": "Feature", "properties": { "station_id": "TPE500101204", "station": "外交部外交及國際事務學院", "total_bikes": 17, "left_bikes": 11 }, "geometry": { "type": "Point", "coordinates": [ 121.5484, 25.0371 ] } },
{ "type": "Feature", "properties": { "station_id": "TPE500101205", "station": "四維路170巷口", "total_bikes": 22, "left_bikes": 19 }, "geometry": { "type": "Point", "coordinates": [ 121.5486, 25.0282 ] } },
{ "type": "Feature", "properties": { "station_id": "TPE500101206", "station": "捷運大安站(3號出口)", "total_bikes": 34, "left_bikes": 0 }, "geometry": { "type": "Point", "coordinates": [ 121.5425, 25.0333 ] } },
{ "type": "Feature", "properties": { "station_id": "TPE500101207", "station": "捷運臺電大樓站(2號出口)", "total_bikes": 15, "left_bikes": 0 }, "geometry": { "type": "Point", "coordinates": [ 121.5286, 25.0206 ] } },
{ "type": "Feature", "properties": { "station_id": "TPE500101208", "station": "信義路四段199巷", "total_bikes": 16, "left_bikes": 12 }, "geometry": { "type": "Point", "coordinates": [ 121.5516, 25.0346 ] } },
{ "type": "Feature", "properties": { "station_id": "TPE500101209", "station": "臺大資訊大樓", "total_bikes": 40, "left_bikes": 27 }, "geometry": { "type": "Point", "coordinates": [ 121.5415, 25.021 ] } },
{ "type": "Feature", "properties": { "station_id": "TPE500101210", "station": "敦化南路二段81巷", "total_bikes": 40, "left_bikes": 28 }, "geometry": { "type": "Point", "coordinates": [ 121.5489, 25.03 ] } },
{ "type": "Feature", "properties": { "station_id": "TPE500101211", "station": "原臺北刑務所官舍", "total_bikes": 23, "left_bikes": 7 }, "geometry": { "type": "Point", "coordinates": [ 121.5247, 25.0305 ] } },
{ "type": "Feature", "properties": { "station_id": "TPE500101212", "station": "捷運國父紀念館站(1號出口)", "total_bikes": 25, "left_bikes": 11 }, "geometry": { "type": "Point", "coordinates": [ 121.5566, 25.0421 ] } },
{ "type": "Feature", "properties": { "station_id": "TPE500101213", "station": "懷生國中", "total_bikes": 15, "left_bikes": 7 }, "geometry": { "type": "Point", "coordinates": [ 121.5412, 25.0401 ] } },
{ "type": "Feature", "properties": { "station_id": "TPE500101214", "station": "仁愛敦南圓環(西北側)", "total_bikes": 20, "left_bikes": 20 }, "geometry": { "type": "Point", "coordinates": [ 121.548, 25.0383 ] } },
{ "type": "Feature", "properties": { "station_id": "TPE500101215", "station": "立人國小", "total_bikes": 17, "left_bikes": 6 }, "geometry": { "type": "Point", "coordinates": [ 121.5515, 25.0297 ] } },
{ "type": "Feature", "properties": { "station_id": "TPE500101216", "station": "和平東路二段18巷口", "total_bikes": 24, "left_bikes": 18 }, "geometry": { "type": "Point", "coordinates": [ 121.5361, 25.0227 ] } },
{ "type": "Feature", "properties": { "station_id": "TPE500101217", "station": "捷運大安站(5號出口)", "total_bikes": 0, "left_bikes": 0 }, "geometry": { "type": "Point", "coordinates": [ 121.5437, 25.033 ] } },
{ "type": "Feature", "properties": { "station_id": "TPE500101218", "station": "臨江公園", "total_bikes": 0, "left_bikes": 0 }, "geometry": { "type": "Point", "coordinates": [ 121.5559, 25.0283 ] } },
{ "type": "Feature", "properties": { "station_id": "TPE500101219", "station": "羅斯福路四段113巷19弄口", "total_bikes": 0, "left_bikes": 0 }, "geometry": { "type": "Point", "coordinates": [ 121.54, 25.0103 ] } },
{ "type": "Feature", "properties": { "station_id": "TPE500101221", "station": "忠孝東路四段248巷口", "total_bikes": 0, "left_bikes": 0 }, "geometry": { "type": "Point", "coordinates": [ 121.5539, 25.0413 ] } },
{ "type": "Feature", "properties": { "station_id": "TPE500101222", "station": "仁愛延吉路口(西北側)", "total_bikes": 0, "left_bikes": 0 }, "geometry": { "type": "Point", "coordinates": [ 121.5547, 25.038 ] } },
{ "type": "Feature", "properties": { "station_id": "TPE500101223", "station": "樂利路101巷口", "total_bikes": 0, "left_bikes": 0 }, "geometry": { "type": "Point", "coordinates": [ 121.5522, 25.0253 ] } },
{ "type": "Feature", "properties": { "station_id": "TPE500101224", "station": "羅斯福浦城街口", "total_bikes": 0, "left_bikes": 0 }, "geometry": { "type": "Point", "coordinates": [ 121.5268, 25.0221 ] } },
{ "type": "Feature", "properties": { "station_id": "TPE500103001", "station": "延平國宅", "total_bikes": 30, "left_bikes": 14 }, "geometry": { "type": "Point", "coordinates": [ 121.5112, 25.0789 ] } },
{ "type": "Feature", "properties": { "station_id": "TPE500103002", "station": "臺北市立圖書館大同分館", "total_bikes": 20, "left_bikes": 1 }, "geometry": { "type": "Point", "coordinates": [ 121.5135, 25.0741 ] } },
{ "type": "Feature", "properties": { "station_id": "TPE500103003", "station": "合昌宮", "total_bikes": 15, "left_bikes": 3 }, "geometry": { "type": "Point", "coordinates": [ 121.5093, 25.0772 ] } },
{ "type": "Feature", "properties": { "station_id": "TPE500103004", "station": "民族延平路口", "total_bikes": 19, "left_bikes": 1 }, "geometry": { "type": "Point", "coordinates": [ 121.5107, 25.0686 ] } },
{ "type": "Feature", "properties": { "station_id": "TPE500103005", "station": "重慶酒泉街口", "total_bikes": 30, "left_bikes": 1 }, "geometry": { "type": "Point", "coordinates": [ 121.5137, 25.0716 ] } },
{ "type": "Feature", "properties": { "station_id": "TPE500103006", "station": "樹德公園", "total_bikes": 14, "left_bikes": 0 }, "geometry": { "type": "Point", "coordinates": [ 121.5165, 25.0665 ] } },
{ "type": "Feature", "properties": { "station_id": "TPE500103007", "station": "陳天來故居", "total_bikes": 18, "left_bikes": 11 }, "geometry": { "type": "Point", "coordinates": [ 121.509, 25.056 ] } },
{ "type": "Feature", "properties": { "station_id": "TPE500103008", "station": "臺北孔廟", "total_bikes": 27, "left_bikes": 2 }, "geometry": { "type": "Point", "coordinates": [ 121.5158, 25.0738 ] } },
{ "type": "Feature", "properties": { "station_id": "TPE500103009", "station": "捷運圓山站(1號出口)", "total_bikes": 44, "left_bikes": 0 }, "geometry": { "type": "Point", "coordinates": [ 121.5202, 25.0713 ] } },
{ "type": "Feature", "properties": { "station_id": "TPE500103010", "station": "酒泉延平路口", "total_bikes": 26, "left_bikes": 14 }, "geometry": { "type": "Point", "coordinates": [ 121.5106, 25.0722 ] } },
{ "type": "Feature", "properties": { "station_id": "TPE500103011", "station": "重慶國中", "total_bikes": 37, "left_bikes": 3 }, "geometry": { "type": "Point", "coordinates": [ 121.5186, 25.0757 ] } },
{ "type": "Feature", "properties": { "station_id": "TPE500103012", "station": "重慶北路三段383巷口", "total_bikes": 25, "left_bikes": 7 }, "geometry": { "type": "Point", "coordinates": [ 121.5141, 25.076 ] } },
{ "type": "Feature", "properties": { "station_id": "TPE500103013", "station": "台北數位產業園區", "total_bikes": 24, "left_bikes": 1 }, "geometry": { "type": "Point", "coordinates": [ 121.52, 25.0745 ] } },
{ "type": "Feature", "properties": { "station_id": "TPE500103019", "station": "民權延平路口(西北側)", "total_bikes": 20, "left_bikes": 1 }, "geometry": { "type": "Point", "coordinates": [ 121.511, 25.0633 ] } },
{ "type": "Feature", "properties": { "station_id": "TPE500103020", "station": "民權迪化街口", "total_bikes": 23, "left_bikes": 3 }, "geometry": { "type": "Point", "coordinates": [ 121.5094, 25.0633 ] } },
{ "type": "Feature", "properties": { "station_id": "TPE500104071", "station": "聖山綠地", "total_bikes": 15, "left_bikes": 8 }, "geometry": { "type": "Point", "coordinates": [ 121.5323, 25.107 ] } },
{ "type": "Feature", "properties": { "station_id": "TPE500103021", "station": "大稻埕公園", "total_bikes": 25, "left_bikes": 3 }, "geometry": { "type": "Point", "coordinates": [ 121.5103, 25.0592 ] } },
{ "type": "Feature", "properties": { "station_id": "TPE500103022", "station": "大龍老人住宅", "total_bikes": 14, "left_bikes": 2 }, "geometry": { "type": "Point", "coordinates": [ 121.5173, 25.0685 ] } },
{ "type": "Feature", "properties": { "station_id": "TPE500103023", "station": "大龍峒社會住宅", "total_bikes": 20, "left_bikes": 1 }, "geometry": { "type": "Point", "coordinates": [ 121.5183, 25.0708 ] } },
{ "type": "Feature", "properties": { "station_id": "TPE500103024", "station": "捷運大橋頭站(2號出口)", "total_bikes": 57, "left_bikes": 5 }, "geometry": { "type": "Point", "coordinates": [ 121.5131, 25.0631 ] } },
{ "type": "Feature", "properties": { "station_id": "TPE500103025", "station": "捷運大橋頭站(1A出口)", "total_bikes": 18, "left_bikes": 2 }, "geometry": { "type": "Point", "coordinates": [ 121.5116, 25.0633 ] } },
{ "type": "Feature", "properties": { "station_id": "TPE500103026", "station": "捷運民權西路站(2號出口)", "total_bikes": 25, "left_bikes": 0 }, "geometry": { "type": "Point", "coordinates": [ 121.5197, 25.0617 ] } },
{ "type": "Feature", "properties": { "station_id": "TPE500103027", "station": "捷運雙連站(2號出口)", "total_bikes": 31, "left_bikes": 4 }, "geometry": { "type": "Point", "coordinates": [ 121.5206, 25.0583 ] } },
{ "type": "Feature", "properties": { "station_id": "TPE500103028", "station": "捷運北門站(3號出口)", "total_bikes": 52, "left_bikes": 20 }, "geometry": { "type": "Point", "coordinates": [ 121.5104, 25.0499 ] } },
{ "type": "Feature", "properties": { "station_id": "TPE500103029", "station": "朝陽公園", "total_bikes": 10, "left_bikes": 3 }, "geometry": { "type": "Point", "coordinates": [ 121.5137, 25.0559 ] } },
{ "type": "Feature", "properties": { "station_id": "TPE500103030", "station": "永樂市場", "total_bikes": 30, "left_bikes": 21 }, "geometry": { "type": "Point", "coordinates": [ 121.5105, 25.0545 ] } },
{ "type": "Feature", "properties": { "station_id": "TPE500103031", "station": "大龍公園", "total_bikes": 18, "left_bikes": 0 }, "geometry": { "type": "Point", "coordinates": [ 121.516, 25.0705 ] } },
{ "type": "Feature", "properties": { "station_id": "TPE500103032", "station": "重慶涼州街口", "total_bikes": 13, "left_bikes": 9 }, "geometry": { "type": "Point", "coordinates": [ 121.5134, 25.0605 ] } },
{ "type": "Feature", "properties": { "station_id": "TPE500103033", "station": "圓山線形公園", "total_bikes": 14, "left_bikes": 0 }, "geometry": { "type": "Point", "coordinates": [ 121.5199, 25.0687 ] } },
{ "type": "Feature", "properties": { "station_id": "TPE500103034", "station": "圓環站", "total_bikes": 25, "left_bikes": 19 }, "geometry": { "type": "Point", "coordinates": [ 121.5142, 25.0537 ] } },
{ "type": "Feature", "properties": { "station_id": "TPE500103035", "station": "重慶民族路口", "total_bikes": 17, "left_bikes": 2 }, "geometry": { "type": "Point", "coordinates": [ 121.5136, 25.0685 ] } },
{ "type": "Feature", "properties": { "station_id": "TPE500103036", "station": "承德路三段8巷口", "total_bikes": 10, "left_bikes": 7 }, "geometry": { "type": "Point", "coordinates": [ 121.5182, 25.0641 ] } },
{ "type": "Feature", "properties": { "station_id": "TPE500103037", "station": "太原廣場", "total_bikes": 31, "left_bikes": 10 }, "geometry": { "type": "Point", "coordinates": [ 121.5147, 25.0493 ] } },
{ "type": "Feature", "properties": { "station_id": "TPE500103038", "station": "國順公園", "total_bikes": 20, "left_bikes": 7 }, "geometry": { "type": "Point", "coordinates": [ 121.5108, 25.0659 ] } },
{ "type": "Feature", "properties": { "station_id": "TPE500103039", "station": "聯合醫院中興院區", "total_bikes": 27, "left_bikes": 13 }, "geometry": { "type": "Point", "coordinates": [ 121.5082, 25.0521 ] } },
{ "type": "Feature", "properties": { "station_id": "TPE500103040", "station": "蔣渭水紀念公園", "total_bikes": 24, "left_bikes": 7 }, "geometry": { "type": "Point", "coordinates": [ 121.5173, 25.0601 ] } },
{ "type": "Feature", "properties": { "station_id": "TPE500103041", "station": "迪化休閒運動公園", "total_bikes": 15, "left_bikes": 3 }, "geometry": { "type": "Point", "coordinates": [ 121.5115, 25.0749 ] } },
{ "type": "Feature", "properties": { "station_id": "TPE500103042", "station": "大同運動中心", "total_bikes": 16, "left_bikes": 0 }, "geometry": { "type": "Point", "coordinates": [ 121.5161, 25.065 ] } },
{ "type": "Feature", "properties": { "station_id": "TPE500103043", "station": "重慶保安街口(家樂福重慶店)", "total_bikes": 20, "left_bikes": 3 }, "geometry": { "type": "Point", "coordinates": [ 121.5137, 25.0592 ] } },
{ "type": "Feature", "properties": { "station_id": "TPE500103044", "station": "大稻埕碼頭", "total_bikes": 35, "left_bikes": 1 }, "geometry": { "type": "Point", "coordinates": [ 121.5078, 25.0566 ] } },
{ "type": "Feature", "properties": { "station_id": "TPE500103045", "station": "歸綏戲曲公園", "total_bikes": 20, "left_bikes": 3 }, "geometry": { "type": "Point", "coordinates": [ 121.5135, 25.0581 ] } },
{ "type": "Feature", "properties": { "station_id": "TPE500103046", "station": "民權國中(民權西路)", "total_bikes": 17, "left_bikes": 0 }, "geometry": { "type": "Point", "coordinates": [ 121.5144, 25.0632 ] } },
{ "type": "Feature", "properties": { "station_id": "TPE500103047", "station": "承德民權路口", "total_bikes": 17, "left_bikes": 6 }, "geometry": { "type": "Point", "coordinates": [ 121.5184, 25.0625 ] } },
{ "type": "Feature", "properties": { "station_id": "TPE500103048", "station": "南京太原路口", "total_bikes": 18, "left_bikes": 10 }, "geometry": { "type": "Point", "coordinates": [ 121.5164, 25.0537 ] } },
{ "type": "Feature", "properties": { "station_id": "TPE500103049", "station": "承德民生西路口", "total_bikes": 11, "left_bikes": 2 }, "geometry": { "type": "Point", "coordinates": [ 121.5183, 25.0576 ] } },
{ "type": "Feature", "properties": { "station_id": "TPE500103050", "station": "太原五原路口", "total_bikes": 20, "left_bikes": 4 }, "geometry": { "type": "Point", "coordinates": [ 121.517, 25.0565 ] } },
{ "type": "Feature", "properties": { "station_id": "TPE500103051", "station": "臺北轉運站(華陰街)", "total_bikes": 20, "left_bikes": 17 }, "geometry": { "type": "Point", "coordinates": [ 121.5191, 25.0494 ] } },
{ "type": "Feature", "properties": { "station_id": "TPE500103052", "station": "捷運民權西路站(3號出口)", "total_bikes": 42, "left_bikes": 13 }, "geometry": { "type": "Point", "coordinates": [ 121.5202, 25.0613 ] } },
{ "type": "Feature", "properties": { "station_id": "TPE500103053", "station": "捷運中山站(5號出口)", "total_bikes": 11, "left_bikes": 6 }, "geometry": { "type": "Point", "coordinates": [ 121.5194, 25.053 ] } },
{ "type": "Feature", "properties": { "station_id": "TPE500103054", "station": "重慶長安路口", "total_bikes": 15, "left_bikes": 4 }, "geometry": { "type": "Point", "coordinates": [ 121.514, 25.0515 ] } },
{ "type": "Feature", "properties": { "station_id": "TPE500103055", "station": "承德昌吉街口", "total_bikes": 18, "left_bikes": 0 }, "geometry": { "type": "Point", "coordinates": [ 121.5185, 25.0659 ] } },
{ "type": "Feature", "properties": { "station_id": "TPE500103056", "station": "大同16號廣場", "total_bikes": 14, "left_bikes": 5 }, "geometry": { "type": "Point", "coordinates": [ 121.5083, 25.0566 ] } },
{ "type": "Feature", "properties": { "station_id": "TPE500103057", "station": "捷運圓山站(2號出口)", "total_bikes": 27, "left_bikes": 4 }, "geometry": { "type": "Point", "coordinates": [ 121.5193, 25.0718 ] } },
{ "type": "Feature", "properties": { "station_id": "TPE500103058", "station": "樹德公園", "total_bikes": 14, "left_bikes": 0 }, "geometry": { "type": "Point", "coordinates": [ 121.5162, 25.0667 ] } },
{ "type": "Feature", "properties": { "station_id": "TPE500103059", "station": "承德鄭州路口(市民高架下)", "total_bikes": 38, "left_bikes": 6 }, "geometry": { "type": "Point", "coordinates": [ 121.5163, 25.0488 ] } },
{ "type": "Feature", "properties": { "station_id": "TPE500103060", "station": "成淵高中", "total_bikes": 14, "left_bikes": 2 }, "geometry": { "type": "Point", "coordinates": [ 121.52, 25.0604 ] } },
{ "type": "Feature", "properties": { "station_id": "TPE500103061", "station": "雙蓮國小", "total_bikes": 20, "left_bikes": 5 }, "geometry": { "type": "Point", "coordinates": [ 121.5168, 25.0616 ] } },
{ "type": "Feature", "properties": { "station_id": "TPE500103062", "station": "寧夏涼州街口", "total_bikes": 15, "left_bikes": 2 }, "geometry": { "type": "Point", "coordinates": [ 121.5143, 25.0609 ] } },
{ "type": "Feature", "properties": { "station_id": "TPE500103063", "station": "延平涼州街口", "total_bikes": 14, "left_bikes": 0 }, "geometry": { "type": "Point", "coordinates": [ 121.5113, 25.0609 ] } },
{ "type": "Feature", "properties": { "station_id": "TPE500104001", "station": "劍潭抽水站", "total_bikes": 17, "left_bikes": 10 }, "geometry": { "type": "Point", "coordinates": [ 121.5178, 25.0813 ] } },
{ "type": "Feature", "properties": { "station_id": "TPE500104002", "station": "通河東街大南路口", "total_bikes": 15, "left_bikes": 8 }, "geometry": { "type": "Point", "coordinates": [ 121.5154, 25.0891 ] } },
{ "type": "Feature", "properties": { "station_id": "TPE500104003", "station": "福港街停車場", "total_bikes": 22, "left_bikes": 6 }, "geometry": { "type": "Point", "coordinates": [ 121.519, 25.087 ] } },
{ "type": "Feature", "properties": { "station_id": "TPE500104004", "station": "百齡國小", "total_bikes": 47, "left_bikes": 16 }, "geometry": { "type": "Point", "coordinates": [ 121.5192, 25.0852 ] } },
{ "type": "Feature", "properties": { "station_id": "TPE500104005", "station": "雨聲街165巷口", "total_bikes": 15, "left_bikes": 2 }, "geometry": { "type": "Point", "coordinates": [ 121.5336, 25.1028 ] } },
{ "type": "Feature", "properties": { "station_id": "TPE500104006", "station": "天和公園", "total_bikes": 13, "left_bikes": 11 }, "geometry": { "type": "Point", "coordinates": [ 121.5334, 25.12 ] } },
{ "type": "Feature", "properties": { "station_id": "TPE500104007", "station": "中山天母路口", "total_bikes": 29, "left_bikes": 21 }, "geometry": { "type": "Point", "coordinates": [ 121.5296, 25.1186 ] } },
{ "type": "Feature", "properties": { "station_id": "TPE500104008", "station": "天母運動公園", "total_bikes": 27, "left_bikes": 6 }, "geometry": { "type": "Point", "coordinates": [ 121.5341, 25.1163 ] } },
{ "type": "Feature", "properties": { "station_id": "TPE500104009", "station": "臺北市立大學(天母校區)", "total_bikes": 23, "left_bikes": 1 }, "geometry": { "type": "Point", "coordinates": [ 121.5372, 25.1136 ] } },
{ "type": "Feature", "properties": { "station_id": "TPE500104010", "station": "忠誠路二段53巷", "total_bikes": 18, "left_bikes": 7 }, "geometry": { "type": "Point", "coordinates": [ 121.5324, 25.1113 ] } },
{ "type": "Feature", "properties": { "station_id": "TPE500104012", "station": "天母棒球場", "total_bikes": 26, "left_bikes": 5 }, "geometry": { "type": "Point", "coordinates": [ 121.532, 25.1134 ] } },
{ "type": "Feature", "properties": { "station_id": "TPE500104013", "station": "天母北天玉街口", "total_bikes": 15, "left_bikes": 6 }, "geometry": { "type": "Point", "coordinates": [ 121.5265, 25.1201 ] } },
{ "type": "Feature", "properties": { "station_id": "TPE500104014", "station": "蘭興公園", "total_bikes": 48, "left_bikes": 30 }, "geometry": { "type": "Point", "coordinates": [ 121.5259, 25.1118 ] } },
{ "type": "Feature", "properties": { "station_id": "TPE500104015", "station": "明勝公園", "total_bikes": 14, "left_bikes": 7 }, "geometry": { "type": "Point", "coordinates": [ 121.519, 25.0801 ] } },
{ "type": "Feature", "properties": { "station_id": "TPE500104016", "station": "劍潭海外青年活動中心", "total_bikes": 23, "left_bikes": 10 }, "geometry": { "type": "Point", "coordinates": [ 121.5243, 25.0799 ] } },
{ "type": "Feature", "properties": { "station_id": "TPE500104018", "station": "忠誠路一段173巷口", "total_bikes": 11, "left_bikes": 6 }, "geometry": { "type": "Point", "coordinates": [ 121.5304, 25.1081 ] } },
{ "type": "Feature", "properties": { "station_id": "TPE500104019", "station": "雨農國小", "total_bikes": 32, "left_bikes": 16 }, "geometry": { "type": "Point", "coordinates": [ 121.5292, 25.1056 ] } },
{ "type": "Feature", "properties": { "station_id": "TPE500104020", "station": "忠誠公園", "total_bikes": 14, "left_bikes": 8 }, "geometry": { "type": "Point", "coordinates": [ 121.5259, 25.104 ] } },
{ "type": "Feature", "properties": { "station_id": "TPE500104021", "station": "芝山抽水站", "total_bikes": 21, "left_bikes": 11 }, "geometry": { "type": "Point", "coordinates": [ 121.5283, 25.1016 ] } },
{ "type": "Feature", "properties": { "station_id": "TPE500104022", "station": "至誠路一段305巷口", "total_bikes": 21, "left_bikes": 6 }, "geometry": { "type": "Point", "coordinates": [ 121.5308, 25.1019 ] } },
{ "type": "Feature", "properties": { "station_id": "TPE500104023", "station": "華齡公園", "total_bikes": 25, "left_bikes": 9 }, "geometry": { "type": "Point", "coordinates": [ 121.5207, 25.083 ] } },
{ "type": "Feature", "properties": { "station_id": "TPE500104024", "station": "前港公園(福德宮)", "total_bikes": 18, "left_bikes": 1 }, "geometry": { "type": "Point", "coordinates": [ 121.521, 25.0867 ] } },
{ "type": "Feature", "properties": { "station_id": "TPE500104025", "station": "華齡街185巷口", "total_bikes": 12, "left_bikes": 0 }, "geometry": { "type": "Point", "coordinates": [ 121.5199, 25.0883 ] } },
{ "type": "Feature", "properties": { "station_id": "TPE500104026", "station": "前港公園(前港街)", "total_bikes": 19, "left_bikes": 8 }, "geometry": { "type": "Point", "coordinates": [ 121.5213, 25.0848 ] } },
{ "type": "Feature", "properties": { "station_id": "TPE500104027", "station": "百齡高中", "total_bikes": 15, "left_bikes": 3 }, "geometry": { "type": "Point", "coordinates": [ 121.5227, 25.0874 ] } },
{ "type": "Feature", "properties": { "station_id": "TPE500104028", "station": "捷運芝山站(2號出口)", "total_bikes": 21, "left_bikes": 8 }, "geometry": { "type": "Point", "coordinates": [ 121.5222, 25.1036 ] } },
{ "type": "Feature", "properties": { "station_id": "TPE500104029", "station": "臺灣戲曲中心", "total_bikes": 14, "left_bikes": 4 }, "geometry": { "type": "Point", "coordinates": [ 121.5198, 25.1021 ] } },
{ "type": "Feature", "properties": { "station_id": "TPE500104030", "station": "捷運劍潭站(2號出口)", "total_bikes": 71, "left_bikes": 28 }, "geometry": { "type": "Point", "coordinates": [ 121.5246, 25.0829 ] } },
{ "type": "Feature", "properties": { "station_id": "TPE500104031", "station": "劍潭基河路口", "total_bikes": 20, "left_bikes": 9 }, "geometry": { "type": "Point", "coordinates": [ 121.5249, 25.084 ] } },
{ "type": "Feature", "properties": { "station_id": "TPE500104032", "station": "志成公園", "total_bikes": 23, "left_bikes": 0 }, "geometry": { "type": "Point", "coordinates": [ 121.5321, 25.0967 ] } },
{ "type": "Feature", "properties": { "station_id": "TPE500104033", "station": "福林國小", "total_bikes": 14, "left_bikes": 10 }, "geometry": { "type": "Point", "coordinates": [ 121.5303, 25.099 ] } },
{ "type": "Feature", "properties": { "station_id": "TPE500104034", "station": "中山中正路口", "total_bikes": 19, "left_bikes": 7 }, "geometry": { "type": "Point", "coordinates": [ 121.5275, 25.0965 ] } },
{ "type": "Feature", "properties": { "station_id": "TPE500104035", "station": "士林運動中心", "total_bikes": 27, "left_bikes": 5 }, "geometry": { "type": "Point", "coordinates": [ 121.5215, 25.0891 ] } },
{ "type": "Feature", "properties": { "station_id": "TPE500104036", "station": "陽明高中", "total_bikes": 36, "left_bikes": 13 }, "geometry": { "type": "Point", "coordinates": [ 121.5171, 25.0916 ] } },
{ "type": "Feature", "properties": { "station_id": "TPE500104037", "station": "兒童新樂園", "total_bikes": 23, "left_bikes": 7 }, "geometry": { "type": "Point", "coordinates": [ 121.5145, 25.0963 ] } },
{ "type": "Feature", "properties": { "station_id": "TPE500104038", "station": "臺北市立天文館", "total_bikes": 31, "left_bikes": 7 }, "geometry": { "type": "Point", "coordinates": [ 121.5178, 25.096 ] } },
{ "type": "Feature", "properties": { "station_id": "TPE500104039", "station": "華聲公園", "total_bikes": 27, "left_bikes": 2 }, "geometry": { "type": "Point", "coordinates": [ 121.5223, 25.0962 ] } },
{ "type": "Feature", "properties": { "station_id": "TPE500104040", "station": "福林公園", "total_bikes": 17, "left_bikes": 9 }, "geometry": { "type": "Point", "coordinates": [ 121.5283, 25.0942 ] } },
{ "type": "Feature", "properties": { "station_id": "TPE500104041", "station": "捷運士林站(2號出口)", "total_bikes": 30, "left_bikes": 5 }, "geometry": { "type": "Point", "coordinates": [ 121.5264, 25.0934 ] } },
{ "type": "Feature", "properties": { "station_id": "TPE500104042", "station": "銘傳大學", "total_bikes": 30, "left_bikes": 0 }, "geometry": { "type": "Point", "coordinates": [ 121.5268, 25.0877 ] } },
{ "type": "Feature", "properties": { "station_id": "TPE500104043", "station": "士林高商", "total_bikes": 26, "left_bikes": 14 }, "geometry": { "type": "Point", "coordinates": [ 121.517, 25.0944 ] } },
{ "type": "Feature", "properties": { "station_id": "TPE500104044", "station": "蘭雅公園", "total_bikes": 29, "left_bikes": 8 }, "geometry": { "type": "Point", "coordinates": [ 121.5304, 25.1099 ] } },
{ "type": "Feature", "properties": { "station_id": "TPE500104045", "station": "聯合醫院陽明院區", "total_bikes": 15, "left_bikes": 7 }, "geometry": { "type": "Point", "coordinates": [ 121.532, 25.1046 ] } },
{ "type": "Feature", "properties": { "station_id": "TPE500104046", "station": "捷運芝山站(1號出口)", "total_bikes": 36, "left_bikes": 2 }, "geometry": { "type": "Point", "coordinates": [ 121.5229, 25.1023 ] } },
{ "type": "Feature", "properties": { "station_id": "TPE500104047", "station": "至誠公園", "total_bikes": 15, "left_bikes": 11 }, "geometry": { "type": "Point", "coordinates": [ 121.5359, 25.1014 ] } },
{ "type": "Feature", "properties": { "station_id": "TPE500104048", "station": "原住民文化主題公園", "total_bikes": 21, "left_bikes": 9 }, "geometry": { "type": "Point", "coordinates": [ 121.5516, 25.1011 ] } },
{ "type": "Feature", "properties": { "station_id": "TPE500104049", "station": "通河東街2段10巷口", "total_bikes": 15, "left_bikes": 5 }, "geometry": { "type": "Point", "coordinates": [ 121.515, 25.0911 ] } },
{ "type": "Feature", "properties": { "station_id": "TPE500104050", "station": "梅林新村", "total_bikes": 15, "left_bikes": 7 }, "geometry": { "type": "Point", "coordinates": [ 121.5404, 25.0975 ] } },
{ "type": "Feature", "properties": { "station_id": "TPE500104051", "station": "延平北中正路口", "total_bikes": 30, "left_bikes": 8 }, "geometry": { "type": "Point", "coordinates": [ 121.5095, 25.0868 ] } },
{ "type": "Feature", "properties": { "station_id": "TPE500104052", "station": "重慶北路四段190巷口", "total_bikes": 13, "left_bikes": 5 }, "geometry": { "type": "Point", "coordinates": [ 121.5117, 25.0851 ] } },
{ "type": "Feature", "properties": { "station_id": "TPE500104053", "station": "重慶北葫東街口", "total_bikes": 15, "left_bikes": 10 }, "geometry": { "type": "Point", "coordinates": [ 121.5117, 25.0839 ] } },
{ "type": "Feature", "properties": { "station_id": "TPE500104054", "station": "葫蘆國小", "total_bikes": 20, "left_bikes": 8 }, "geometry": { "type": "Point", "coordinates": [ 121.5075, 25.0825 ] } },
{ "type": "Feature", "properties": { "station_id": "TPE500104055", "station": "士林3號廣場", "total_bikes": 30, "left_bikes": 4 }, "geometry": { "type": "Point", "coordinates": [ 121.5242, 25.1046 ] } },
{ "type": "Feature", "properties": { "station_id": "TPE500104056", "station": "社正公園", "total_bikes": 15, "left_bikes": 2 }, "geometry": { "type": "Point", "coordinates": [ 121.5105, 25.0882 ] } },
{ "type": "Feature", "properties": { "station_id": "TPE500104057", "station": "社子國小", "total_bikes": 15, "left_bikes": 10 }, "geometry": { "type": "Point", "coordinates": [ 121.5014, 25.0906 ] } },
{ "type": "Feature", "properties": { "station_id": "TPE500104058", "station": "社中街384巷口", "total_bikes": 18, "left_bikes": 8 }, "geometry": { "type": "Point", "coordinates": [ 121.5038, 25.0935 ] } },
{ "type": "Feature", "properties": { "station_id": "TPE500104059", "station": "忠誠路一段138號", "total_bikes": 15, "left_bikes": 10 }, "geometry": { "type": "Point", "coordinates": [ 121.5294, 25.1064 ] } },
{ "type": "Feature", "properties": { "station_id": "TPE500104060", "station": "社子公園", "total_bikes": 14, "left_bikes": 7 }, "geometry": { "type": "Point", "coordinates": [ 121.5062, 25.0902 ] } },
{ "type": "Feature", "properties": { "station_id": "TPE500104061", "station": "國立故宮博物院", "total_bikes": 17, "left_bikes": 6 }, "geometry": { "type": "Point", "coordinates": [ 121.5479, 25.0983 ] } },
{ "type": "Feature", "properties": { "station_id": "TPE500104062", "station": "泰北高中", "total_bikes": 16, "left_bikes": 9 }, "geometry": { "type": "Point", "coordinates": [ 121.534, 25.0976 ] } },
{ "type": "Feature", "properties": { "station_id": "TPE500104063", "station": "後港公園", "total_bikes": 15, "left_bikes": 6 }, "geometry": { "type": "Point", "coordinates": [ 121.5142, 25.0931 ] } },
{ "type": "Feature", "properties": { "station_id": "TPE500104064", "station": "重慶北路四段117號", "total_bikes": 18, "left_bikes": 6 }, "geometry": { "type": "Point", "coordinates": [ 121.5122, 25.0828 ] } },
{ "type": "Feature", "properties": { "station_id": "TPE500104065", "station": "社子島島頭公園", "total_bikes": 15, "left_bikes": 6 }, "geometry": { "type": "Point", "coordinates": [ 121.4664, 25.1089 ] } },
{ "type": "Feature", "properties": { "station_id": "TPE500104066", "station": "延平北路八段133巷口", "total_bikes": 15, "left_bikes": 5 }, "geometry": { "type": "Point", "coordinates": [ 121.483, 25.103 ] } },
{ "type": "Feature", "properties": { "station_id": "TPE500104067", "station": "坤天亭", "total_bikes": 14, "left_bikes": 8 }, "geometry": { "type": "Point", "coordinates": [ 121.4836, 25.1064 ] } },
{ "type": "Feature", "properties": { "station_id": "TPE500104068", "station": "社子島濕地解說小築", "total_bikes": 15, "left_bikes": 12 }, "geometry": { "type": "Point", "coordinates": [ 121.4897, 25.1131 ] } },
{ "type": "Feature", "properties": { "station_id": "TPE500104069", "station": "福安國中", "total_bikes": 11, "left_bikes": 5 }, "geometry": { "type": "Point", "coordinates": [ 121.4882, 25.1026 ] } },
{ "type": "Feature", "properties": { "station_id": "TPE500104070", "station": "福安消防分隊", "total_bikes": 15, "left_bikes": 8 }, "geometry": { "type": "Point", "coordinates": [ 121.4971, 25.0967 ] } },
{ "type": "Feature", "properties": { "station_id": "TPE500104072", "station": "芝山國小", "total_bikes": 30, "left_bikes": 18 }, "geometry": { "type": "Point", "coordinates": [ 121.536, 25.1104 ] } },
{ "type": "Feature", "properties": { "station_id": "TPE500104073", "station": "士林新天地", "total_bikes": 19, "left_bikes": 8 }, "geometry": { "type": "Point", "coordinates": [ 121.5175, 25.089 ] } },
{ "type": "Feature", "properties": { "station_id": "TPE500104074", "station": "蘭雅國小", "total_bikes": 27, "left_bikes": 7 }, "geometry": { "type": "Point", "coordinates": [ 121.5231, 25.1078 ] } },
{ "type": "Feature", "properties": { "station_id": "TPE500104075", "station": "中正基河路口", "total_bikes": 28, "left_bikes": 9 }, "geometry": { "type": "Point", "coordinates": [ 121.5196, 25.0933 ] } },
{ "type": "Feature", "properties": { "station_id": "TPE500104076", "station": "福林公園(中正路)", "total_bikes": 27, "left_bikes": 5 }, "geometry": { "type": "Point", "coordinates": [ 121.5301, 25.0961 ] } },
{ "type": "Feature", "properties": { "station_id": "TPE500104077", "station": "至善臨溪路口", "total_bikes": 22, "left_bikes": 7 }, "geometry": { "type": "Point", "coordinates": [ 121.5423, 25.0971 ] } },
{ "type": "Feature", "properties": { "station_id": "TPE500104078", "station": "市立圖書館葫蘆堵分館", "total_bikes": 13, "left_bikes": 4 }, "geometry": { "type": "Point", "coordinates": [ 121.5107, 25.0822 ] } },
{ "type": "Feature", "properties": { "station_id": "TPE500104079", "station": "東山路110巷口", "total_bikes": 16, "left_bikes": 12 }, "geometry": { "type": "Point", "coordinates": [ 121.5395, 25.1131 ] } },
{ "type": "Feature", "properties": { "station_id": "TPE500104080", "station": "永平社會住宅", "total_bikes": 15, "left_bikes": 5 }, "geometry": { "type": "Point", "coordinates": [ 121.5031, 25.0889 ] } },
{ "type": "Feature", "properties": { "station_id": "TPE500104081", "station": "雨農橋", "total_bikes": 16, "left_bikes": 5 }, "geometry": { "type": "Point", "coordinates": [ 121.5325, 25.1001 ] } },
{ "type": "Feature", "properties": { "station_id": "TPE500104082", "station": "通河街76巷/承德路四段10巷口", "total_bikes": 14, "left_bikes": 3 }, "geometry": { "type": "Point", "coordinates": [ 121.5202, 25.0802 ] } },
{ "type": "Feature", "properties": { "station_id": "TPE500104083", "station": "芝山聖佑宮", "total_bikes": 15, "left_bikes": 5 }, "geometry": { "type": "Point", "coordinates": [ 121.5303, 25.1046 ] } },
{ "type": "Feature", "properties": { "station_id": "TPE500104084", "station": "至誠雨聲街口", "total_bikes": 10, "left_bikes": 5 }, "geometry": { "type": "Point", "coordinates": [ 121.5293, 25.102 ] } },
{ "type": "Feature", "properties": { "station_id": "TPE500104085", "station": "捷運線型公園(後街)", "total_bikes": 13, "left_bikes": 7 }, "geometry": { "type": "Point", "coordinates": [ 121.5245, 25.0981 ] } },
{ "type": "Feature", "properties": { "station_id": "TPE500104086", "station": "天母公園", "total_bikes": 12, "left_bikes": 8 }, "geometry": { "type": "Point", "coordinates": [ 121.53, 25.1241 ] } },
{ "type": "Feature", "properties": { "station_id": "TPE500104087", "station": "基河文林路口", "total_bikes": 16, "left_bikes": 9 }, "geometry": { "type": "Point", "coordinates": [ 121.5247, 25.0864 ] } },
{ "type": "Feature", "properties": { "station_id": "TPE500104088", "station": "文林福華路口", "total_bikes": 19, "left_bikes": 4 }, "geometry": { "type": "Point", "coordinates": [ 121.5224, 25.1009 ] } },
{ "type": "Feature", "properties": { "station_id": "TPE500104089", "station": "劍潭海外青年活動中心", "total_bikes": 23, "left_bikes": 10 }, "geometry": { "type": "Point", "coordinates": [ 121.5237, 25.0796 ] } },
{ "type": "Feature", "properties": { "station_id": "TPE500104090", "station": "社子國小", "total_bikes": 15, "left_bikes": 10 }, "geometry": { "type": "Point", "coordinates": [ 121.5019, 25.0903 ] } },
{ "type": "Feature", "properties": { "station_id": "TPE500104091", "station": "捷運劍潭站(1號出口)", "total_bikes": 70, "left_bikes": 10 }, "geometry": { "type": "Point", "coordinates": [ 121.5253, 25.0858 ] } },
{ "type": "Feature", "properties": { "station_id": "TPE500104092", "station": "德行東山路口", "total_bikes": 12, "left_bikes": 9 }, "geometry": { "type": "Point", "coordinates": [ 121.54, 25.1107 ] } },
{ "type": "Feature", "properties": { "station_id": "TPE500104094", "station": "重慶北通河西街口", "total_bikes": 12, "left_bikes": 2 }, "geometry": { "type": "Point", "coordinates": [ 121.5118, 25.0876 ] } },
{ "type": "Feature", "properties": { "station_id": "TPE500104095", "station": "葫蘆國小(延平北路五段285巷)", "total_bikes": 15, "left_bikes": 7 }, "geometry": { "type": "Point", "coordinates": [ 121.5067, 25.0841 ] } },
{ "type": "Feature", "properties": { "station_id": "TPE500104096", "station": "社子市場", "total_bikes": 15, "left_bikes": 2 }, "geometry": { "type": "Point", "coordinates": [ 121.5087, 25.0881 ] } },
{ "type": "Feature", "properties": { "station_id": "TPE500104097", "station": "士林區農會社子分部", "total_bikes": 8, "left_bikes": 5 }, "geometry": { "type": "Point", "coordinates": [ 121.5049, 25.0891 ] } },
{ "type": "Feature", "properties": { "station_id": "TPE500104098", "station": "承德劍潭路口", "total_bikes": 19, "left_bikes": 18 }, "geometry": { "type": "Point", "coordinates": [ 121.5234, 25.0841 ] } },
{ "type": "Feature", "properties": { "station_id": "TPE500104099", "station": "文林路101巷口", "total_bikes": 12, "left_bikes": 4 }, "geometry": { "type": "Point", "coordinates": [ 121.5261, 25.0876 ] } },
{ "type": "Feature", "properties": { "station_id": "TPE500104100", "station": "延平北路五段257巷15弄口", "total_bikes": 13, "left_bikes": 5 }, "geometry": { "type": "Point", "coordinates": [ 121.5096, 25.0841 ] } },
{ "type": "Feature", "properties": { "station_id": "TPE500104101", "station": "延平北路五段257巷4弄口", "total_bikes": 15, "left_bikes": 6 }, "geometry": { "type": "Point", "coordinates": [ 121.5089, 25.0847 ] } },
{ "type": "Feature", "properties": { "station_id": "TPE500104102", "station": "啟明學校", "total_bikes": 16, "left_bikes": 9 }, "geometry": { "type": "Point", "coordinates": [ 121.5347, 25.1174 ] } },
{ "type": "Feature", "properties": { "station_id": "TPE500104103", "station": "中山福國路口", "total_bikes": 14, "left_bikes": 10 }, "geometry": { "type": "Point", "coordinates": [ 121.5256, 25.102 ] } },
{ "type": "Feature", "properties": { "station_id": "TPE500104104", "station": "德行公園", "total_bikes": 14, "left_bikes": 5 }, "geometry": { "type": "Point", "coordinates": [ 121.5238, 25.1059 ] } },
{ "type": "Feature", "properties": { "station_id": "TPE500104105", "station": "承德後港街口", "total_bikes": 11, "left_bikes": 6 }, "geometry": { "type": "Point", "coordinates": [ 121.5231, 25.0824 ] } },
{ "type": "Feature", "properties": { "station_id": "TPE500104106", "station": "中山北路五段698巷口", "total_bikes": 15, "left_bikes": 3 }, "geometry": { "type": "Point", "coordinates": [ 121.5276, 25.0977 ] } },
{ "type": "Feature", "properties": { "station_id": "TPE500104107", "station": "捷運士林站(1號出口)", "total_bikes": 38, "left_bikes": 12 }, "geometry": { "type": "Point", "coordinates": [ 121.5255, 25.0956 ] } },
{ "type": "Feature", "properties": { "station_id": "TPE500104108", "station": "捷運芝山站(2號出口)", "total_bikes": 21, "left_bikes": 8 }, "geometry": { "type": "Point", "coordinates": [ 121.5226, 25.1034 ] } },
{ "type": "Feature", "properties": { "station_id": "TPE500104109", "station": "銘傳大學(中山北路五段280巷口)", "total_bikes": 23, "left_bikes": 4 }, "geometry": { "type": "Point", "coordinates": [ 121.5271, 25.0876 ] } },
{ "type": "Feature", "properties": { "station_id": "TPE500104110", "station": "海光公園南側", "total_bikes": 14, "left_bikes": 8 }, "geometry": { "type": "Point", "coordinates": [ 121.5084, 25.0804 ] } },
{ "type": "Feature", "properties": { "station_id": "TPE500104111", "station": "士商路40巷口", "total_bikes": 15, "left_bikes": 8 }, "geometry": { "type": "Point", "coordinates": [ 121.5205, 25.0901 ] } },
{ "type": "Feature", "properties": { "station_id": "TPE500104112", "station": "劍潭郵局", "total_bikes": 16, "left_bikes": 10 }, "geometry": { "type": "Point", "coordinates": [ 121.5243, 25.0818 ] } },
{ "type": "Feature", "properties": { "station_id": "TPE500104113", "station": "士東路91巷口", "total_bikes": 16, "left_bikes": 7 }, "geometry": { "type": "Point", "coordinates": [ 121.5291, 25.1125 ] } },
{ "type": "Feature", "properties": { "station_id": "TPE500104114", "station": "美崙公園", "total_bikes": 13, "left_bikes": 9 }, "geometry": { "type": "Point", "coordinates": [ 121.5193, 25.0968 ] } },
{ "type": "Feature", "properties": { "station_id": "TPE500104115", "station": "臺北市立大學(忠誠路二段207巷)", "total_bikes": 0, "left_bikes": 0 }, "geometry": { "type": "Point", "coordinates": [ 121.5374, 25.1164 ] } },
{ "type": "Feature", "properties": { "station_id": "TPE500104116", "station": "天母東路8巷/忠誠路二段154巷口", "total_bikes": 0, "left_bikes": 0 }, "geometry": { "type": "Point", "coordinates": [ 121.5311, 25.1158 ] } },
{ "type": "Feature", "properties": { "station_id": "TPE500104117", "station": "美崙公園(東北側)", "total_bikes": 0, "left_bikes": 0 }, "geometry": { "type": "Point", "coordinates": [ 121.5184, 25.0989 ] } },
{ "type": "Feature", "properties": { "station_id": "TPE500105001", "station": "台北花木批發市場", "total_bikes": 32, "left_bikes": 8 }, "geometry": { "type": "Point", "coordinates": [ 121.5407, 25.004 ] } },
{ "type": "Feature", "properties": { "station_id": "TPE500105002", "station": "捷運萬隆站(4號出口)", "total_bikes": 21, "left_bikes": 0 }, "geometry": { "type": "Point", "coordinates": [ 121.5386, 25.0027 ] } },
{ "type": "Feature", "properties": { "station_id": "TPE500105003", "station": "捷運萬隆站(1號出口)", "total_bikes": 26, "left_bikes": 3 }, "geometry": { "type": "Point", "coordinates": [ 121.5392, 25.0012 ] } },
{ "type": "Feature", "properties": { "station_id": "TPE500105004", "station": "萬和二號公園", "total_bikes": 26, "left_bikes": 3 }, "geometry": { "type": "Point", "coordinates": [ 121.5364, 25.0015 ] } },
{ "type": "Feature", "properties": { "station_id": "TPE500105005", "station": "捷運萬隆站(2號出口)", "total_bikes": 12, "left_bikes": 10 }, "geometry": { "type": "Point", "coordinates": [ 121.5398, 25.0014 ] } },
{ "type": "Feature", "properties": { "station_id": "TPE500105006", "station": "景仁公園", "total_bikes": 16, "left_bikes": 6 }, "geometry": { "type": "Point", "coordinates": [ 121.5404, 24.9962 ] } },
{ "type": "Feature", "properties": { "station_id": "TPE500105007", "station": "捷運景美站(2號出口)", "total_bikes": 63, "left_bikes": 8 }, "geometry": { "type": "Point", "coordinates": [ 121.5412, 24.9937 ] } },
{ "type": "Feature", "properties": { "station_id": "TPE500105008", "station": "羅斯福景隆街口", "total_bikes": 20, "left_bikes": 0 }, "geometry": { "type": "Point", "coordinates": [ 121.5403, 24.999 ] } },
{ "type": "Feature", "properties": { "station_id": "TPE500105009", "station": "景福街/羅斯福路6段142巷口", "total_bikes": 28, "left_bikes": 9 }, "geometry": { "type": "Point", "coordinates": [ 121.5366, 24.9981 ] } },
{ "type": "Feature", "properties": { "station_id": "TPE500105010", "station": "興旺公園", "total_bikes": 30, "left_bikes": 11 }, "geometry": { "type": "Point", "coordinates": [ 121.5501, 25.0059 ] } },
{ "type": "Feature", "properties": { "station_id": "TPE500105011", "station": "興福國中", "total_bikes": 25, "left_bikes": 15 }, "geometry": { "type": "Point", "coordinates": [ 121.5492, 25.0047 ] } },
{ "type": "Feature", "properties": { "station_id": "TPE500105012", "station": "興隆路2段203巷", "total_bikes": 32, "left_bikes": 15 }, "geometry": { "type": "Point", "coordinates": [ 121.5471, 25.0035 ] } },
{ "type": "Feature", "properties": { "station_id": "TPE500105013", "station": "景美運動公園", "total_bikes": 11, "left_bikes": 7 }, "geometry": { "type": "Point", "coordinates": [ 121.5445, 25.0022 ] } },
{ "type": "Feature", "properties": { "station_id": "TPE500105014", "station": "景美醫院", "total_bikes": 18, "left_bikes": 2 }, "geometry": { "type": "Point", "coordinates": [ 121.5401, 24.9914 ] } },
{ "type": "Feature", "properties": { "station_id": "TPE500105015", "station": "師範大學公館校區", "total_bikes": 14, "left_bikes": 7 }, "geometry": { "type": "Point", "coordinates": [ 121.5373, 25.0079 ] } },
{ "type": "Feature", "properties": { "station_id": "TPE500105016", "station": "景華街128巷口", "total_bikes": 14, "left_bikes": 11 }, "geometry": { "type": "Point", "coordinates": [ 121.5473, 24.9954 ] } },
{ "type": "Feature", "properties": { "station_id": "TPE500105017", "station": "仙跡岩登山口(景興路)", "total_bikes": 22, "left_bikes": 9 }, "geometry": { "type": "Point", "coordinates": [ 121.5436, 24.9912 ] } },
{ "type": "Feature", "properties": { "station_id": "TPE500105018", "station": "國立政治大學", "total_bikes": 35, "left_bikes": 14 }, "geometry": { "type": "Point", "coordinates": [ 121.5773, 24.9874 ] } },
{ "type": "Feature", "properties": { "station_id": "TPE500105019", "station": "捷運動物園站", "total_bikes": 18, "left_bikes": 1 }, "geometry": { "type": "Point", "coordinates": [ 121.5799, 24.9987 ] } },
{ "type": "Feature", "properties": { "station_id": "TPE500105020", "station": "捷運木柵站", "total_bikes": 31, "left_bikes": 4 }, "geometry": { "type": "Point", "coordinates": [ 121.5746, 24.998 ] } },
{ "type": "Feature", "properties": { "station_id": "TPE500105021", "station": "捷運萬芳社區站", "total_bikes": 31, "left_bikes": 6 }, "geometry": { "type": "Point", "coordinates": [ 121.5677, 24.9989 ] } },
{ "type": "Feature", "properties": { "station_id": "TPE500105022", "station": "文山運動中心", "total_bikes": 20, "left_bikes": 9 }, "geometry": { "type": "Point", "coordinates": [ 121.5596, 24.9968 ] } },
{ "type": "Feature", "properties": { "station_id": "TPE500105023", "station": "捷運辛亥站", "total_bikes": 29, "left_bikes": 13 }, "geometry": { "type": "Point", "coordinates": [ 121.5568, 25.0047 ] } },
{ "type": "Feature", "properties": { "station_id": "TPE500105024", "station": "興豐公園", "total_bikes": 21, "left_bikes": 10 }, "geometry": { "type": "Point", "coordinates": [ 121.5476, 24.9998 ] } },
{ "type": "Feature", "properties": { "station_id": "TPE500105025", "station": "木柵光輝路口", "total_bikes": 19, "left_bikes": 2 }, "geometry": { "type": "Point", "coordinates": [ 121.5553, 24.9882 ] } },
{ "type": "Feature", "properties": { "station_id": "TPE500105026", "station": "考試院", "total_bikes": 22, "left_bikes": 3 }, "geometry": { "type": "Point", "coordinates": [ 121.5498, 24.9875 ] } },
{ "type": "Feature", "properties": { "station_id": "TPE500105027", "station": "和興路26巷口", "total_bikes": 15, "left_bikes": 7 }, "geometry": { "type": "Point", "coordinates": [ 121.5453, 24.9857 ] } },
{ "type": "Feature", "properties": { "station_id": "TPE500105028", "station": "世新大學", "total_bikes": 26, "left_bikes": 8 }, "geometry": { "type": "Point", "coordinates": [ 121.5434, 24.9886 ] } },
{ "type": "Feature", "properties": { "station_id": "TPE500105029", "station": "一壽橋", "total_bikes": 16, "left_bikes": 11 }, "geometry": { "type": "Point", "coordinates": [ 121.5555, 24.9784 ] } },
{ "type": "Feature", "properties": { "station_id": "TPE500105030", "station": "臺北市立景美女中", "total_bikes": 23, "left_bikes": 2 }, "geometry": { "type": "Point", "coordinates": [ 121.5562, 24.9806 ] } },
{ "type": "Feature", "properties": { "station_id": "TPE500105031", "station": "永安藝文館-表演36房", "total_bikes": 15, "left_bikes": 2 }, "geometry": { "type": "Point", "coordinates": [ 121.5691, 24.9841 ] } },
{ "type": "Feature", "properties": { "station_id": "TPE500105032", "station": "忠順區民活動中心", "total_bikes": 15, "left_bikes": 3 }, "geometry": { "type": "Point", "coordinates": [ 121.5633, 24.9847 ] } },
{ "type": "Feature", "properties": { "station_id": "TPE500105033", "station": "景文中學", "total_bikes": 36, "left_bikes": 17 }, "geometry": { "type": "Point", "coordinates": [ 121.5675, 24.9857 ] } },
{ "type": "Feature", "properties": { "station_id": "TPE500105034", "station": "老泉街籃球場", "total_bikes": 14, "left_bikes": 2 }, "geometry": { "type": "Point", "coordinates": [ 121.5583, 24.9762 ] } },
{ "type": "Feature", "properties": { "station_id": "TPE500105035", "station": "文山行政中心", "total_bikes": 18, "left_bikes": 13 }, "geometry": { "type": "Point", "coordinates": [ 121.5696, 24.9896 ] } },
{ "type": "Feature", "properties": { "station_id": "TPE500105036", "station": "木柵公園", "total_bikes": 25, "left_bikes": 0 }, "geometry": { "type": "Point", "coordinates": [ 121.5606, 24.9872 ] } },
{ "type": "Feature", "properties": { "station_id": "TPE500105037", "station": "興隆公共住宅D2區", "total_bikes": 19, "left_bikes": 7 }, "geometry": { "type": "Point", "coordinates": [ 121.5636, 24.9881 ] } },
{ "type": "Feature", "properties": { "station_id": "TPE500105038", "station": "木新路3段95巷口", "total_bikes": 16, "left_bikes": 2 }, "geometry": { "type": "Point", "coordinates": [ 121.5631, 24.9809 ] } },
{ "type": "Feature", "properties": { "station_id": "TPE500105039", "station": "樟腳里公園", "total_bikes": 15, "left_bikes": 2 }, "geometry": { "type": "Point", "coordinates": [ 121.5657, 24.9818 ] } },
{ "type": "Feature", "properties": { "station_id": "TPE500105040", "station": "實踐國中", "total_bikes": 14, "left_bikes": 3 }, "geometry": { "type": "Point", "coordinates": [ 121.554, 24.983 ] } },
{ "type": "Feature", "properties": { "station_id": "TPE500105041", "station": "指南路3段2巷", "total_bikes": 13, "left_bikes": 4 }, "geometry": { "type": "Point", "coordinates": [ 121.5796, 24.9854 ] } },
{ "type": "Feature", "properties": { "station_id": "TPE500105042", "station": "萊茵公園", "total_bikes": 14, "left_bikes": 3 }, "geometry": { "type": "Point", "coordinates": [ 121.5651, 24.9864 ] } },
{ "type": "Feature", "properties": { "station_id": "TPE500105043", "station": "木柵社會住宅", "total_bikes": 12, "left_bikes": 4 }, "geometry": { "type": "Point", "coordinates": [ 121.5665, 24.9894 ] } },
{ "type": "Feature", "properties": { "station_id": "TPE500105044", "station": "秀明路一段185巷口", "total_bikes": 20, "left_bikes": 10 }, "geometry": { "type": "Point", "coordinates": [ 121.5684, 24.9915 ] } },
{ "type": "Feature", "properties": { "station_id": "TPE500105045", "station": "秀明路一段129巷口", "total_bikes": 22, "left_bikes": 8 }, "geometry": { "type": "Point", "coordinates": [ 121.567, 24.9911 ] } },
{ "type": "Feature", "properties": { "station_id": "TPE500105046", "station": "恆光橋(老泉街)", "total_bikes": 13, "left_bikes": 3 }, "geometry": { "type": "Point", "coordinates": [ 121.5675, 24.9799 ] } },
{ "type": "Feature", "properties": { "station_id": "TPE500105047", "station": "萬有3號公園", "total_bikes": 14, "left_bikes": 12 }, "geometry": { "type": "Point", "coordinates": [ 121.5433, 24.9989 ] } },
{ "type": "Feature", "properties": { "station_id": "TPE500105048", "station": "捷運萬芳醫院站(興隆路三段115巷)", "total_bikes": 20, "left_bikes": 9 }, "geometry": { "type": "Point", "coordinates": [ 121.5585, 24.9994 ] } },
{ "type": "Feature", "properties": { "station_id": "TPE500105049", "station": "興得閱覽室", "total_bikes": 24, "left_bikes": 18 }, "geometry": { "type": "Point", "coordinates": [ 121.555, 24.9958 ] } },
{ "type": "Feature", "properties": { "station_id": "TPE500105050", "station": "辛亥生態公園", "total_bikes": 18, "left_bikes": 3 }, "geometry": { "type": "Point", "coordinates": [ 121.5564, 25.0035 ] } },
{ "type": "Feature", "properties": { "station_id": "TPE500105051", "station": "博嘉運動公園", "total_bikes": 12, "left_bikes": 4 }, "geometry": { "type": "Point", "coordinates": [ 121.5753, 25.0008 ] } },
{ "type": "Feature", "properties": { "station_id": "TPE500105052", "station": "國立政治大學(萬壽路)", "total_bikes": 56, "left_bikes": 3 }, "geometry": { "type": "Point", "coordinates": [ 121.5765, 24.9884 ] } },
{ "type": "Feature", "properties": { "station_id": "TPE500105053", "station": "仙岩公園", "total_bikes": 11, "left_bikes": 7 }, "geometry": { "type": "Point", "coordinates": [ 121.5498, 24.998 ] } },
{ "type": "Feature", "properties": { "station_id": "TPE500105054", "station": "政大一街口", "total_bikes": 14, "left_bikes": 7 }, "geometry": { "type": "Point", "coordinates": [ 121.5801, 24.9854 ] } },
{ "type": "Feature", "properties": { "station_id": "TPE500105055", "station": "文山第二行政中心", "total_bikes": 30, "left_bikes": 16 }, "geometry": { "type": "Point", "coordinates": [ 121.5514, 25.0012 ] } },
{ "type": "Feature", "properties": { "station_id": "TPE500105056", "station": "移民署訓練中心", "total_bikes": 13, "left_bikes": 5 }, "geometry": { "type": "Point", "coordinates": [ 121.5587, 24.9927 ] } },
{ "type": "Feature", "properties": { "station_id": "TPE500105057", "station": "海巡署(南側)", "total_bikes": 10, "left_bikes": 1 }, "geometry": { "type": "Point", "coordinates": [ 121.5595, 24.9947 ] } },
{ "type": "Feature", "properties": { "station_id": "TPE500105058", "station": "明道國小東南側", "total_bikes": 18, "left_bikes": 14 }, "geometry": { "type": "Point", "coordinates": [ 121.5646, 24.987 ] } },
{ "type": "Feature", "properties": { "station_id": "TPE500105059", "station": "木南公園", "total_bikes": 12, "left_bikes": 4 }, "geometry": { "type": "Point", "coordinates": [ 121.5707, 24.9866 ] } },
{ "type": "Feature", "properties": { "station_id": "TPE500105060", "station": "實踐國中(木新路三段310巷口)", "total_bikes": 17, "left_bikes": 3 }, "geometry": { "type": "Point", "coordinates": [ 121.5565, 24.9834 ] } },
{ "type": "Feature", "properties": { "station_id": "TPE500105061", "station": "師範大學公館校區", "total_bikes": 14, "left_bikes": 7 }, "geometry": { "type": "Point", "coordinates": [ 121.5372, 25.0075 ] } },
{ "type": "Feature", "properties": { "station_id": "TPE500105062", "station": "捷運動物園站(2號出口)", "total_bikes": 25, "left_bikes": 14 }, "geometry": { "type": "Point", "coordinates": [ 121.5788, 24.9977 ] } },
{ "type": "Feature", "properties": { "station_id": "TPE500105063", "station": "政大水岸電梯", "total_bikes": 10, "left_bikes": 5 }, "geometry": { "type": "Point", "coordinates": [ 121.5717, 24.982 ] } },
{ "type": "Feature", "properties": { "station_id": "TPE500105064", "station": "敦南山林", "total_bikes": 14, "left_bikes": 12 }, "geometry": { "type": "Point", "coordinates": [ 121.5768, 25.0026 ] } },
{ "type": "Feature", "properties": { "station_id": "TPE500105065", "station": "辛亥路五段73巷口", "total_bikes": 13, "left_bikes": 2 }, "geometry": { "type": "Point", "coordinates": [ 121.5531, 24.9981 ] } },
{ "type": "Feature", "properties": { "station_id": "TPE500105066", "station": "景美污水抽水站", "total_bikes": 15, "left_bikes": 3 }, "geometry": { "type": "Point", "coordinates": [ 121.5364, 25.0108 ] } },
{ "type": "Feature", "properties": { "station_id": "TPE500105067", "station": "萬和三號公園(北側)", "total_bikes": 13, "left_bikes": 5 }, "geometry": { "type": "Point", "coordinates": [ 121.5364, 25.0035 ] } },
{ "type": "Feature", "properties": { "station_id": "TPE500105068", "station": "景興國中", "total_bikes": 10, "left_bikes": 0 }, "geometry": { "type": "Point", "coordinates": [ 121.5428, 24.9961 ] } },
{ "type": "Feature", "properties": { "station_id": "TPE500105069", "station": "景仁公園", "total_bikes": 16, "left_bikes": 6 }, "geometry": { "type": "Point", "coordinates": [ 121.5403, 24.9966 ] } },
{ "type": "Feature", "properties": { "station_id": "TPE500105070", "station": "師大公館校區學二舍", "total_bikes": 40, "left_bikes": 13 }, "geometry": { "type": "Point", "coordinates": [ 121.5342, 25.0083 ] } },
{ "type": "Feature", "properties": { "station_id": "TPE500105071", "station": "景行公園", "total_bikes": 15, "left_bikes": 7 }, "geometry": { "type": "Point", "coordinates": [ 121.5426, 24.9928 ] } },
{ "type": "Feature", "properties": { "station_id": "TPE500105072", "station": "萬興國小", "total_bikes": 16, "left_bikes": 3 }, "geometry": { "type": "Point", "coordinates": [ 121.5768, 24.9894 ] } },
{ "type": "Feature", "properties": { "station_id": "TPE500105073", "station": "辛亥路四段77巷口", "total_bikes": 14, "left_bikes": 8 }, "geometry": { "type": "Point", "coordinates": [ 121.5588, 25.0074 ] } },
{ "type": "Feature", "properties": { "station_id": "TPE500105074", "station": "景興路42巷口", "total_bikes": 12, "left_bikes": 0 }, "geometry": { "type": "Point", "coordinates": [ 121.5445, 24.997 ] } },
{ "type": "Feature", "properties": { "station_id": "TPE500105075", "station": "木柵路三段48巷", "total_bikes": 15, "left_bikes": 3 }, "geometry": { "type": "Point", "coordinates": [ 121.5657, 24.9877 ] } },
{ "type": "Feature", "properties": { "station_id": "TPE500105076", "station": "木柵路二段109巷", "total_bikes": 15, "left_bikes": 4 }, "geometry": { "type": "Point", "coordinates": [ 121.562, 24.9894 ] } },
{ "type": "Feature", "properties": { "station_id": "TPE500105077", "station": "試院公園", "total_bikes": 15, "left_bikes": 11 }, "geometry": { "type": "Point", "coordinates": [ 121.5472, 24.9881 ] } },
{ "type": "Feature", "properties": { "station_id": "TPE500105080", "station": "萬美萬安街口", "total_bikes": 0, "left_bikes": 0 }, "geometry": { "type": "Point", "coordinates": [ 121.5704, 25.0022 ] } },
{ "type": "Feature", "properties": { "station_id": "TPE500105081", "station": "興隆路二段203巷(敦南)", "total_bikes": 0, "left_bikes": 0 }, "geometry": { "type": "Point", "coordinates": [ 121.5486, 25.002 ] } },
{ "type": "Feature", "properties": { "station_id": "TPE500105082", "station": "新光秀明路口", "total_bikes": 0, "left_bikes": 0 }, "geometry": { "type": "Point", "coordinates": [ 121.5737, 24.992 ] } },
{ "type": "Feature", "properties": { "station_id": "TPE500106001", "station": "臺北自來水事業處", "total_bikes": 20, "left_bikes": 3 }, "geometry": { "type": "Point", "coordinates": [ 121.5307, 25.0137 ] } },
{ "type": "Feature", "properties": { "station_id": "TPE500106002", "station": "汀州思源街口東南側", "total_bikes": 20, "left_bikes": 6 }, "geometry": { "type": "Point", "coordinates": [ 121.5319, 25.0147 ] } },
{ "type": "Feature", "properties": { "station_id": "TPE500106003", "station": "捷運公館站(1號出口)", "total_bikes": 12, "left_bikes": 3 }, "geometry": { "type": "Point", "coordinates": [ 121.5344, 25.0145 ] } },
{ "type": "Feature", "properties": { "station_id": "TPE500106004", "station": "捷運公館站(4號出口)", "total_bikes": 12, "left_bikes": 0 }, "geometry": { "type": "Point", "coordinates": [ 121.5338, 25.0151 ] } },
{ "type": "Feature", "properties": { "station_id": "TPE500106005", "station": "捷運古亭站(9號出口)", "total_bikes": 20, "left_bikes": 16 }, "geometry": { "type": "Point", "coordinates": [ 121.5222, 25.0269 ] } },
{ "type": "Feature", "properties": { "station_id": "TPE500106006", "station": "捷運古亭站(2號出口)", "total_bikes": 41, "left_bikes": 25 }, "geometry": { "type": "Point", "coordinates": [ 121.5235, 25.0255 ] } },
{ "type": "Feature", "properties": { "station_id": "TPE500106007", "station": "捷運臺電大樓站(1號出口)", "total_bikes": 34, "left_bikes": 19 }, "geometry": { "type": "Point", "coordinates": [ 121.529, 25.0197 ] } },
{ "type": "Feature", "properties": { "station_id": "TPE500106008", "station": "客家文化主題公園", "total_bikes": 15, "left_bikes": 5 }, "geometry": { "type": "Point", "coordinates": [ 121.5246, 25.0207 ] } },
{ "type": "Feature", "properties": { "station_id": "TPE500106009", "station": "河堤國小", "total_bikes": 27, "left_bikes": 18 }, "geometry": { "type": "Point", "coordinates": [ 121.5229, 25.0228 ] } },
{ "type": "Feature", "properties": { "station_id": "TPE500106010", "station": "紀州庵", "total_bikes": 25, "left_bikes": 5 }, "geometry": { "type": "Point", "coordinates": [ 121.5205, 25.0209 ] } },
{ "type": "Feature", "properties": { "station_id": "TPE500106011", "station": "捷運臺電大樓站(5號出口)", "total_bikes": 14, "left_bikes": 9 }, "geometry": { "type": "Point", "coordinates": [ 121.5277, 25.0208 ] } },
{ "type": "Feature", "properties": { "station_id": "TPE500106012", "station": "捷運臺電大樓站(4號出口)", "total_bikes": 13, "left_bikes": 3 }, "geometry": { "type": "Point", "coordinates": [ 121.5275, 25.021 ] } },
{ "type": "Feature", "properties": { "station_id": "TPE500106013", "station": "羅斯福三段金門街口", "total_bikes": 15, "left_bikes": 8 }, "geometry": { "type": "Point", "coordinates": [ 121.525, 25.0235 ] } },
{ "type": "Feature", "properties": { "station_id": "TPE500106014", "station": "牯嶺公園", "total_bikes": 40, "left_bikes": 25 }, "geometry": { "type": "Point", "coordinates": [ 121.5189, 25.0234 ] } },
{ "type": "Feature", "properties": { "station_id": "TPE500106015", "station": "捷運古亭站(8號出口)", "total_bikes": 15, "left_bikes": 13 }, "geometry": { "type": "Point", "coordinates": [ 121.5216, 25.027 ] } },
{ "type": "Feature", "properties": { "station_id": "TPE500106016", "station": "捷運古亭站(7號出口)", "total_bikes": 12, "left_bikes": 1 }, "geometry": { "type": "Point", "coordinates": [ 121.5216, 25.0281 ] } },
{ "type": "Feature", "properties": { "station_id": "TPE500106017", "station": "南昌公園", "total_bikes": 41, "left_bikes": 16 }, "geometry": { "type": "Point", "coordinates": [ 121.5208, 25.027 ] } },
{ "type": "Feature", "properties": { "station_id": "TPE500106018", "station": "和平重慶路口", "total_bikes": 46, "left_bikes": 12 }, "geometry": { "type": "Point", "coordinates": [ 121.5166, 25.0272 ] } },
{ "type": "Feature", "properties": { "station_id": "TPE500106019", "station": "孫立人將軍官邸", "total_bikes": 23, "left_bikes": 10 }, "geometry": { "type": "Point", "coordinates": [ 121.5185, 25.0293 ] } },
{ "type": "Feature", "properties": { "station_id": "TPE500106020", "station": "羅斯福路二段6巷口", "total_bikes": 14, "left_bikes": 5 }, "geometry": { "type": "Point", "coordinates": [ 121.5206, 25.0292 ] } },
{ "type": "Feature", "properties": { "station_id": "TPE500106021", "station": "金華杭州南路口", "total_bikes": 21, "left_bikes": 9 }, "geometry": { "type": "Point", "coordinates": [ 121.5221, 25.031 ] } },
{ "type": "Feature", "properties": { "station_id": "TPE500106022", "station": "捷運中正紀念堂站(3號出口)", "total_bikes": 18, "left_bikes": 3 }, "geometry": { "type": "Point", "coordinates": [ 121.5187, 25.0324 ] } },
{ "type": "Feature", "properties": { "station_id": "TPE500106023", "station": "捷運中正紀念堂站(4號出口)", "total_bikes": 21, "left_bikes": 16 }, "geometry": { "type": "Point", "coordinates": [ 121.5177, 25.0338 ] } },
{ "type": "Feature", "properties": { "station_id": "TPE500106024", "station": "重慶南海路口西南側", "total_bikes": 16, "left_bikes": 12 }, "geometry": { "type": "Point", "coordinates": [ 121.5146, 25.0312 ] } },
{ "type": "Feature", "properties": { "station_id": "TPE500106025", "station": "螢橋國小", "total_bikes": 32, "left_bikes": 15 }, "geometry": { "type": "Point", "coordinates": [ 121.514, 25.0263 ] } },
{ "type": "Feature", "properties": { "station_id": "TPE500106026", "station": "古亭智慧圖書館", "total_bikes": 14, "left_bikes": 2 }, "geometry": { "type": "Point", "coordinates": [ 121.5105, 25.0254 ] } },
{ "type": "Feature", "properties": { "station_id": "TPE500106027", "station": "永昌公園", "total_bikes": 15, "left_bikes": 7 }, "geometry": { "type": "Point", "coordinates": [ 121.5094, 25.0264 ] } },
{ "type": "Feature", "properties": { "station_id": "TPE500106028", "station": "中華路二段409巷口", "total_bikes": 15, "left_bikes": 7 }, "geometry": { "type": "Point", "coordinates": [ 121.5081, 25.026 ] } },
{ "type": "Feature", "properties": { "station_id": "TPE500106029", "station": "南機場夜市(中華路二段)", "total_bikes": 41, "left_bikes": 20 }, "geometry": { "type": "Point", "coordinates": [ 121.5052, 25.0289 ] } },
{ "type": "Feature", "properties": { "station_id": "TPE500106030", "station": "南海和平路口西南側", "total_bikes": 19, "left_bikes": 11 }, "geometry": { "type": "Point", "coordinates": [ 121.509, 25.0302 ] } },
{ "type": "Feature", "properties": { "station_id": "TPE500106031", "station": "莒光和平路口", "total_bikes": 20, "left_bikes": 0 }, "geometry": { "type": "Point", "coordinates": [ 121.5075, 25.0313 ] } },
{ "type": "Feature", "properties": { "station_id": "TPE500106037", "station": "水源路11-1號旁", "total_bikes": 19, "left_bikes": 6 }, "geometry": { "type": "Point", "coordinates": [ 121.5257, 25.016 ] } },
{ "type": "Feature", "properties": { "station_id": "TPE500106038", "station": "南門國中", "total_bikes": 29, "left_bikes": 21 }, "geometry": { "type": "Point", "coordinates": [ 121.5083, 25.0354 ] } },
{ "type": "Feature", "properties": { "station_id": "TPE500106039", "station": "捷運小南門站(2號出口)", "total_bikes": 18, "left_bikes": 17 }, "geometry": { "type": "Point", "coordinates": [ 121.5101, 25.0357 ] } },
{ "type": "Feature", "properties": { "station_id": "TPE500106040", "station": "介壽公園", "total_bikes": 23, "left_bikes": 11 }, "geometry": { "type": "Point", "coordinates": [ 121.5138, 25.0391 ] } },
{ "type": "Feature", "properties": { "station_id": "TPE500106041", "station": "中華貴陽街口", "total_bikes": 20, "left_bikes": 12 }, "geometry": { "type": "Point", "coordinates": [ 121.5077, 25.0394 ] } },
{ "type": "Feature", "properties": { "station_id": "TPE500106042", "station": "華山文創園區", "total_bikes": 39, "left_bikes": 11 }, "geometry": { "type": "Point", "coordinates": [ 121.5285, 25.0437 ] } },
{ "type": "Feature", "properties": { "station_id": "TPE500106043", "station": "捷運善導寺站(1號出口)", "total_bikes": 33, "left_bikes": 15 }, "geometry": { "type": "Point", "coordinates": [ 121.5222, 25.0453 ] } },
{ "type": "Feature", "properties": { "station_id": "TPE500106044", "station": "濟南紹興路口", "total_bikes": 39, "left_bikes": 6 }, "geometry": { "type": "Point", "coordinates": [ 121.5246, 25.0419 ] } },
{ "type": "Feature", "properties": { "station_id": "TPE500106046", "station": "林森仁愛路口", "total_bikes": 13, "left_bikes": 2 }, "geometry": { "type": "Point", "coordinates": [ 121.5216, 25.0392 ] } },
{ "type": "Feature", "properties": { "station_id": "TPE500106047", "station": "中正運動中心", "total_bikes": 28, "left_bikes": 12 }, "geometry": { "type": "Point", "coordinates": [ 121.5199, 25.0379 ] } },
{ "type": "Feature", "properties": { "station_id": "TPE500106048", "station": "信義杭州路口", "total_bikes": 47, "left_bikes": 31 }, "geometry": { "type": "Point", "coordinates": [ 121.5241, 25.0357 ] } },
{ "type": "Feature", "properties": { "station_id": "TPE500106049", "station": "捷運善導寺站(3號出口)", "total_bikes": 20, "left_bikes": 0 }, "geometry": { "type": "Point", "coordinates": [ 121.5234, 25.0443 ] } },
{ "type": "Feature", "properties": { "station_id": "TPE500106050", "station": "捷運小南門站(1號出口)", "total_bikes": 56, "left_bikes": 20 }, "geometry": { "type": "Point", "coordinates": [ 121.5095, 25.0365 ] } },
{ "type": "Feature", "properties": { "station_id": "TPE500106051", "station": "延平南路133巷口", "total_bikes": 17, "left_bikes": 6 }, "geometry": { "type": "Point", "coordinates": [ 121.5085, 25.0379 ] } },
{ "type": "Feature", "properties": { "station_id": "TPE500106052", "station": "捷運西門站(2號出口)", "total_bikes": 24, "left_bikes": 14 }, "geometry": { "type": "Point", "coordinates": [ 121.5084, 25.0416 ] } },
{ "type": "Feature", "properties": { "station_id": "TPE500106053", "station": "寶慶博愛路口", "total_bikes": 27, "left_bikes": 17 }, "geometry": { "type": "Point", "coordinates": [ 121.5112, 25.0413 ] } },
{ "type": "Feature", "properties": { "station_id": "TPE500106054", "station": "法務部", "total_bikes": 27, "left_bikes": 16 }, "geometry": { "type": "Point", "coordinates": [ 121.5125, 25.0371 ] } },
{ "type": "Feature", "properties": { "station_id": "TPE500106055", "station": "臺北市立大學(博愛校區)", "total_bikes": 59, "left_bikes": 41 }, "geometry": { "type": "Point", "coordinates": [ 121.5133, 25.0355 ] } },
{ "type": "Feature", "properties": { "station_id": "TPE500106056", "station": "國家圖書館", "total_bikes": 36, "left_bikes": 14 }, "geometry": { "type": "Point", "coordinates": [ 121.5171, 25.0376 ] } },
{ "type": "Feature", "properties": { "station_id": "TPE500106057", "station": "市民金山路口", "total_bikes": 30, "left_bikes": 19 }, "geometry": { "type": "Point", "coordinates": [ 121.5307, 25.0459 ] } },
{ "type": "Feature", "properties": { "station_id": "TPE500106058", "station": "聯合醫院和平院區", "total_bikes": 32, "left_bikes": 5 }, "geometry": { "type": "Point", "coordinates": [ 121.5064, 25.0352 ] } },
{ "type": "Feature", "properties": { "station_id": "TPE500106059", "station": "中山堂", "total_bikes": 29, "left_bikes": 19 }, "geometry": { "type": "Point", "coordinates": [ 121.5103, 25.0441 ] } },
{ "type": "Feature", "properties": { "station_id": "TPE500106060", "station": "中華漢口街口", "total_bikes": 19, "left_bikes": 17 }, "geometry": { "type": "Point", "coordinates": [ 121.5094, 25.0453 ] } },
{ "type": "Feature", "properties": { "station_id": "TPE500106061", "station": "中華路一段21巷口", "total_bikes": 22, "left_bikes": 18 }, "geometry": { "type": "Point", "coordinates": [ 121.5099, 25.0468 ] } },
{ "type": "Feature", "properties": { "station_id": "TPE500106062", "station": "捷運臺大醫院站(4號出口)", "total_bikes": 42, "left_bikes": 16 }, "geometry": { "type": "Point", "coordinates": [ 121.5164, 25.043 ] } },
{ "type": "Feature", "properties": { "station_id": "TPE500106063", "station": "寶藏巖觀音亭", "total_bikes": 23, "left_bikes": 11 }, "geometry": { "type": "Point", "coordinates": [ 121.5331, 25.0103 ] } },
{ "type": "Feature", "properties": { "station_id": "TPE500106064", "station": "師大水源路口", "total_bikes": 21, "left_bikes": 16 }, "geometry": { "type": "Point", "coordinates": [ 121.523, 25.0203 ] } },
{ "type": "Feature", "properties": { "station_id": "TPE500106065", "station": "中山徐州路口", "total_bikes": 16, "left_bikes": 5 }, "geometry": { "type": "Point", "coordinates": [ 121.5187, 25.0418 ] } },
{ "type": "Feature", "properties": { "station_id": "TPE500106066", "station": "信義連雲街口", "total_bikes": 29, "left_bikes": 9 }, "geometry": { "type": "Point", "coordinates": [ 121.5304, 25.0338 ] } },
{ "type": "Feature", "properties": { "station_id": "TPE500106067", "station": "臺北轉運站", "total_bikes": 46, "left_bikes": 10 }, "geometry": { "type": "Point", "coordinates": [ 121.5199, 25.0484 ] } },
{ "type": "Feature", "properties": { "station_id": "TPE500106068", "station": "莒光大埔街口", "total_bikes": 32, "left_bikes": 13 }, "geometry": { "type": "Point", "coordinates": [ 121.5052, 25.0313 ] } },
{ "type": "Feature", "properties": { "station_id": "TPE500106069", "station": "捷運忠孝新生站(2號出口)", "total_bikes": 20, "left_bikes": 8 }, "geometry": { "type": "Point", "coordinates": [ 121.5322, 25.0424 ] } },
{ "type": "Feature", "properties": { "station_id": "TPE500106070", "station": "光華商場", "total_bikes": 25, "left_bikes": 15 }, "geometry": { "type": "Point", "coordinates": [ 121.5327, 25.0448 ] } },
{ "type": "Feature", "properties": { "station_id": "TPE500106071", "station": "中山青島路口", "total_bikes": 30, "left_bikes": 20 }, "geometry": { "type": "Point", "coordinates": [ 121.5197, 25.045 ] } },
{ "type": "Feature", "properties": { "station_id": "TPE500106072", "station": "捷運中正紀念堂站(5號出口)", "total_bikes": 29, "left_bikes": 13 }, "geometry": { "type": "Point", "coordinates": [ 121.5168, 25.0353 ] } },
{ "type": "Feature", "properties": { "station_id": "TPE500106073", "station": "北平東杭州北路口", "total_bikes": 20, "left_bikes": 12 }, "geometry": { "type": "Point", "coordinates": [ 121.5274, 25.0455 ] } },
{ "type": "Feature", "properties": { "station_id": "TPE500106074", "station": "王貫英先生紀念圖書館", "total_bikes": 15, "left_bikes": 5 }, "geometry": { "type": "Point", "coordinates": [ 121.5236, 25.0227 ] } },
{ "type": "Feature", "properties": { "station_id": "TPE500106075", "station": "金山信義路口", "total_bikes": 25, "left_bikes": 0 }, "geometry": { "type": "Point", "coordinates": [ 121.5272, 25.0344 ] } },
{ "type": "Feature", "properties": { "station_id": "TPE500106077", "station": "林森徐州路口", "total_bikes": 16, "left_bikes": 6 }, "geometry": { "type": "Point", "coordinates": [ 121.5222, 25.0409 ] } },
{ "type": "Feature", "properties": { "station_id": "TPE500106078", "station": "徐州杭州路口", "total_bikes": 19, "left_bikes": 10 }, "geometry": { "type": "Point", "coordinates": [ 121.5257, 25.0402 ] } },
{ "type": "Feature", "properties": { "station_id": "TPE500106079", "station": "捷運中正紀念堂站(6號出口)", "total_bikes": 17, "left_bikes": 11 }, "geometry": { "type": "Point", "coordinates": [ 121.5166, 25.0362 ] } },
{ "type": "Feature", "properties": { "station_id": "TPE500106080", "station": "捷運臺北車站(M2出口)", "total_bikes": 20, "left_bikes": 0 }, "geometry": { "type": "Point", "coordinates": [ 121.519, 25.0482 ] } },
{ "type": "Feature", "properties": { "station_id": "TPE500106083", "station": "臺北市國父史蹟館(逸仙公園)", "total_bikes": 31, "left_bikes": 7 }, "geometry": { "type": "Point", "coordinates": [ 121.5204, 25.0478 ] } },
{ "type": "Feature", "properties": { "station_id": "TPE500106084", "station": "捷運西門站(5號出口)", "total_bikes": 30, "left_bikes": 14 }, "geometry": { "type": "Point", "coordinates": [ 121.5086, 25.0424 ] } },
{ "type": "Feature", "properties": { "station_id": "TPE500106085", "station": "弘道國中", "total_bikes": 18, "left_bikes": 10 }, "geometry": { "type": "Point", "coordinates": [ 121.5152, 25.0383 ] } },
{ "type": "Feature", "properties": { "station_id": "TPE500106086", "station": "臺北市第一女子高級中學", "total_bikes": 17, "left_bikes": 8 }, "geometry": { "type": "Point", "coordinates": [ 121.5129, 25.0385 ] } },
{ "type": "Feature", "properties": { "station_id": "TPE500106087", "station": "台北市替代役中心", "total_bikes": 15, "left_bikes": 11 }, "geometry": { "type": "Point", "coordinates": [ 121.5275, 25.0181 ] } },
{ "type": "Feature", "properties": { "station_id": "TPE500106088", "station": "紹興徐州路口", "total_bikes": 18, "left_bikes": 18 }, "geometry": { "type": "Point", "coordinates": [ 121.524, 25.0405 ] } },
{ "type": "Feature", "properties": { "station_id": "TPE500106089", "station": "羅斯福寧波東街口", "total_bikes": 16, "left_bikes": 11 }, "geometry": { "type": "Point", "coordinates": [ 121.5194, 25.0315 ] } },