{
  "type": "FeatureCollection",
  "features": [
    {
      "type": "Feature",
      "geometry": {
        "type": "Point",
        "coordinates": [
          121.529402,
          25.109725
        ]
      },
      "properties": {
        "dist": "士林區",
        "type": "交通",
        "name": "蘭雅公園地下停車場",
        "location": "臺北市士林區德行東路129巷31號地下",
        "org": "蘭雅公園地下停車場",
        "seat": "3",
        "dis": "1",
        "par": "0",
        "lvl": 3,
        "id": 1
      }
    },
    {
      "type": "Feature",
      "geometry": {
        "type": "Point",
        "coordinates": [
          121.525078,
          25.084873
        ]
      },
      "properties": {
        "dist": "士林區",
        "type": "交通",
        "name": "捷運劍潭站(淡水信義線)",
        "location": "臺北市士林區中山北路五段65號",
        "org": "捷運劍潭站(夜)",
        "seat": "5",
        "dis": "0",
        "par": "1",
        "lvl": 4,
        "id": 2
      }
    },
    {
      "type": "Feature",
      "geometry": {
        "type": "Point",
        "coordinates": [
          121.52623,
          25.093535
        ]
      },
      "properties": {
        "dist": "士林區",
        "type": "交通",
        "name": "捷運士林站(淡水信義線)",
        "location": "臺北市士林區福德路1號",
        "org": "捷運士林站",
        "seat": "5",
        "dis": "0",
        "par": "1",
        "lvl": 4,
        "id": 3
      }
    },
    {
      "type": "Feature",
      "geometry": {
        "type": "Point",
        "coordinates": [
          121.522514,
          25.10306
        ]
      },
      "properties": {
        "dist": "士林區",
        "type": "交通",
        "name": "捷運芝山站(淡水信義線)",
        "location": "臺北市士林區福國路70號",
        "org": "捷運芝山站",
        "seat": "5",
        "dis": "0",
        "par": "1",
        "lvl": 4,
        "id": 4
      }
    },
    {
      "type": "Feature",
      "geometry": {
        "type": "Point",
        "coordinates": [
          121.523996,
          25.086151
        ]
      },
      "properties": {
        "dist": "士林區",
        "type": "交通",
        "name": "百齡高中地下停車場",
        "location": "臺北市士林區承德路四段175號地下一、二樓",
        "org": "臺北市停車管理工程處百齡高中地下停車場",
        "seat": "4",
        "dis": "0",
        "par": "1",
        "lvl": 4,
        "id": 5
      }
    },
    {
      "type": "Feature",
      "geometry": {
        "type": "Point",
        "coordinates": [
          121.520326,
          25.084906
        ]
      },
      "properties": {
        "dist": "士林區",
        "type": "交通",
        "name": "前港公園地下停車場",
        "location": "臺北市士林區前港街45號地下",
        "org": "臺北市停車管理工程處前港公園地下停車場",
        "seat": "3",
        "dis": "1",
        "par": "0",
        "lvl": 4,
        "id": 6
      }
    },
    {
      "type": "Feature",
      "geometry": {
        "type": "Point",
        "coordinates": [
          121.505951,
          25.089582
        ]
      },
      "properties": {
        "dist": "士林區",
        "type": "交通",
        "name": "社園立體停車場",
        "location": "臺北市士林區延平北路六段180號",
        "org": "臺北市停車管理工程處社園立體停車場",
        "seat": "1",
        "dis": "0",
        "par": "0",
        "lvl": 3,
        "id": 7
      }
    },
    {
      "type": "Feature",
      "geometry": {
        "type": "Point",
        "coordinates": [
          121.549242,
          25.099239
        ]
      },
      "properties": {
        "dist": "士林區",
        "type": "交通",
        "name": "故宮廣場停車場",
        "location": "臺北市士林區至善路二段150號",
        "org": "臺北市政府停車管理處",
        "seat": "2",
        "dis": "0",
        "par": "0",
        "lvl": 3,
        "id": 8
      }
    },
    {
      "type": "Feature",
      "geometry": {
        "type": "Point",
        "coordinates": [
          121.529646,
          25.119953
        ]
      },
      "properties": {
        "dist": "士林區",
        "type": "交通",
        "name": "天母停車場",
        "location": "臺北市士林區天母西路1號地下1樓",
        "org": "東和停車場開發股份有限公司天母停車場",
        "seat": "2",
        "dis": "0",
        "par": "0",
        "lvl": 3,
        "id": 9
      }
    },
    {
      "type": "Feature",
      "geometry": {
        "type": "Point",
        "coordinates": [
          121.508328,
          25.081436
        ]
      },
      "properties": {
        "dist": "士林區",
        "type": "交通",
        "name": "海光公園地下停車場",
        "location": "臺北市士林區葫蘆街83號",
        "org": "臺北市停車管理工程處海光公園地下停車場",
        "seat": "3",
        "dis": "1",
        "par": "0",
        "lvl": 4,
        "id": 10
      }
    },
    {
      "type": "Feature",
      "geometry": {
        "type": "Point",
        "coordinates": [
          121.502685,
          25.09
        ]
      },
      "properties": {
        "dist": "士林區",
        "type": "交通",
        "name": "社子國小地下停車場",
        "location": "臺北市士林區延平北路六段308號B1",
        "org": "臺北市停車管理工程處社子國小地下停車場",
        "seat": "3",
        "dis": "1",
        "par": "0",
        "lvl": 4,
        "id": 11
      }
    },
    {
      "type": "Feature",
      "geometry": {
        "type": "Point",
        "coordinates": [
          121.522448,
          25.089893
        ]
      },
      "properties": {
        "dist": "士林區",
        "type": "交通",
        "name": "承德公園地下停車場",
        "location": "臺北市士林區基河路150號",
        "org": "臺北市停車管理工程處承德公園地下停車場",
        "seat": "3",
        "dis": "1",
        "par": "0",
        "lvl": 4,
        "id": 12
      }
    },
    {
      "type": "Feature",
      "geometry": {
        "type": "Point",
        "coordinates": [
          121.521336,
          25.099402
        ]
      },
      "properties": {
        "dist": "士林區",
        "type": "交通",
        "name": "文昌國小地下停車場",
        "location": "臺北市士林區文林路615巷20號",
        "org": "臺北市停車管理工程處文昌國小地下停車場",
        "seat": "2",
        "dis": "0",
        "par": "0",
        "lvl": 3,
        "id": 13
      }
    },
    {
      "type": "Feature",
      "geometry": {
        "type": "Point",
        "coordinates": [
          121.53,
          25.0958
        ]
      },
      "properties": {
        "dist": "士林區",
        "type": "交通",
        "name": "福林公園地下停車場",
        "location": "臺北市士林區中正路17號地下",
        "org": "福林公園地下停車場",
        "seat": "3",
        "dis": "1",
        "par": "0",
        "lvl": 3,
        "id": 14
      }
    },
    {
      "type": "Feature",
      "geometry": {
        "type": "Point",
        "coordinates": [
          121.51601,
          25.095988
        ]
      },
      "properties": {
        "dist": "士林區",
        "type": "觀光遊憩",
        "name": "國立臺灣科學教育館",
        "location": "臺北市士林區士商路189號",
        "org": "國立臺灣科學教育館",
        "seat": "51",
        "dis": "10",
        "par": "7",
        "lvl": 4,
        "id": 15
      }
    },
    {
      "type": "Feature",
      "geometry": {
        "type": "Point",
        "coordinates": [
          121.518965,
          25.096063
        ]
      },
      "properties": {
        "dist": "士林區",
        "type": "觀光遊憩",
        "name": "臺北市立天文科學教育館",
        "location": "臺北市士林區基河路363號",
        "org": "臺北市立天文科學教育館",
        "seat": "37",
        "dis": "11",
        "par": "0",
        "lvl": 4,
        "id": 16
      }
    },
    {
      "type": "Feature",
      "geometry": {
        "type": "Point",
        "coordinates": [
          121.525626,
          25.082348
        ]
      },
      "properties": {
        "dist": "士林區",
        "type": "觀光遊憩",
        "name": "圓山保齡球館",
        "location": "臺北市士林區中山北路五段6號",
        "org": "圓山保齡球館",
        "seat": "4",
        "dis": "0",
        "par": "0",
        "lvl": 4,
        "id": 17
      }
    },
    {
      "type": "Feature",
      "geometry": {
        "type": "Point",
        "coordinates": [
          121.524211,
          25.085079
        ]
      },
      "properties": {
        "dist": "士林區",
        "type": "文化育樂場所",
        "name": "臺北表演藝術中心",
        "location": "臺北市士林區劍潭路1號",
        "org": "臺北表演藝術中心",
        "seat": "24",
        "dis": "3",
        "par": "0",
        "lvl": 4,
        "id": 18
      }
    },
    {
      "type": "Feature",
      "geometry": {
        "type": "Point",
        "coordinates": [
          121.534287,
          25.114385
        ]
      },
      "properties": {
        "dist": "士林區",
        "type": "文化育樂場所",
        "name": "士林天母棒球場",
        "location": "臺北市士林區忠誠路二段77號",
        "org": "龍來球場股份有限公司",
        "seat": "22",
        "dis": "2",
        "par": "0",
        "lvl": 4,
        "id": 19
      }
    },
    {
      "type": "Feature",
      "geometry": {
        "type": "Point",
        "coordinates": [
          121.54936,
          25.099688
        ]
      },
      "properties": {
        "dist": "士林區",
        "type": "觀光遊憩",
        "name": "國立故宮博物院",
        "location": "臺北市士林區至善路二段221號",
        "org": "國立故宮博物院",
        "seat": "13",
        "dis": "1",
        "par": "1",
        "lvl": 4,
        "id": 20
      }
    },
    {
      "type": "Feature",
      "geometry": {
        "type": "Point",
        "coordinates": [
          121.534287,
          25.114385
        ]
      },
      "properties": {
        "dist": "士林區",
        "type": "文化育樂場所",
        "name": "天母運動場",
        "location": "臺北市士林區忠誠路二段77號(天母運動園區服務中心)",
        "org": "臺北市輪椅網球推廣協會",
        "seat": "6",
        "dis": "0",
        "par": "1",
        "lvl": 3,
        "id": 21
      }
    },
    {
      "type": "Feature",
      "geometry": {
        "type": "Point",
        "coordinates": [
          121.516098,
          25.096297
        ]
      },
      "properties": {
        "dist": "士林區",
        "type": "觀光遊憩",
        "name": "臺北市立兒童新樂園",
        "location": "臺北市士林區承德路五段55號",
        "org": "臺北市立兒童新樂園",
        "seat": "46",
        "dis": "22",
        "par": "1",
        "lvl": 4,
        "id": 22
      }
    },
    {
      "type": "Feature",
      "geometry": {
        "type": "Point",
        "coordinates": [
          121.532685,
          25.104036
        ]
      },
      "properties": {
        "dist": "士林區",
        "type": "公園",
        "name": "芝山文化生態綠園",
        "location": "臺北市士林區雨聲街120號",
        "org": "芝山文化生態綠園",
        "seat": "8",
        "dis": "2",
        "par": "0",
        "lvl": 3,
        "id": 23
      }
    },
    {
      "type": "Feature",
      "geometry": {
        "type": "Point",
        "coordinates": [
          121.552025,
          25.100981
        ]
      },
      "properties": {
        "dist": "士林區",
        "type": "觀光遊憩",
        "name": "順益臺灣原住民博物館",
        "location": "臺北市士林區至善路二段282號",
        "org": "順益臺灣原住民博物館",
        "seat": "2",
        "dis": "1",
        "par": "0",
        "lvl": 3,
        "id": 24
      }
    },
    {
      "type": "Feature",
      "geometry": {
        "type": "Point",
        "coordinates": [
          121.546978,
          25.109577
        ]
      },
      "properties": {
        "dist": "士林區",
        "type": "文化育樂場所",
        "name": "林語堂故居",
        "location": "臺北市士林區仰德大道二段141號",
        "org": "林語堂故居",
        "seat": "1",
        "dis": "0",
        "par": "0",
        "lvl": 3,
        "id": 25
      }
    },
    {
      "type": "Feature",
      "geometry": {
        "type": "Point",
        "coordinates": [
          121.52141,
          25.089491
        ]
      },
      "properties": {
        "dist": "士林區",
        "type": "文化育樂場所",
        "name": "士林運動中心",
        "location": "臺北市士林區士商路1號",
        "org": "台北市中華基督教青年會",
        "seat": "17",
        "dis": "5",
        "par": "5",
        "lvl": 4,
        "id": 26
      }
    },
    {
      "type": "Feature",
      "geometry": {
        "type": "Point",
        "coordinates": [
          121.51182,
          25.084886
        ]
      },
      "properties": {
        "dist": "士林區",
        "type": "加油站",
        "name": "中油社子站",
        "location": "臺北市士林區重慶北路四段198號",
        "org": "臺灣中油股份有限公司社子站",
        "seat": "3",
        "dis": "2",
        "par": "0",
        "lvl": 4,
        "id": 27
      }
    },
    {
      "type": "Feature",
      "geometry": {
        "type": "Point",
        "coordinates": [
          121.526258,
          25.087477
        ]
      },
      "properties": {
        "dist": "士林區",
        "type": "加油站",
        "name": "中油文林路加油站",
        "location": "臺北市士林區文林路100號",
        "org": "臺灣中油股份有限公司文林路站",
        "seat": "2",
        "dis": "0",
        "par": "0",
        "lvl": 4,
        "id": 28
      }
    },
    {
      "type": "Feature",
      "geometry": {
        "type": "Point",
        "coordinates": [
          121.52766,
          25.092397
        ]
      },
      "properties": {
        "dist": "士林區",
        "type": "加油站",
        "name": "中油福林加油站",
        "location": "臺北市士林區中山北路五段465號",
        "org": "臺灣中油股份有限公司福林站",
        "seat": "3",
        "dis": "2",
        "par": "0",
        "lvl": 4,
        "id": 29
      }
    },
    {
      "type": "Feature",
      "geometry": {
        "type": "Point",
        "coordinates": [
          121.545953,
          25.135452
        ]
      },
      "properties": {
        "dist": "士林區",
        "type": "加油站",
        "name": "中油陽明山加油站",
        "location": "臺北市士林區格致路3號",
        "org": "臺灣中油股份有限公司陽明山站",
        "seat": "3",
        "dis": "1",
        "par": "0",
        "lvl": 4,
        "id": 30
      }
    },
    {
      "type": "Feature",
      "geometry": {
        "type": "Point",
        "coordinates": [
          121.52201,
          25.087651
        ]
      },
      "properties": {
        "dist": "士林區",
        "type": "加油站",
        "name": "西歐基河加油站",
        "location": "臺北市士林區承德路四段200號",
        "org": "西歐加油站股份有限公司",
        "seat": "3",
        "dis": "2",
        "par": "0",
        "lvl": 3,
        "id": 31
      }
    },
    {
      "type": "Feature",
      "geometry": {
        "type": "Point",
        "coordinates": [
          121.528164,
          25.095663
        ]
      },
      "properties": {
        "dist": "士林區",
        "type": "加油站",
        "name": "西歐士林加油站",
        "location": "臺北市士林區中山北路五段570號",
        "org": "西歐加油站士林站",
        "seat": "3",
        "dis": "2",
        "par": "0",
        "lvl": 3,
        "id": 32
      }
    },
    {
      "type": "Feature",
      "geometry": {
        "type": "Point",
        "coordinates": [
          121.528939,
          25.101948
        ]
      },
      "properties": {
        "dist": "士林區",
        "type": "加油站",
        "name": "芝山加油站",
        "location": "臺北市士林區至誠路二段40號1樓",
        "org": "芝山加油站",
        "seat": "3",
        "dis": "1",
        "par": "0",
        "lvl": 3,
        "id": 33
      }
    },
    {
      "type": "Feature",
      "geometry": {
        "type": "Point",
        "coordinates": [
          121.511879,
          25.086065
        ]
      },
      "properties": {
        "dist": "士林區",
        "type": "加油站",
        "name": "全國台北交流道站",
        "location": "臺北市士林區重慶北路四段141號",
        "org": "全國加油站股份有限公司台北交流道站",
        "seat": "2",
        "dis": "0",
        "par": "0",
        "lvl": 3,
        "id": 34
      }
    },
    {
      "type": "Feature",
      "geometry": {
        "type": "Point",
        "coordinates": [
          121.509647,
          25.085181
        ]
      },
      "properties": {
        "dist": "士林區",
        "type": "加油站",
        "name": "全國洲美加油站",
        "location": "臺北市士林區延平北路六段505號",
        "org": "全國加油站股份有限公司洲美站",
        "seat": "2",
        "dis": "0",
        "par": "0",
        "lvl": 3,
        "id": 35
      }
    },
    {
      "type": "Feature",
      "geometry": {
        "type": "Point",
        "coordinates": [
          121.53547,
          25.098298
        ]
      },
      "properties": {
        "dist": "士林區",
        "type": "公園",
        "name": "雙溪公園",
        "location": "臺北市士林區福林路、至善路口東南側",
        "org": "公園路燈工程管理處園藝管理所",
        "seat": "3",
        "dis": "1",
        "par": "0",
        "lvl": 3,
        "id": 36
      }
    },
    {
      "type": "Feature",
      "geometry": {
        "type": "Point",
        "coordinates": [
          121.532837,
          25.101671
        ]
      },
      "properties": {
        "dist": "士林區",
        "type": "公園",
        "name": "芝山公園2號",
        "location": "臺北市士林區雨農路、至誠路一段交叉口處閱覽室旁",
        "org": "公園路燈工程管理處陽明山管理所",
        "seat": "3",
        "dis": "1",
        "par": "0",
        "lvl": 3,
        "id": 37
      }
    },
    {
      "type": "Feature",
      "geometry": {
        "type": "Point",
        "coordinates": [
          121.530071,
          25.125855
        ]
      },
      "properties": {
        "dist": "士林區",
        "type": "公園",
        "name": "天母公園",
        "location": "臺北市士林區中山北路七段219號邊",
        "org": "公園路燈工程管理處陽明公園管理所",
        "seat": "4",
        "dis": "1",
        "par": "1",
        "lvl": 4,
        "id": 38
      }
    },
    {
      "type": "Feature",
      "geometry": {
        "type": "Point",
        "coordinates": [
          121.506159,
          25.090457
        ]
      },
      "properties": {
        "dist": "士林區",
        "type": "公園",
        "name": "社子公園",
        "location": "臺北市士林區永平街20巷11弄3號對面",
        "org": "公園路燈工程管理處陽明山公園管理所",
        "seat": "3",
        "dis": "1",
        "par": "1",
        "lvl": 3,
        "id": 39
      }
    },
    {
      "type": "Feature",
      "geometry": {
        "type": "Point",
        "coordinates": [
          121.532836,
          25.101148
        ]
      },
      "properties": {
        "dist": "士林區",
        "type": "公園",
        "name": "芝山公園1號",
        "location": "臺北市士林區至誠路一段182號與雨農路交叉口",
        "org": "公園路燈工程管理處陽明山公園管理所",
        "seat": "3",
        "dis": "0",
        "par": "1",
        "lvl": 3,
        "id": 40
      }
    },
    {
      "type": "Feature",
      "geometry": {
        "type": "Point",
        "coordinates": [
          121.538224,
          25.098326
        ]
      },
      "properties": {
        "dist": "士林區",
        "type": "公園",
        "name": "至善公園",
        "location": "臺北市士林區至善路與福林路會口處公園廣場東北側",
        "org": "公園路燈工程管理處陽明山公園管理所",
        "seat": "3",
        "dis": "1",
        "par": "0",
        "lvl": 3,
        "id": 41
      }
    },
    {
      "type": "Feature",
      "geometry": {
        "type": "Point",
        "coordinates": [
          121.525878,
          25.103148
        ]
      },
      "properties": {
        "dist": "士林區",
        "type": "公園",
        "name": "忠誠公園",
        "location": "臺北市士林區中山北路六段與忠誠路會口公園水池後方",
        "org": "公園路燈工程管理處陽明山公園管理所",
        "seat": "3",
        "dis": "0",
        "par": "1",
        "lvl": 3,
        "id": 42
      }
    },
    {
      "type": "Feature",
      "geometry": {
        "type": "Point",
        "coordinates": [
          121.530152,
          25.094898
        ]
      },
      "properties": {
        "dist": "士林區",
        "type": "公園",
        "name": "士林官邸",
        "location": "臺北市士林區福林路60號",
        "org": "公園路燈工程管理處園藝管理所",
        "seat": "10",
        "dis": "4",
        "par": "2",
        "lvl": 4,
        "id": 43
      }
    },
    {
      "type": "Feature",
      "geometry": {
        "type": "Point",
        "coordinates": [
          121.519656,
          25.096979
        ]
      },
      "properties": {
        "dist": "士林區",
        "type": "公園",
        "name": "美崙公園",
        "location": "臺北市士林區美崙街152巷",
        "org": "公園路燈工程管理處陽明山公園管理所",
        "seat": "4",
        "dis": "1",
        "par": "1",
        "lvl": 4,
        "id": 44
      }
    },
    {
      "type": "Feature",
      "geometry": {
        "type": "Point",
        "coordinates": [
          121.544438,
          25.134945
        ]
      },
      "properties": {
        "dist": "士林區",
        "type": "公園",
        "name": "花卉試驗中心",
        "location": "臺北市士林區仰德大道四段175巷32號",
        "org": "公園路燈工程管理處花卉試驗中心",
        "seat": "3",
        "dis": "1",
        "par": "1",
        "lvl": 3,
        "id": 45
      }
    },
    {
      "type": "Feature",
      "geometry": {
        "type": "Point",
        "coordinates": [
          121.508381,
          25.082198
        ]
      },
      "properties": {
        "dist": "士林區",
        "type": "公園",
        "name": "海光公園",
        "location": "臺北市士林區葫蘆街83號",
        "org": "公園路燈工程管理處陽明山公園管理所",
        "seat": "2",
        "dis": "1",
        "par": "0",
        "lvl": 3,
        "id": 46
      }
    },
    {
      "type": "Feature",
      "geometry": {
        "type": "Point",
        "coordinates": [
          121.529163,
          25.111997
        ]
      },
      "properties": {
        "dist": "士林區",
        "type": "市場",
        "name": "公有士東市場(署)",
        "location": "臺北市士林區士東路一段100號",
        "org": "臺北市市場處士東市場自治會",
        "seat": "6",
        "dis": "2",
        "par": "0",
        "lvl": 4,
        "id": 47
      }
    },
    {
      "type": "Feature",
      "geometry": {
        "type": "Point",
        "coordinates": [
          121.524366,
          25.087416
        ]
      },
      "properties": {
        "dist": "士林區",
        "type": "市場",
        "name": "公有士林市場(署)",
        "location": "臺北市士林區基河路101號",
        "org": "臺北市士林市場",
        "seat": "3",
        "dis": "1",
        "par": "0",
        "lvl": 3,
        "id": 48
      }
    },
    {
      "type": "Feature",
      "geometry": {
        "type": "Point",
        "coordinates": [
          121.516477,
          25.082523
        ]
      },
      "properties": {
        "dist": "士林區",
        "type": "市場",
        "name": "福華市場(署)",
        "location": "臺北市士林區通河街323之1號",
        "org": "臺北市市場處福華廣場攤販集中場",
        "seat": "2",
        "dis": "0",
        "par": "0",
        "lvl": 3,
        "id": 49
      }
    },
    {
      "type": "Feature",
      "geometry": {
        "type": "Point",
        "coordinates": [
          121.5194,
          25.087
        ]
      },
      "properties": {
        "dist": "士林區",
        "type": "市場",
        "name": "家樂福便利購超市士林華齡店",
        "location": "臺北市士林區華齡街175號",
        "org": "頂好超級市場後港分公司",
        "seat": "1",
        "dis": "0",
        "par": "0",
        "lvl": 4,
        "id": 50
      }
    },
    {
      "type": "Feature",
      "geometry": {
        "type": "Point",
        "coordinates": [
          121.5329,
          25.1234
        ]
      },
      "properties": {
        "dist": "士林區",
        "type": "綜合零售賣場",
        "name": "全聯超市天母中山北分公司",
        "location": "臺北市士林區中山北路七段154巷6號",
        "org": "全聯實業股份有限公司天母中山北分公司",
        "seat": "3",
        "dis": "1",
        "par": "0",
        "lvl": 3,
        "id": 51
      }
    },
    {
      "type": "Feature",
      "geometry": {
        "type": "Point",
        "coordinates": [
          121.540962,
          25.137688
        ]
      },
      "properties": {
        "dist": "士林區",
        "type": "大專院校",
        "name": "中國文化大學",
        "location": "臺北市士林區華岡路55號",
        "org": "中國文化大學",
        "seat": "3",
        "dis": "1",
        "par": "0",
        "lvl": 4,
        "id": 52
      }
    },
    {
      "type": "Feature",
      "geometry": {
        "type": "Point",
        "coordinates": [
          121.52659,
          25.089791
        ]
      },
      "properties": {
        "dist": "士林區",
        "type": "綜合零售賣場",
        "name": "統一超商臺北市文林門市",
        "location": "臺北市士林區大北路14號16號1樓",
        "org": "統一超商股份有限公司臺北市文林門市",
        "seat": "1",
        "dis": "0",
        "par": "0",
        "lvl": 3,
        "id": 53
      }
    },
    {
      "type": "Feature",
      "geometry": {
        "type": "Point",
        "coordinates": [
          121.510544,
          25.082015
        ]
      },
      "properties": {
        "dist": "士林區",
        "type": "綜合零售賣場",
        "name": "統一超商臺北市葫蘆門市",
        "location": "臺北市士林區延平北路五段134號134-2號1樓",
        "org": "統一超商股份有限公司臺北市葫蘆門市",
        "seat": "1",
        "dis": "0",
        "par": "0",
        "lvl": 3,
        "id": 54
      }
    },
    {
      "type": "Feature",
      "geometry": {
        "type": "Point",
        "coordinates": [
          121.507803,
          25.089215
        ]
      },
      "properties": {
        "dist": "士林區",
        "type": "綜合零售賣場",
        "name": "統一超商臺北市福氣門市",
        "location": "臺北市士林區延平北路六段122號124號1樓",
        "org": "統一超商股份有限公司臺北市福氣門市",
        "seat": "1",
        "dis": "0",
        "par": "0",
        "lvl": 3,
        "id": 55
      }
    },
    {
      "type": "Feature",
      "geometry": {
        "type": "Point",
        "coordinates": [
          121.498064,
          25.09325
        ]
      },
      "properties": {
        "dist": "士林區",
        "type": "綜合零售賣場",
        "name": "統一超商臺北市洲美門市",
        "location": "臺北市士林區延平北路六段505號",
        "org": "統一超商股份有限公司臺北市洲美門市",
        "seat": "1",
        "dis": "0",
        "par": "0",
        "lvl": 3,
        "id": 56
      }
    },
    {
      "type": "Feature",
      "geometry": {
        "type": "Point",
        "coordinates": [
          121.508421,
          25.091018
        ]
      },
      "properties": {
        "dist": "士林區",
        "type": "綜合零售賣場",
        "name": "統一超商臺北市友成門市",
        "location": "臺北市士林區社中街211號1樓",
        "org": "統一超商股份有限公司臺北市友成門市",
        "seat": "1",
        "dis": "0",
        "par": "0",
        "lvl": 3,
        "id": 57
      }
    },
    {
      "type": "Feature",
      "geometry": {
        "type": "Point",
        "coordinates": [
          121.508208,
          25.086119
        ]
      },
      "properties": {
        "dist": "士林區",
        "type": "綜合零售賣場",
        "name": "統一超商臺北市社鑽門市",
        "location": "臺北市士林區中正路639號1樓",
        "org": "統一超商股份有限公司臺北市社鑽門市",
        "seat": "1",
        "dis": "0",
        "par": "0",
        "lvl": 3,
        "id": 58
      }
    },
    {
      "type": "Feature",
      "geometry": {
        "type": "Point",
        "coordinates": [
          121.517487,
          25.084339
        ]
      },
      "properties": {
        "dist": "士林區",
        "type": "綜合零售賣場",
        "name": "統一超商臺北市新劍潭門市",
        "location": "臺北市士林區福港街246號",
        "org": "統一超商股份有限公司臺北市新劍潭門市",
        "seat": "1",
        "dis": "0",
        "par": "0",
        "lvl": 3,
        "id": 59
      }
    },
    {
      "type": "Feature",
      "geometry": {
        "type": "Point",
        "coordinates": [
          121.526092,
          25.095529
        ]
      },
      "properties": {
        "dist": "士林區",
        "type": "綜合零售賣場",
        "name": "統一超商臺北市福榮門市",
        "location": "臺北市士林區中正路220號222號",
        "org": "統一超商股份有限公司臺北市福榮門市",
        "seat": "1",
        "dis": "0",
        "par": "0",
        "lvl": 3,
        "id": 60
      }
    },
    {
      "type": "Feature",
      "geometry": {
        "type": "Point",
        "coordinates": [
          121.530636,
          25.108993
        ]
      },
      "properties": {
        "dist": "士林區",
        "type": "綜合零售賣場",
        "name": "統一超商臺北市德行門市",
        "location": "臺北市士林區忠誠路二段7號1樓",
        "org": "統一超商股份有限公司臺北市德行門市",
        "seat": "1",
        "dis": "0",
        "par": "0",
        "lvl": 3,
        "id": 61
      }
    },
    {
      "type": "Feature",
      "geometry": {
        "type": "Point",
        "coordinates": [
          121.526761,
          25.103947
        ]
      },
      "properties": {
        "dist": "士林區",
        "type": "綜合零售賣場",
        "name": "統一超商臺北市新忠誠門市",
        "location": "臺北市士林區中山北路六段18號20號1樓",
        "org": "統一超商股份有限公司臺北市新忠誠門市",
        "seat": "1",
        "dis": "0",
        "par": "0",
        "lvl": 3,
        "id": 62
      }
    },
    {
      "type": "Feature",
      "geometry": {
        "type": "Point",
        "coordinates": [
          121.546449,
          25.136941
        ]
      },
      "properties": {
        "dist": "士林區",
        "type": "綜合零售賣場",
        "name": "統一超商臺北市草山門市",
        "location": "臺北市士林區格致路28號",
        "org": "統一超商股份有限公司臺北市草山門市",
        "seat": "1",
        "dis": "0",
        "par": "0",
        "lvl": 3,
        "id": 63
      }
    },
    {
      "type": "Feature",
      "geometry": {
        "type": "Point",
        "coordinates": [
          121.505185,
          25.092342
        ]
      },
      "properties": {
        "dist": "士林區",
        "type": "綜合零售賣場",
        "name": "統一超商臺北市社中門市",
        "location": "臺北市士林區社中街320-322號",
        "org": "統一超商股份有限公司臺北市社中門市",
        "seat": "1",
        "dis": "0",
        "par": "0",
        "lvl": 3,
        "id": 64
      }
    },
    {
      "type": "Feature",
      "geometry": {
        "type": "Point",
        "coordinates": [
          121.527473,
          25.118694
        ]
      },
      "properties": {
        "dist": "士林區",
        "type": "綜合零售賣場",
        "name": "統一超商臺北市天北門市",
        "location": "臺北市士林區天母西路39-1號1樓",
        "org": "統一超商股份有限公司臺北市天北門市",
        "seat": "1",
        "dis": "0",
        "par": "0",
        "lvl": 3,
        "id": 65
      }
    },
    {
      "type": "Feature",
      "geometry": {
        "type": "Point",
        "coordinates": [
          121.521524,
          25.085661
        ]
      },
      "properties": {
        "dist": "士林區",
        "type": "綜合零售賣場",
        "name": "統一超商臺北市前港門市",
        "location": "臺北市士林區後港街98之1號2號1樓",
        "org": "統一超商股份有限公司臺北市前港門市",
        "seat": "1",
        "dis": "0",
        "par": "0",
        "lvl": 3,
        "id": 66
      }
    },
    {
      "type": "Feature",
      "geometry": {
        "type": "Point",
        "coordinates": [
          121.528778,
          25.105707
        ]
      },
      "properties": {
        "dist": "士林區",
        "type": "綜合零售賣場",
        "name": "統一超商臺北市誠義門市",
        "location": "臺北市士林區忠誠路一段126號",
        "org": "統一超商股份有限公司臺北市誠義門市",
        "seat": "1",
        "dis": "0",
        "par": "0",
        "lvl": 3,
        "id": 67
      }
    },
    {
      "type": "Feature",
      "geometry": {
        "type": "Point",
        "coordinates": [
          121.550917,
          25.100386
        ]
      },
      "properties": {
        "dist": "士林區",
        "type": "綜合零售賣場",
        "name": "統一超商臺北市至善天下門市",
        "location": "臺北市士林區至善路二段264號1樓",
        "org": "統一超商股份有限公司臺北市至善天下門市",
        "seat": "1",
        "dis": "0",
        "par": "0",
        "lvl": 3,
        "id": 68
      }
    },
    {
      "type": "Feature",
      "geometry": {
        "type": "Point",
        "coordinates": [
          121.524425,
          25.108746
        ]
      },
      "properties": {
        "dist": "士林區",
        "type": "綜合零售賣場",
        "name": "統一超商臺北市新天強門市",
        "location": "臺北市士林區克強路11及11-1號1樓",
        "org": "統一超商股份有限公司臺北市新天強門市",
        "seat": "1",
        "dis": "0",
        "par": "0",
        "lvl": 3,
        "id": 69
      }
    },
    {
      "type": "Feature",
      "geometry": {
        "type": "Point",
        "coordinates": [
          121.532666,
          25.123967
        ]
      },
      "properties": {
        "dist": "士林區",
        "type": "綜合零售賣場",
        "name": "統一超商臺北市天裕門市",
        "location": "臺北市士林區中山北路七段156號1樓",
        "org": "統一超商股份有限公司臺北市天裕店",
        "seat": "1",
        "dis": "0",
        "par": "0",
        "lvl": 3,
        "id": 70
      }
    },
    {
      "type": "Feature",
      "geometry": {
        "type": "Point",
        "coordinates": [
          121.533244,
          25.116888
        ]
      },
      "properties": {
        "dist": "士林區",
        "type": "綜合零售賣場",
        "name": "統一超商臺北市天越門市",
        "location": "臺北市士林區天母東路50巷25號",
        "org": "統一超商股份有限公司臺北市天越店",
        "seat": "1",
        "dis": "0",
        "par": "0",
        "lvl": 3,
        "id": 71
      }
    },
    {
      "type": "Feature",
      "geometry": {
        "type": "Point",
        "coordinates": [
          121.530156,
          25.114305
        ]
      },
      "properties": {
        "dist": "士林區",
        "type": "綜合零售賣場",
        "name": "統一超商臺北市天美門市",
        "location": "臺北市士林區天母東路8巷98號",
        "org": "統一超商股份有限公司臺北市天美店",
        "seat": "1",
        "dis": "0",
        "par": "0",
        "lvl": 3,
        "id": 72
      }
    },
    {
      "type": "Feature",
      "geometry": {
        "type": "Point",
        "coordinates": [
          121.529372,
          25.101769
        ]
      },
      "properties": {
        "dist": "士林區",
        "type": "綜合零售賣場",
        "name": "統一超商臺北市至誠門市",
        "location": "臺北市士林區至誠路二段31號1樓",
        "org": "統一超商股份有限公司臺北市至誠門市",
        "seat": "1",
        "dis": "0",
        "par": "0",
        "lvl": 3,
        "id": 73
      }
    },
    {
      "type": "Feature",
      "geometry": {
        "type": "Point",
        "coordinates": [
          121.529197,
          25.102082
        ]
      },
      "properties": {
        "dist": "士林區",
        "type": "綜合零售賣場",
        "name": "全家便利商店臺北市致昇店",
        "location": "臺北市士林區雨聲街36號1樓",
        "org": "全家便利商店股份有限公司臺北市致昇門市",
        "seat": "1",
        "dis": "0",
        "par": "0",
        "lvl": 3,
        "id": 74
      }
    },
    {
      "type": "Feature",
      "geometry": {
        "type": "Point",
        "coordinates": [
          121.525484,
          25.090091
        ]
      },
      "properties": {
        "dist": "士林區",
        "type": "綜合零售賣場",
        "name": "全家便利商店臺北市大東店",
        "location": "臺北市士林區大東路63號",
        "org": "全家便利商店股份有限公司",
        "seat": "1",
        "dis": "0",
        "par": "0",
        "lvl": 3,
        "id": 75
      }
    },
    {
      "type": "Feature",
      "geometry": {
        "type": "Point",
        "coordinates": [
          121.515812,
          25.089547
        ]
      },
      "properties": {
        "dist": "士林區",
        "type": "綜合零售賣場",
        "name": "統一超商臺北市福通門市",
        "location": "臺北市士林區大南路400號",
        "org": "統一超商股份有限公司",
        "seat": "1",
        "dis": "0",
        "par": "0",
        "lvl": 3,
        "id": 76
      }
    },
    {
      "type": "Feature",
      "geometry": {
        "type": "Point",
        "coordinates": [
          121.525447,
          25.108951
        ]
      },
      "properties": {
        "dist": "士林區",
        "type": "綜合零售賣場",
        "name": "全家便利商店臺北市天強店",
        "location": "臺北市士林區中山北路六段238號",
        "org": "全家便利商店股份有限公司",
        "seat": "1",
        "dis": "0",
        "par": "0",
        "lvl": 3,
        "id": 77
      }
    },
    {
      "type": "Feature",
      "geometry": {
        "type": "Point",
        "coordinates": [
          121.527969,
          25.115071
        ]
      },
      "properties": {
        "dist": "士林區",
        "type": "綜合零售賣場",
        "name": "全家便利商店臺北市榮富店",
        "location": "臺北市士林區中山北路六段726號",
        "org": "全家便利商店股份有限公司",
        "seat": "1",
        "dis": "0",
        "par": "0",
        "lvl": 3,
        "id": 78
      }
    },
    {
      "type": "Feature",
      "geometry": {
        "type": "Point",
        "coordinates": [
          121.527399,
          25.118627
        ]
      },
      "properties": {
        "dist": "士林區",
        "type": "綜合零售賣場",
        "name": "統一超商臺北市齊德門市",
        "location": "臺北市士林區天母西路39-1號",
        "org": "統一超商股份有限公司",
        "seat": "1",
        "dis": "0",
        "par": "0",
        "lvl": 3,
        "id": 79
      }
    },
    {
      "type": "Feature",
      "geometry": {
        "type": "Point",
        "coordinates": [
          121.523791,
          25.088398
        ]
      },
      "properties": {
        "dist": "士林區",
        "type": "綜合零售賣場",
        "name": "統一超商臺北市上饌門市",
        "location": "臺北市士林區基河路125號",
        "org": "統一超商股份有限公司",
        "seat": "1",
        "dis": "0",
        "par": "0",
        "lvl": 3,
        "id": 80
      }
    },
    {
      "type": "Feature",
      "geometry": {
        "type": "Point",
        "coordinates": [
          121.518465,
          25.094757
        ]
      },
      "properties": {
        "dist": "士林區",
        "type": "綜合零售賣場",
        "name": "統一超商臺北市豐基門市",
        "location": "臺北市士林區基河路368-370號",
        "org": "統一超商股份有限公司",
        "seat": "1",
        "dis": "0",
        "par": "0",
        "lvl": 3,
        "id": 81
      }
    },
    {
      "type": "Feature",
      "geometry": {
        "type": "Point",
        "coordinates": [
          121.531342,
          25.111735
        ]
      },
      "properties": {
        "dist": "士林區",
        "type": "綜合零售賣場",
        "name": "大葉高島屋百貨",
        "location": "臺北市士林區忠誠路二段55號",
        "org": "大葉高島屋百貨股份有限公司",
        "seat": "23",
        "dis": "0",
        "par": "19",
        "lvl": 4,
        "id": 82
      }
    },
    {
      "type": "Feature",
      "geometry": {
        "type": "Point",
        "coordinates": [
          121.520569,
          25.092177
        ]
      },
      "properties": {
        "dist": "士林區",
        "type": "綜合零售賣場",
        "name": "特力屋士林購物中心",
        "location": "臺北市士林區基河路258號",
        "org": "特力屋股份有限公司",
        "seat": "5",
        "dis": "1",
        "par": "1",
        "lvl": 4,
        "id": 83
      }
    },
    {
      "type": "Feature",
      "geometry": {
        "type": "Point",
        "coordinates": [
          121.524523,
          25.104687
        ]
      },
      "properties": {
        "dist": "士林區",
        "type": "綜合零售賣場",
        "name": "遠東SOGO 台北天母店",
        "location": "臺北市士林區中山北路六段77號",
        "org": "太平洋崇光百貨股份有限公司遠東SOGO 台北天母店",
        "seat": "19",
        "dis": "2",
        "par": "1",
        "lvl": 4,
        "id": 84
      }
    },
    {
      "type": "Feature",
      "geometry": {
        "type": "Point",
        "coordinates": [
          121.533924,
          25.11795
        ]
      },
      "properties": {
        "dist": "士林區",
        "type": "綜合零售賣場",
        "name": "新光三越台北天母店",
        "location": "臺北市士林區天母東路68號",
        "org": "新光三越百貨股份有限公司臺北天母店",
        "seat": "19",
        "dis": "0",
        "par": "2",
        "lvl": 4,
        "id": 85
      }
    },
    {
      "type": "Feature",
      "geometry": {
        "type": "Point",
        "coordinates": [
          121.520569,
          25.092177
        ]
      },
      "properties": {
        "dist": "士林區",
        "type": "綜合零售賣場",
        "name": "特力和樂士林店",
        "location": "臺北市士林區基河路258號地下一樓",
        "org": "特力屋股份有限公司",
        "seat": "3",
        "dis": "0",
        "par": "2",
        "lvl": 4,
        "id": 86
      }
    },
    {
      "type": "Feature",
      "geometry": {
        "type": "Point",
        "coordinates": [
          121.522509,
          25.105293
        ]
      },
      "properties": {
        "dist": "士林區",
        "type": "綜合零售賣場",
        "name": "家樂福天母店",
        "location": "臺北市士林區德行西路47號",
        "org": "家福股份有限公司台北天母分公司",
        "seat": "7",
        "dis": "1",
        "par": "0",
        "lvl": 3,
        "id": 87
      }
    },
    {
      "type": "Feature",
      "geometry": {
        "type": "Point",
        "coordinates": [
          121.53136,
          25.118265
        ]
      },
      "properties": {
        "dist": "士林區",
        "type": "宗教",
        "name": "天母三玉宮",
        "location": "臺北市士林區天母東路6號",
        "org": "天母三玉宮",
        "seat": "1",
        "dis": "0",
        "par": "0",
        "lvl": 3,
        "id": 88
      }
    },
    {
      "type": "Feature",
      "geometry": {
        "type": "Point",
        "coordinates": [
          121.526158,
          25.097958
        ]
      },
      "properties": {
        "dist": "士林區",
        "type": "宗教",
        "name": "神農宮",
        "location": "臺北市士林區前街74號",
        "org": "財團法人台北市士林神農宮",
        "seat": "0",
        "dis": "0",
        "par": "0",
        "id": 89
      }
    },
    {
      "type": "Feature",
      "geometry": {
        "type": "Point",
        "coordinates": [
          121.51433,
          25.094158
        ]
      },
      "properties": {
        "dist": "士林區",
        "type": "機關",
        "name": "士林監理站",
        "location": "臺北市士林區承德路五段80號",
        "org": "交通部公路總局臺北市區監理所士林監理站",
        "seat": "13",
        "dis": "1",
        "par": "0",
        "lvl": 4,
        "id": 90
      }
    },
    {
      "type": "Feature",
      "geometry": {
        "type": "Point",
        "coordinates": [
          121.522926,
          25.097099
        ]
      },
      "properties": {
        "dist": "士林區",
        "type": "機關",
        "name": "國稅局士林稽徵所",
        "location": "臺北市士林區美崙街43號",
        "org": "財政部臺北國稅局士林稽徵所",
        "seat": "2",
        "dis": "0",
        "par": "0",
        "lvl": 3,
        "id": 91
      }
    },
    {
      "type": "Feature",
      "geometry": {
        "type": "Point",
        "coordinates": [
          121.522901,
          25.097098
        ]
      },
      "properties": {
        "dist": "士林區",
        "type": "機關",
        "name": "臺北市稅捐稽徵處士林分處",
        "location": "臺北市士林區美崙街41號",
        "org": "臺北市稅捐稽徵處士林分處",
        "seat": "3",
        "dis": "0",
        "par": "0",
        "lvl": 3,
        "id": 92
      }
    },
    {
      "type": "Feature",
      "geometry": {
        "type": "Point",
        "coordinates": [
          121.51967,
          25.092808
        ]
      },
      "properties": {
        "dist": "士林區",
        "type": "機關",
        "name": "士林區公所",
        "location": "臺北市士林區中正路439號",
        "org": "臺北市士林區公所",
        "seat": "18",
        "dis": "11",
        "par": "0",
        "lvl": 4,
        "id": 93
      }
    },
    {
      "type": "Feature",
      "geometry": {
        "type": "Point",
        "coordinates": [
          121.532946,
          25.123421
        ]
      },
      "properties": {
        "dist": "士林區",
        "type": "機關",
        "name": "臺北市立圖書館天母分館",
        "location": "臺北市士林區中山北路七段154巷6號3樓",
        "org": "臺北市立圖書館天母分館",
        "seat": "6",
        "dis": "2",
        "par": "0",
        "lvl": 4,
        "id": 94
      }
    },
    {
      "type": "Feature",
      "geometry": {
        "type": "Point",
        "coordinates": [
          121.51967,
          25.092808
        ]
      },
      "properties": {
        "dist": "士林區",
        "type": "機關",
        "name": "士林地政事務所",
        "location": "臺北市士林區中正路439號5樓",
        "org": "臺北市士林地政事務所",
        "seat": "11",
        "dis": "2",
        "par": "2",
        "lvl": 4,
        "id": 95
      }
    },
    {
      "type": "Feature",
      "geometry": {
        "type": "Point",
        "coordinates": [
          121.51967,
          25.092808
        ]
      },
      "properties": {
        "dist": "士林區",
        "type": "機關",
        "name": "士林區健康服務中心",
        "location": "臺北市士林區中正路439號2樓",
        "org": "臺北市士林區健康服務中心",
        "seat": "4",
        "dis": "1",
        "par": "0",
        "lvl": 4,
        "id": 96
      }
    },
    {
      "type": "Feature",
      "geometry": {
        "type": "Point",
        "coordinates": [
          121.51967,
          25.092808
        ]
      },
      "properties": {
        "dist": "士林區",
        "type": "機關",
        "name": "士林區戶政事務所",
        "location": "臺北市士林區中正路439號3樓",
        "org": "臺北市士林區戶政事務所",
        "seat": "10",
        "dis": "2",
        "par": "1",
        "lvl": 4,
        "id": 97
      }
    },
    {
      "type": "Feature",
      "geometry": {
        "type": "Point",
        "coordinates": [
          121.526036,
          25.08395
        ]
      },
      "properties": {
        "dist": "士林區",
        "type": "機關",
        "name": "臺北自來水事業處陽明營業處",
        "location": "臺北市士林區中山北路五段82號之1",
        "org": "臺北自來水事業處陽明營業分處",
        "seat": "4",
        "dis": "0",
        "par": "0",
        "lvl": 4,
        "id": 98
      }
    },
    {
      "type": "Feature",
      "geometry": {
        "type": "Point",
        "coordinates": [
          121.524038,
          25.078221
        ]
      },
      "properties": {
        "dist": "士林區",
        "type": "機關",
        "name": "救國團劍潭海外青年活動中心",
        "location": "臺北市士林區中山北路四段16號",
        "org": "中國青年救國團劍潭海外青年活動中心",
        "seat": "23",
        "dis": "0",
        "par": "0",
        "lvl": 3,
        "id": 99
      }
    },
    {
      "type": "Feature",
      "geometry": {
        "type": "Point",
        "coordinates": [
          121.511024,
          25.07924
        ]
      },
      "properties": {
        "dist": "士林區",
        "type": "機關",
        "name": "臺北市立圖書館葫蘆堵分館",
        "location": "臺北市士林區延平北路五段136巷1號5樓",
        "org": "臺北市立圖書館葫蘆堵分館",
        "seat": "14",
        "dis": "6",
        "par": "0",
        "lvl": 4,
        "id": 100
      }
    },
    {
      "type": "Feature",
      "geometry": {
        "type": "Point",
        "coordinates": [
          121.52874,
          25.103598
        ]
      },
      "properties": {
        "dist": "士林區",
        "type": "機關",
        "name": "士林區芝山岩區民活動中心",
        "location": "臺北市士林區雨聲街68號",
        "org": "臺北市士林區公所名山里辦公室",
        "seat": "2",
        "dis": "1",
        "par": "0",
        "lvl": 4,
        "id": 101
      }
    },
    {
      "type": "Feature",
      "geometry": {
        "type": "Point",
        "coordinates": [
          121.525818,
          25.090867
        ]
      },
      "properties": {
        "dist": "士林區",
        "type": "機關",
        "name": "士林分局",
        "location": "臺北市士林區文林路235號",
        "org": "臺北市政府警察局士林分局",
        "seat": "3",
        "dis": "1",
        "par": "0",
        "lvl": 3,
        "id": 102
      }
    },
    {
      "type": "Feature",
      "geometry": {
        "type": "Point",
        "coordinates": [
          121.532891,
          25.124972
        ]
      },
      "properties": {
        "dist": "士林區",
        "type": "機關",
        "name": "天母派出所",
        "location": "臺北市士林區中山北路七段192號",
        "org": "臺北市政府警察局 天母派出所",
        "seat": "1",
        "dis": "0",
        "par": "0",
        "lvl": 3,
        "id": 103
      }
    },
    {
      "type": "Feature",
      "geometry": {
        "type": "Point",
        "coordinates": [
          121.537886,
          25.101122
        ]
      },
      "properties": {
        "dist": "士林區",
        "type": "機關",
        "name": "芝山岩派出所",
        "location": "臺北市士林區仰德大道一段16號",
        "org": "臺北市政府警察局 芝山岩派出所",
        "seat": "1",
        "dis": "0",
        "par": "0",
        "lvl": 3,
        "id": 104
      }
    },
    {
      "type": "Feature",
      "geometry": {
        "type": "Point",
        "coordinates": [
          121.517986,
          25.087458
        ]
      },
      "properties": {
        "dist": "士林區",
        "type": "機關",
        "name": "後港派出所",
        "location": "臺北市士林區福港街151號",
        "org": "臺北市政府警察局 後港派出所",
        "seat": "1",
        "dis": "0",
        "par": "0",
        "lvl": 3,
        "id": 105
      }
    },
    {
      "type": "Feature",
      "geometry": {
        "type": "Point",
        "coordinates": [
          121.584565,
          25.119766
        ]
      },
      "properties": {
        "dist": "士林區",
        "type": "機關",
        "name": "溪山派出所",
        "location": "臺北市士林區至善路三段263號",
        "org": "臺北市政府警察局溪山派出所",
        "seat": "1",
        "dis": "0",
        "par": "0",
        "lvl": 3,
        "id": 106
      }
    },
    {
      "type": "Feature",
      "geometry": {
        "type": "Point",
        "coordinates": [
          121.560269,
          25.108065
        ]
      },
      "properties": {
        "dist": "士林區",
        "type": "機關",
        "name": "翠山派出所",
        "location": "臺北市士林區中社路一段56號",
        "org": "臺北市政府警察局 翠山派出所",
        "seat": "1",
        "dis": "0",
        "par": "0",
        "lvl": 3,
        "id": 107
      }
    },
    {
      "type": "Feature",
      "geometry": {
        "type": "Point",
        "coordinates": [
          121.524711,
          25.106504
        ]
      },
      "properties": {
        "dist": "士林區",
        "type": "機關",
        "name": "蘭雅派出所",
        "location": "臺北市士林區中山北路六段153號1樓",
        "org": "臺北市政府警察局 蘭雅派出所",
        "seat": "1",
        "dis": "0",
        "par": "0",
        "lvl": 3,
        "id": 108
      }
    },
    {
      "type": "Feature",
      "geometry": {
        "type": "Point",
        "coordinates": [
          121.537773,
          25.11374
        ]
      },
      "properties": {
        "dist": "士林區",
        "type": "機關",
        "name": "臺北市職能發展學院",
        "location": "臺北市士林區士東路301號",
        "org": "臺北市職能發展學院",
        "seat": "31",
        "dis": "0",
        "par": "0",
        "lvl": 4,
        "id": 109
      }
    },
    {
      "type": "Feature",
      "geometry": {
        "type": "Point",
        "coordinates": [
          121.52559,
          25.090846
        ]
      },
      "properties": {
        "dist": "士林區",
        "type": "機關",
        "name": "士林區公民會館",
        "location": "臺北市士林區士林區大東路75號",
        "org": "臺北市士林區公所士林公民會館",
        "seat": "5",
        "dis": "1",
        "par": "1",
        "lvl": 3,
        "id": 110
      }
    },
    {
      "type": "Feature",
      "geometry": {
        "type": "Point",
        "coordinates": [
          121.519572,
          25.092759
        ]
      },
      "properties": {
        "dist": "士林區",
        "type": "機關",
        "name": "士林區清潔隊",
        "location": "臺北市士林區中正路439號7樓",
        "org": "士林區清潔隊",
        "seat": "1",
        "dis": "0",
        "par": "0",
        "lvl": 3,
        "id": 111
      }
    },
    {
      "type": "Feature",
      "geometry": {
        "type": "Point",
        "coordinates": [
          121.517365,
          25.091507
        ]
      },
      "properties": {
        "dist": "士林區",
        "type": "機關",
        "name": "李科永紀念圖書館",
        "location": "臺北市士林區中正路15號",
        "org": "臺北市立圖書館 李科永紀念圖書館",
        "seat": "9",
        "dis": "3",
        "par": "0",
        "lvl": 3,
        "id": 112
      }
    },
    {
      "type": "Feature",
      "geometry": {
        "type": "Point",
        "coordinates": [
          121.53308,
          25.112514
        ]
      },
      "properties": {
        "dist": "士林區",
        "type": "機關",
        "name": "臺灣士林地方檢察署",
        "location": "臺北市士林區士東路190號",
        "org": "臺灣士林地方法院檢察署",
        "seat": "18",
        "dis": "4",
        "par": "0",
        "lvl": 4,
        "id": 113
      }
    },
    {
      "type": "Feature",
      "geometry": {
        "type": "Point",
        "coordinates": [
          121.53252,
          25.096938
        ]
      },
      "properties": {
        "dist": "士林區",
        "type": "連鎖餐飲店",
        "name": "摩斯漢堡福林店",
        "location": "臺北市士林區福林路189號1樓",
        "org": "安心食品服務股份有限公司福林分公司",
        "seat": "1",
        "dis": "0",
        "par": "0",
        "lvl": 3,
        "id": 114
      }
    },
    {
      "type": "Feature",
      "geometry": {
        "type": "Point",
        "coordinates": [
          121.528052,
          25.095924
        ]
      },
      "properties": {
        "dist": "士林區",
        "type": "連鎖餐飲店",
        "name": "麥當勞士林店",
        "location": "臺北市士林區中山北路五段602號",
        "org": "台灣麥當勞餐廳股份有限公司台北士林分公司",
        "seat": "1",
        "dis": "1",
        "par": "0",
        "lvl": 3,
        "id": 115
      }
    },
    {
      "type": "Feature",
      "geometry": {
        "type": "Point",
        "coordinates": [
          121.512179,
          25.082593
        ]
      },
      "properties": {
        "dist": "士林區",
        "type": "連鎖餐飲店",
        "name": "麥當勞台北重慶店",
        "location": "臺北市士林區重慶北路四段123號",
        "org": "台灣麥當勞餐廳股份有限公司重慶北路分公司",
        "seat": "1",
        "dis": "0",
        "par": "0",
        "lvl": 4,
        "id": 116
      }
    },
    {
      "type": "Feature",
      "geometry": {
        "type": "Point",
        "coordinates": [
          121.524861,
          25.095043
        ]
      },
      "properties": {
        "dist": "士林區",
        "type": "連鎖餐飲店",
        "name": "拿坡里士林店",
        "location": "臺北市士林區文林路430號1樓",
        "org": "拿帕里股份有限公司士林分公司",
        "seat": "1",
        "dis": "0",
        "par": "0",
        "lvl": 3,
        "id": 117
      }
    },
    {
      "type": "Feature",
      "geometry": {
        "type": "Point",
        "coordinates": [
          121.523123,
          25.09483
        ]
      },
      "properties": {
        "dist": "士林區",
        "type": "連鎖餐飲店",
        "name": "三商巧福士林店",
        "location": "臺北市士林區中正路331號1樓",
        "org": "三商行股份有限公司士林分公司",
        "seat": "1",
        "dis": "0",
        "par": "0",
        "lvl": 3,
        "id": 118
      }
    },
    {
      "type": "Feature",
      "geometry": {
        "type": "Point",
        "coordinates": [
          121.525784,
          25.095607
        ]
      },
      "properties": {
        "dist": "士林區",
        "type": "連鎖餐飲店",
        "name": "統一星巴克士捷門市",
        "location": "臺北市士林區中正路239號1樓",
        "org": "統一星巴克股份有限公司士捷門市",
        "seat": "1",
        "dis": "0",
        "par": "0",
        "lvl": 3,
        "id": 119
      }
    },
    {
      "type": "Feature",
      "geometry": {
        "type": "Point",
        "coordinates": [
          121.530115,
          25.108188
        ]
      },
      "properties": {
        "dist": "士林區",
        "type": "連鎖餐飲店",
        "name": "摩斯漢堡忠誠店",
        "location": "臺北市士林區忠誠路一段188號1樓",
        "org": "安心食品服務股份有限公司忠誠店",
        "seat": "1",
        "dis": "0",
        "par": "0",
        "lvl": 3,
        "id": 120
      }
    },
    {
      "type": "Feature",
      "geometry": {
        "type": "Point",
        "coordinates": [
          121.52597,
          25.087298
        ]
      },
      "properties": {
        "dist": "士林區",
        "type": "連鎖餐飲店",
        "name": "肯德基士林分公司",
        "location": "臺北市士林區文林路88號",
        "org": "怡和餐飲股份有限公司台北士林分公司",
        "seat": "1",
        "dis": "0",
        "par": "0",
        "lvl": 3,
        "id": 121
      }
    },
    {
      "type": "Feature",
      "geometry": {
        "type": "Point",
        "coordinates": [
          121.54666,
          25.137706
        ]
      },
      "properties": {
        "dist": "士林區",
        "type": "連鎖餐飲店",
        "name": "麥當勞陽明山店",
        "location": "臺北市士林區格致路58之62號1.2樓",
        "org": "台灣麥當勞餐廳股份有限公司陽明山分公司",
        "seat": "1",
        "dis": "0",
        "par": "0",
        "lvl": 3,
        "id": 122
      }
    },
    {
      "type": "Feature",
      "geometry": {
        "type": "Point",
        "coordinates": [
          121.546447,
          25.138486
        ]
      },
      "properties": {
        "dist": "士林區",
        "type": "連鎖餐飲店",
        "name": "摩斯漢堡格致店",
        "location": "臺北市士林區格致路59號",
        "org": "安心食品服務股份有限公司格致分公司",
        "seat": "1",
        "dis": "0",
        "par": "0",
        "lvl": 3,
        "id": 123
      }
    },
    {
      "type": "Feature",
      "geometry": {
        "type": "Point",
        "coordinates": [
          121.530461,
          25.11325
        ]
      },
      "properties": {
        "dist": "士林區",
        "type": "連鎖餐飲店",
        "name": "摩斯漢堡士東店",
        "location": "臺北市士林區中山北路六段730號",
        "org": "安心食品服務股份有限公司士東分公司",
        "seat": "1",
        "dis": "0",
        "par": "0",
        "lvl": 3,
        "id": 124
      }
    },
    {
      "type": "Feature",
      "geometry": {
        "type": "Point",
        "coordinates": [
          121.526942,
          25.122109
        ]
      },
      "properties": {
        "dist": "士林區",
        "type": "連鎖餐飲店",
        "name": "摩斯漢堡天母店",
        "location": "臺北市士林區天母北路85號",
        "org": "安心食品服務股份有限公司天母分公司",
        "seat": "1",
        "dis": "0",
        "par": "0",
        "lvl": 3,
        "id": 125
      }
    },
    {
      "type": "Feature",
      "geometry": {
        "type": "Point",
        "coordinates": [
          121.530848,
          25.11292
        ]
      },
      "properties": {
        "dist": "士林區",
        "type": "連鎖餐飲店",
        "name": "統一星巴克忠誠門市",
        "location": "臺北市士林區士東路123號",
        "org": "統一星巴克股份有限公司忠誠門市",
        "seat": "1",
        "dis": "0",
        "par": "0",
        "lvl": 3,
        "id": 126
      }
    },
    {
      "type": "Feature",
      "geometry": {
        "type": "Point",
        "coordinates": [
          121.531341,
          25.118651
        ]
      },
      "properties": {
        "dist": "士林區",
        "type": "連鎖餐飲店",
        "name": "方家小館",
        "location": "臺北市士林區天母東路7號",
        "org": "方家小館",
        "seat": "2",
        "dis": "0",
        "par": "0",
        "lvl": 3,
        "id": 127
      }
    },
    {
      "type": "Feature",
      "geometry": {
        "type": "Point",
        "coordinates": [
          121.527286,
          25.120244
        ]
      },
      "properties": {
        "dist": "士林區",
        "type": "連鎖餐飲店",
        "name": "我家牛排天母店",
        "location": "臺北市士林區天母西路13巷13號",
        "org": "天天來小吃店",
        "seat": "1",
        "dis": "0",
        "par": "0",
        "lvl": 3,
        "id": 128
      }
    },
    {
      "type": "Feature",
      "geometry": {
        "type": "Point",
        "coordinates": [
          121.53196,
          25.118301
        ]
      },
      "properties": {
        "dist": "士林區",
        "type": "連鎖餐飲店",
        "name": "SUBWAY天母東路門市",
        "location": "臺北市士林區天母東路31號",
        "org": "SUBWAY天母東路門市",
        "seat": "1",
        "dis": "0",
        "par": "0",
        "lvl": 4,
        "id": 129
      }
    },
    {
      "type": "Feature",
      "geometry": {
        "type": "Point",
        "coordinates": [
          121.528224,
          25.08707
        ]
      },
      "properties": {
        "dist": "士林區",
        "type": "機關",
        "name": "士林11號",
        "location": "臺北市士林區中山北路五段280巷14弄5號邊（面對復興廣播電台左邊巷子進入）",
        "org": "臺北市政府環境保護局",
        "seat": "1",
        "dis": "0",
        "par": "0",
        "lvl": 3,
        "id": 130
      }
    },
    {
      "type": "Feature",
      "geometry": {
        "type": "Point",
        "coordinates": [
          121.525154,
          25.093267
        ]
      },
      "properties": {
        "dist": "士林區",
        "type": "機關",
        "name": "士林1號",
        "location": "臺北市士林區大東路165號士林國小對面",
        "org": "臺北市政府環境保護局",
        "seat": "1",
        "dis": "0",
        "par": "0",
        "lvl": 3,
        "id": 131
      }
    },
    {
      "type": "Feature",
      "geometry": {
        "type": "Point",
        "coordinates": [
          121.53175,
          25.105287
        ]
      },
      "properties": {
        "dist": "士林區",
        "type": "醫院",
        "name": "聯合醫院陽明院區　　　　",
        "location": "臺北市士林區雨聲街105號",
        "org": "臺北市立聯合醫院陽明院區",
        "seat": "14",
        "dis": "2",
        "par": "0",
        "lvl": 4,
        "id": 132
      }
    },
    {
      "type": "Feature",
      "geometry": {
        "type": "Point",
        "coordinates": [
          121.520908,
          25.096428
        ]
      },
      "properties": {
        "dist": "士林區",
        "type": "醫院",
        "name": "新光醫院",
        "location": "臺北市士林區文昌路95號",
        "org": "新光醫療財團法人新光吳火獅紀念醫院",
        "seat": "37",
        "dis": "0",
        "par": "2",
        "lvl": 4,
        "id": 133
      }
    },
    {
      "type": "Feature",
      "geometry": {
        "type": "Point",
        "coordinates": [
          121.51967,
          25.092808
        ]
      },
      "properties": {
        "dist": "士林區",
        "type": "醫院",
        "name": "聯合醫院士林門診部",
        "location": "臺北市士林區中正路439號",
        "org": "臺北市立聯合醫院士林門診部",
        "seat": "2",
        "dis": "1",
        "par": "0",
        "lvl": 3,
        "id": 134
      }
    },
    {
      "type": "Feature",
      "geometry": {
        "type": "Point",
        "coordinates": [
          121.519711,
          25.091196
        ]
      },
      "properties": {
        "dist": "士林區",
        "type": "醫院",
        "name": "新光醫院聖賢樓",
        "location": "臺北市士林區士商路51號",
        "org": "新光醫療財團法人新光吳火獅紀念醫院",
        "seat": "21",
        "dis": "5",
        "par": "0",
        "lvl": 4,
        "id": 135
      }
    },
    {
      "type": "Feature",
      "geometry": {
        "type": "Point",
        "coordinates": [
          121.520518,
          25.052433
        ]
      },
      "properties": {
        "dist": "大同區",
        "type": "交通",
        "name": "捷運中山站(淡水信義線)",
        "location": "臺北市大同區南京西路16號",
        "org": "捷運中山站",
        "seat": "3",
        "dis": "0",
        "par": "1",
        "lvl": 4,
        "id": 136
      }
    },
    {
      "type": "Feature",
      "geometry": {
        "type": "Point",
        "coordinates": [
          121.520653,
          25.057686
        ]
      },
      "properties": {
        "dist": "大同區",
        "type": "交通",
        "name": "捷運雙連站(淡水信義線)",
        "location": "臺北市大同區民生西路47號",
        "org": "捷運雙連站",
        "seat": "3",
        "dis": "0",
        "par": "1",
        "lvl": 4,
        "id": 137
      }
    },
    {
      "type": "Feature",
      "geometry": {
        "type": "Point",
        "coordinates": [
          121.519531,
          25.062724
        ]
      },
      "properties": {
        "dist": "大同區",
        "type": "交通",
        "name": "捷運民權西路站(淡水信義線)",
        "location": "臺北市大同區民權西路72號",
        "org": "捷運民權西路站",
        "seat": "3",
        "dis": "0",
        "par": "1",
        "lvl": 4,
        "id": 138
      }
    },
    {
      "type": "Feature",
      "geometry": {
        "type": "Point",
        "coordinates": [
          121.520118,
          25.071353
        ]
      },
      "properties": {
        "dist": "大同區",
        "type": "交通",
        "name": "捷運圓山站(淡水信義線)",
        "location": "臺北市大同區酒泉街9之1號",
        "org": "捷運圓山站",
        "seat": "3",
        "dis": "0",
        "par": "1",
        "lvl": 4,
        "id": 139
      }
    },
    {
      "type": "Feature",
      "geometry": {
        "type": "Point",
        "coordinates": [
          121.510184,
          25.049554
        ]
      },
      "properties": {
        "dist": "大同區",
        "type": "交通",
        "name": "捷運北門站(松山新店線)",
        "location": "臺北市大同區塔城街10號",
        "org": "捷運北門站(松山新店線)",
        "seat": "6",
        "dis": "0",
        "par": "2",
        "lvl": 4,
        "id": 140
      }
    },
    {
      "type": "Feature",
      "geometry": {
        "type": "Point",
        "coordinates": [
          121.520364,
          25.052621
        ]
      },
      "properties": {
        "dist": "大同區",
        "type": "交通",
        "name": "捷運中山站(松山新店線)",
        "location": "臺北市大同區南京西路55號",
        "org": "捷運中山站(松山新店線)",
        "seat": "3",
        "dis": "0",
        "par": "1",
        "lvl": 4,
        "id": 141
      }
    },
    {
      "type": "Feature",
      "geometry": {
        "type": "Point",
        "coordinates": [
          121.511747,
          25.074299
        ]
      },
      "properties": {
        "dist": "大同區",
        "type": "交通",
        "name": "臺北市啟聰學校地下停車場",
        "location": "臺北市大同區延平北路四段205號地下室",
        "org": "臺北市停管處啟聰學校地下停車場",
        "seat": "3",
        "dis": "1",
        "par": "0",
        "lvl": 4,
        "id": 142
      }
    },
    {
      "type": "Feature",
      "geometry": {
        "type": "Point",
        "coordinates": [
          121.510314,
          25.058348
        ]
      },
      "properties": {
        "dist": "大同區",
        "type": "交通",
        "name": "大稻埕公園地下停車場(署)",
        "location": "臺北市大同區歸綏街243號地下",
        "org": "臺北市停車管理工程處大稻埕公園地下停車場",
        "seat": "3",
        "dis": "1",
        "par": "0",
        "lvl": 4,
        "id": 143
      }
    },
    {
      "type": "Feature",
      "geometry": {
        "type": "Point",
        "coordinates": [
          121.519698,
          25.060765
        ]
      },
      "properties": {
        "dist": "大同區",
        "type": "交通",
        "name": "成淵高中地下停車場",
        "location": "臺北市大同區承德路二段235號之1地下室",
        "org": "臺北市停車管理工程處成淵高中地下停車場",
        "seat": "3",
        "dis": "1",
        "par": "0",
        "lvl": 3,
        "id": 144
      }
    },
    {
      "type": "Feature",
      "geometry": {
        "type": "Point",
        "coordinates": [
          121.519621,
          25.050483
        ]
      },
      "properties": {
        "dist": "大同區",
        "type": "交通",
        "name": "建成國中地下停車場(署)",
        "location": "臺北市大同區長安西路37號之1地下室",
        "org": "臺北市停車管理工程處建成國中地下停車場",
        "seat": "3",
        "dis": "1",
        "par": "0",
        "lvl": 4,
        "id": 145
      }
    },
    {
      "type": "Feature",
      "geometry": {
        "type": "Point",
        "coordinates": [
          121.515846,
          25.067427
        ]
      },
      "properties": {
        "dist": "大同區",
        "type": "交通",
        "name": "揚雅立體停車場",
        "location": "臺北市大同區大龍街136號",
        "org": "臺北市停車管理工程處揚雅立體停車場",
        "seat": "2",
        "dis": "0",
        "par": "0",
        "lvl": 3,
        "id": 146
      }
    },
    {
      "type": "Feature",
      "geometry": {
        "type": "Point",
        "coordinates": [
          121.509083,
          25.050352
        ]
      },
      "properties": {
        "dist": "大同區",
        "type": "交通",
        "name": "市民大道地下停車場塔城段",
        "location": "臺北市大同區西寧北路-塔城街間地下",
        "org": "臺北市停車管理工程處市民大道塔城段地下停車場",
        "seat": "3",
        "dis": "1",
        "par": "0",
        "lvl": 4,
        "id": 147
      }
    },
    {
      "type": "Feature",
      "geometry": {
        "type": "Point",
        "coordinates": [
          121.510651,
          25.050686
        ]
      },
      "properties": {
        "dist": "大同區",
        "type": "交通",
        "name": "塔城公園地下停車場(署)",
        "location": "臺北市大同區塔城街11號地下",
        "org": "臺北市停車管理工程處塔城公園地下停車場",
        "seat": "3",
        "dis": "1",
        "par": "0",
        "lvl": 4,
        "id": 148
      }
    },
    {
      "type": "Feature",
      "geometry": {
        "type": "Point",
        "coordinates": [
          121.513168,
          25.055952
        ]
      },
      "properties": {
        "dist": "大同區",
        "type": "交通",
        "name": "朝陽公園地下停車場(署)",
        "location": "臺北市大同區重慶北路二段68號B1",
        "org": "臺北市政府停車管理處朝陽公園地下停車場",
        "seat": "3",
        "dis": "1",
        "par": "0",
        "lvl": 4,
        "id": 149
      }
    },
    {
      "type": "Feature",
      "geometry": {
        "type": "Point",
        "coordinates": [
          121.518569,
          25.048786
        ]
      },
      "properties": {
        "dist": "大同區",
        "type": "交通",
        "name": "臺北轉運站",
        "location": "臺北市大同區市民大道一段209號",
        "org": "萬達通實業股份有限公司",
        "seat": "12",
        "dis": "4",
        "par": "0",
        "lvl": 4,
        "id": 150
      }
    },
    {
      "type": "Feature",
      "geometry": {
        "type": "Point",
        "coordinates": [
          121.519346,
          25.062879
        ]
      },
      "properties": {
        "dist": "大同區",
        "type": "交通",
        "name": "捷運民權西路站(新蘆線)",
        "location": "臺北市大同區民權西路72號1F",
        "org": "臺北大眾捷運股份有限公司捷運民權西路站(新蘆線)",
        "seat": "5",
        "dis": "0",
        "par": "1",
        "lvl": 4,
        "id": 151
      }
    },
    {
      "type": "Feature",
      "geometry": {
        "type": "Point",
        "coordinates": [
          121.513043,
          25.063171
        ]
      },
      "properties": {
        "dist": "大同區",
        "type": "交通",
        "name": "捷運大橋頭站(新蘆線)",
        "location": "臺北市大同區民權西路223號",
        "org": "臺北大眾捷運股份有限公司捷運大橋頭站(新蘆線)",
        "seat": "5",
        "dis": "1",
        "par": "1",
        "lvl": 4,
        "id": 152
      }
    },
    {
      "type": "Feature",
      "geometry": {
        "type": "Point",
        "coordinates": [
          121.51571,
          25.056387
        ]
      },
      "properties": {
        "dist": "大同區",
        "type": "交通",
        "name": "蓬萊國小地下停車場",
        "location": "臺北市大同區寧夏路35號B1(夜)",
        "org": "臺北市停車管理工程處蓬萊國小地下停車場",
        "seat": "5",
        "dis": "1",
        "par": "0",
        "lvl": 3,
        "id": 153
      }
    },
    {
      "type": "Feature",
      "geometry": {
        "type": "Point",
        "coordinates": [
          121.516707,
          25.073472
        ]
      },
      "properties": {
        "dist": "大同區",
        "type": "交通",
        "name": "大龍國小地下停車場",
        "location": "臺北市大同區哈密街47號地下",
        "org": "臺北市停車管理工程處大龍國小地下停車場",
        "seat": "3",
        "dis": "1",
        "par": "0",
        "lvl": 4,
        "id": 154
      }
    },
    {
      "type": "Feature",
      "geometry": {
        "type": "Point",
        "coordinates": [
          121.518145,
          25.054064
        ]
      },
      "properties": {
        "dist": "大同區",
        "type": "交通",
        "name": "建成公園地下停車場(署)",
        "location": "臺北市大同區承德路二段31號",
        "org": "臺北市停車管理工程處建成公園地下停車場",
        "seat": "3",
        "dis": "1",
        "par": "0",
        "lvl": 4,
        "id": 155
      }
    },
    {
      "type": "Feature",
      "geometry": {
        "type": "Point",
        "coordinates": [
          121.510325,
          25.054501
        ]
      },
      "properties": {
        "dist": "大同區",
        "type": "文化育樂場所",
        "name": "大稻埕戲苑",
        "location": "臺北市大同區迪化街一段21號8樓",
        "org": "臺北市藝文推廣處",
        "seat": "5",
        "dis": "1",
        "par": "0",
        "lvl": 4,
        "id": 156
      }
    },
    {
      "type": "Feature",
      "geometry": {
        "type": "Point",
        "coordinates": [
          121.512543,
          25.057079
        ]
      },
      "properties": {
        "dist": "大同區",
        "type": "文化育樂場所",
        "name": "新芳春茶行",
        "location": "臺北市大同區民生西路309號",
        "org": "財團法人臺灣文創發展基金會",
        "seat": "5",
        "dis": "1",
        "par": "1",
        "lvl": 4,
        "id": 157
      }
    },
    {
      "type": "Feature",
      "geometry": {
        "type": "Point",
        "coordinates": [
          121.518381,
          25.050821
        ]
      },
      "properties": {
        "dist": "大同區",
        "type": "文化育樂場所",
        "name": "臺北當代藝術館",
        "location": "臺北市大同區長安西路39號",
        "org": "臺北當代藝術館",
        "seat": "2",
        "dis": "0",
        "par": "0",
        "lvl": 4,
        "id": 158
      }
    },
    {
      "type": "Feature",
      "geometry": {
        "type": "Point",
        "coordinates": [
          121.516314,
          25.064665
        ]
      },
      "properties": {
        "dist": "大同區",
        "type": "文化育樂場所",
        "name": "大同運動中心",
        "location": "臺北市大同區大龍街51號",
        "org": "舞動陽光有限公司",
        "seat": "12",
        "dis": "2",
        "par": "0",
        "lvl": 4,
        "id": 159
      }
    },
    {
      "type": "Feature",
      "geometry": {
        "type": "Point",
        "coordinates": [
          121.51061,
          25.072468
        ]
      },
      "properties": {
        "dist": "大同區",
        "type": "觀光遊憩",
        "name": "臺北迪化污水處理廠附設休閒運動公園   ",
        "location": "臺北市大同區酒泉街235號",
        "org": "臺北迪化污水處理廠附設休閒運動公園",
        "seat": "2",
        "dis": "0",
        "par": "0",
        "lvl": 3,
        "id": 160
      }
    },
    {
      "type": "Feature",
      "geometry": {
        "type": "Point",
        "coordinates": [
          121.514394,
          25.062837
        ]
      },
      "properties": {
        "dist": "大同區",
        "type": "加油站",
        "name": "中油民權西路加油站",
        "location": "臺北市大同區民權西路194號",
        "org": "臺灣中油股份有限公司民權西路站",
        "seat": "3",
        "dis": "1",
        "par": "0",
        "lvl": 4,
        "id": 161
      }
    },
    {
      "type": "Feature",
      "geometry": {
        "type": "Point",
        "coordinates": [
          121.515572,
          25.064239
        ]
      },
      "properties": {
        "dist": "大同區",
        "type": "公園",
        "name": "蘭州公園(署)",
        "location": "臺北市大同區蘭州街89巷前",
        "org": "公園路燈工程管理處圓山管理所",
        "seat": "3",
        "dis": "1",
        "par": "0",
        "lvl": 4,
        "id": 162
      }
    },
    {
      "type": "Feature",
      "geometry": {
        "type": "Point",
        "coordinates": [
          121.516499,
          25.067032
        ]
      },
      "properties": {
        "dist": "大同區",
        "type": "公園",
        "name": "樹德公園(署)",
        "location": "臺北市大同區大龍街90之10號前",
        "org": "公園路燈工程管理處圓山公園管理所",
        "seat": "3",
        "dis": "1",
        "par": "0",
        "lvl": 4,
        "id": 163
      }
    },
    {
      "type": "Feature",
      "geometry": {
        "type": "Point",
        "coordinates": [
          121.51329,
          25.058015
        ]
      },
      "properties": {
        "dist": "大同區",
        "type": "公園",
        "name": "歸綏公園(署)",
        "location": "臺北市大同區重慶北路及歸綏街口",
        "org": "公園路燈工程管理處圓山公園管理所",
        "seat": "3",
        "dis": "1",
        "par": "0",
        "lvl": 4,
        "id": 164
      }
    },
    {
      "type": "Feature",
      "geometry": {
        "type": "Point",
        "coordinates": [
          121.51684,
          25.057036
        ]
      },
      "properties": {
        "dist": "大同區",
        "type": "市場",
        "name": "公有雙連市場(署)",
        "location": "臺北市大同區民生西路198號",
        "org": "臺北市市場處公有雙連市場",
        "seat": "3",
        "dis": "1",
        "par": "0",
        "lvl": 4,
        "id": 165
      }
    },
    {
      "type": "Feature",
      "geometry": {
        "type": "Point",
        "coordinates": [
          121.510334,
          25.054812
        ]
      },
      "properties": {
        "dist": "大同區",
        "type": "市場",
        "name": "公有永樂市場(署)",
        "location": "臺北市大同區迪化街一段21號",
        "org": "臺北市市場處公有永樂市場",
        "seat": "12",
        "dis": "0",
        "par": "0",
        "lvl": 4,
        "id": 166
      }
    },
    {
      "type": "Feature",
      "geometry": {
        "type": "Point",
        "coordinates": [
          121.51416,
          25.074936
        ]
      },
      "properties": {
        "dist": "大同區",
        "type": "市場",
        "name": "公有大龍市場(署)",
        "location": "臺北市大同區重慶北路三段347號",
        "org": "臺北市市場處公有大龍市場",
        "seat": "4",
        "dis": "1",
        "par": "1",
        "lvl": 4,
        "id": 167
      }
    },
    {
      "type": "Feature",
      "geometry": {
        "type": "Point",
        "coordinates": [
          121.515667,
          25.06601
        ]
      },
      "properties": {
        "dist": "大同區",
        "type": "市場",
        "name": "公有蘭州市場(署)",
        "location": "臺北市大同區昌吉街55號",
        "org": "臺北市公有蘭州市場",
        "seat": "3",
        "dis": "1",
        "par": "0",
        "lvl": 4,
        "id": 168
      }
    },
    {
      "type": "Feature",
      "geometry": {
        "type": "Point",
        "coordinates": [
          121.518588,
          25.065245
        ]
      },
      "properties": {
        "dist": "大同區",
        "type": "綜合零售賣場",
        "name": "統一超商臺北市三德門市",
        "location": "臺北市大同區承德路三段55號57號1樓",
        "org": "統一超商股份有限公司臺北市三德門市",
        "seat": "1",
        "dis": "0",
        "par": "0",
        "lvl": 3,
        "id": 169
      }
    },
    {
      "type": "Feature",
      "geometry": {
        "type": "Point",
        "coordinates": [
          121.518552,
          25.072542
        ]
      },
      "properties": {
        "dist": "大同區",
        "type": "綜合零售賣場",
        "name": "統一超商臺北市德倫門市",
        "location": "臺北市大同區承德路三段240號242號1樓",
        "org": "統一超商股份有限公司臺北市德倫門市",
        "seat": "1",
        "dis": "0",
        "par": "0",
        "lvl": 3,
        "id": 170
      }
    },
    {
      "type": "Feature",
      "geometry": {
        "type": "Point",
        "coordinates": [
          121.518105,
          25.0653
        ]
      },
      "properties": {
        "dist": "大同區",
        "type": "綜合零售賣場",
        "name": "統一超商臺北市昌吉門市",
        "location": "臺北市大同區承德路三段60號60-1號",
        "org": "統一超商股份有限公司臺北市昌吉門市",
        "seat": "1",
        "dis": "0",
        "par": "0",
        "lvl": 3,
        "id": 171
      }
    },
    {
      "type": "Feature",
      "geometry": {
        "type": "Point",
        "coordinates": [
          121.514962,
          25.057027
        ]
      },
      "properties": {
        "dist": "大同區",
        "type": "綜合零售賣場",
        "name": "統一超商臺北市鑫寧門市",
        "location": "臺北市大同區民生西路214號",
        "org": "統一超商股份有限公司臺北市鑫寧門市",
        "seat": "1",
        "dis": "0",
        "par": "0",
        "lvl": 3,
        "id": 172
      }
    },
    {
      "type": "Feature",
      "geometry": {
        "type": "Point",
        "coordinates": [
          121.511596,
          25.058262
        ]
      },
      "properties": {
        "dist": "大同區",
        "type": "綜合零售賣場",
        "name": "統一超商臺北市延埕門市",
        "location": "臺北市大同區延平北路二段159號1樓",
        "org": "統一超商股份有限公司臺北市延埕門市",
        "seat": "1",
        "dis": "0",
        "par": "0",
        "lvl": 3,
        "id": 173
      }
    },
    {
      "type": "Feature",
      "geometry": {
        "type": "Point",
        "coordinates": [
          121.515191,
          25.058503
        ]
      },
      "properties": {
        "dist": "大同區",
        "type": "綜合零售賣場",
        "name": "統一超商臺北市靜中門市",
        "location": "臺北市大同區寧夏路71號",
        "org": "統一超商股份有限公司",
        "seat": "1",
        "dis": "0",
        "par": "0",
        "lvl": 3,
        "id": 174
      }
    },
    {
      "type": "Feature",
      "geometry": {
        "type": "Point",
        "coordinates": [
          121.514507,
          25.060667
        ]
      },
      "properties": {
        "dist": "大同區",
        "type": "綜合零售賣場",
        "name": "統一超商臺北市蓬萊門市",
        "location": "臺北市大同區寧夏路131之1號",
        "org": "統一超商股份有限公司",
        "seat": "1",
        "dis": "0",
        "par": "0",
        "lvl": 3,
        "id": 175
      }
    },
    {
      "type": "Feature",
      "geometry": {
        "type": "Point",
        "coordinates": [
          121.519262,
          25.057605
        ]
      },
      "properties": {
        "dist": "大同區",
        "type": "綜合零售賣場",
        "name": "統一超商臺北市仟發門市",
        "location": "臺北市大同區民生西路95號",
        "org": "統一超商股份有限公司",
        "seat": "1",
        "dis": "0",
        "par": "0",
        "lvl": 3,
        "id": 176
      }
    },
    {
      "type": "Feature",
      "geometry": {
        "type": "Point",
        "coordinates": [
          121.517543,
          25.057138
        ]
      },
      "properties": {
        "dist": "大同區",
        "type": "綜合零售賣場",
        "name": "統一超商臺北市雙連門市",
        "location": "臺北市大同區民生西路176號",
        "org": "統一超商股份有限公司",
        "seat": "1",
        "dis": "0",
        "par": "0",
        "lvl": 3,
        "id": 177
      }
    },
    {
      "type": "Feature",
      "geometry": {
        "type": "Point",
        "coordinates": [
          121.509936,
          25.05511
        ]
      },
      "properties": {
        "dist": "大同區",
        "type": "綜合零售賣場",
        "name": "萊爾富便利商店北市迪化店",
        "location": "臺北市大同區迪化街一段50號",
        "org": "萊爾富國際股份有限公司",
        "seat": "1",
        "dis": "0",
        "par": "0",
        "lvl": 3,
        "id": 178
      }
    },
    {
      "type": "Feature",
      "geometry": {
        "type": "Point",
        "coordinates": [
          121.510689,
          25.052135
        ]
      },
      "properties": {
        "dist": "大同區",
        "type": "綜合零售賣場",
        "name": "統一超商臺北市塔城門市",
        "location": "臺北市大同區長安西路271號1樓",
        "org": "統一超商股份有限公司",
        "seat": "1",
        "dis": "0",
        "par": "0",
        "lvl": 3,
        "id": 179
      }
    },
    {
      "type": "Feature",
      "geometry": {
        "type": "Point",
        "coordinates": [
          121.511969,
          25.051881
        ]
      },
      "properties": {
        "dist": "大同區",
        "type": "綜合零售賣場",
        "name": "統一超商臺北市延華門市",
        "location": "臺北市大同區延平北路一段93號",
        "org": "統一超商股份有限公司",
        "seat": "1",
        "dis": "0",
        "par": "0",
        "lvl": 3,
        "id": 180
      }
    },
    {
      "type": "Feature",
      "geometry": {
        "type": "Point",
        "coordinates": [
          121.516183,
          25.068708
        ]
      },
      "properties": {
        "dist": "大同區",
        "type": "綜合零售賣場",
        "name": "統一超商臺北市民族西門市",
        "location": "臺北市大同區民族西路151號",
        "org": "統一超商股份有限公司",
        "seat": "1",
        "dis": "0",
        "par": "0",
        "lvl": 3,
        "id": 181
      }
    },
    {
      "type": "Feature",
      "geometry": {
        "type": "Point",
        "coordinates": [
          121.513583,
          25.071494
        ]
      },
      "properties": {
        "dist": "大同區",
        "type": "綜合零售賣場",
        "name": "統一超商臺北市酒泉門市",
        "location": "臺北市大同區重慶北路三段260號",
        "org": "統一超商股份有限公司",
        "seat": "1",
        "dis": "0",
        "par": "0",
        "lvl": 3,
        "id": 182
      }
    },
    {
      "type": "Feature",
      "geometry": {
        "type": "Point",
        "coordinates": [
          121.51405,
          25.073903
        ]
      },
      "properties": {
        "dist": "大同區",
        "type": "綜合零售賣場",
        "name": "統一超商臺北市哈蜜門市",
        "location": "臺北市大同區重慶北路三段309號",
        "org": "統一超商股份有限公司",
        "seat": "1",
        "dis": "0",
        "par": "0",
        "lvl": 3,
        "id": 183
      }
    },
    {
      "type": "Feature",
      "geometry": {
        "type": "Point",
        "coordinates": [
          121.519355,
          25.070699
        ]
      },
      "properties": {
        "dist": "大同區",
        "type": "綜合零售賣場",
        "name": "統一超商臺北市圓泉門市",
        "location": "臺北市大同區酒泉街25號",
        "org": "統一超商股份有限公司",
        "seat": "1",
        "dis": "0",
        "par": "0",
        "lvl": 3,
        "id": 184
      }
    },
    {
      "type": "Feature",
      "geometry": {
        "type": "Point",
        "coordinates": [
          121.517557,
          25.049806
        ]
      },
      "properties": {
        "dist": "大同區",
        "type": "綜合零售賣場",
        "name": "統一超商臺北市京磚門市",
        "location": "臺北市大同區華陰街91號",
        "org": "統一超商股份有限公司",
        "seat": "1",
        "dis": "0",
        "par": "0",
        "lvl": 3,
        "id": 185
      }
    },
    {
      "type": "Feature",
      "geometry": {
        "type": "Point",
        "coordinates": [
          121.515123,
          25.055121
        ]
      },
      "properties": {
        "dist": "大同區",
        "type": "綜合零售賣場",
        "name": "統一超商臺北市慶寧門市",
        "location": "臺北市大同區寧夏路23號",
        "org": "統一超商股份有限公司",
        "seat": "1",
        "dis": "0",
        "par": "0",
        "lvl": 3,
        "id": 186
      }
    },
    {
      "type": "Feature",
      "geometry": {
        "type": "Point",
        "coordinates": [
          121.513807,
          25.059148
        ]
      },
      "properties": {
        "dist": "大同區",
        "type": "綜合零售賣場",
        "name": "家樂福重慶店",
        "location": "臺北市大同區重慶北路二段171號",
        "org": "家福股份有限公司台北重慶分公司",
        "seat": "12",
        "dis": "2",
        "par": "0",
        "lvl": 3,
        "id": 187
      }
    },
    {
      "type": "Feature",
      "geometry": {
        "type": "Point",
        "coordinates": [
          121.516825,
          25.049345
        ]
      },
      "properties": {
        "dist": "大同區",
        "type": "綜合零售賣場",
        "name": "京站時尚廣場",
        "location": "臺北市大同區承德路一段1號",
        "org": "京站時尚廣場",
        "seat": "20",
        "dis": "3",
        "par": "3",
        "lvl": 4,
        "id": 188
      }
    },
    {
      "type": "Feature",
      "geometry": {
        "type": "Point",
        "coordinates": [
          121.520382,
          25.052605
        ]
      },
      "properties": {
        "dist": "大同區",
        "type": "綜合零售賣場",
        "name": "中山地下街",
        "location": "臺北市大同區南京西路16號地下街(位於捷運臺北車站至雙連站之間)",
        "org": "臺北大眾捷運股份有限公司",
        "seat": "4",
        "dis": "0",
        "par": "0",
        "lvl": 4,
        "id": 189
      }
    },
    {
      "type": "Feature",
      "geometry": {
        "type": "Point",
        "coordinates": [
          121.51542,
          25.073159
        ]
      },
      "properties": {
        "dist": "大同區",
        "type": "宗教",
        "name": "保安宮",
        "location": "臺北市大同區哈密街61號",
        "org": "大龍峒保安宮",
        "seat": "4",
        "dis": "1",
        "par": "0",
        "lvl": 3,
        "id": 190
      }
    },
    {
      "type": "Feature",
      "geometry": {
        "type": "Point",
        "coordinates": [
          121.516179,
          25.072762
        ]
      },
      "properties": {
        "dist": "大同區",
        "type": "宗教",
        "name": "孔廟",
        "location": "臺北市大同區大龍街275號",
        "org": "臺北市孔廟管理委員會",
        "seat": "4",
        "dis": "1",
        "par": "1",
        "lvl": 4,
        "id": 191
      }
    },
    {
      "type": "Feature",
      "geometry": {
        "type": "Point",
        "coordinates": [
          121.514073,
          25.050515
        ]
      },
      "properties": {
        "dist": "大同區",
        "type": "宗教",
        "name": "普濟寺",
        "location": "臺北市大同區華陰街100號",
        "org": "普濟寺",
        "seat": "2",
        "dis": "0",
        "par": "0",
        "lvl": 3,
        "id": 192
      }
    },
    {
      "type": "Feature",
      "geometry": {
        "type": "Point",
        "coordinates": [
          121.513543,
          25.076291
        ]
      },
      "properties": {
        "dist": "大同區",
        "type": "宗教",
        "name": "覺修宮",
        "location": "臺北市大同區重慶北路三段340號",
        "org": "財團法人臺北市覺修宮",
        "seat": "3",
        "dis": "0",
        "par": "0",
        "lvl": 4,
        "id": 193
      }
    },
    {
      "type": "Feature",
      "geometry": {
        "type": "Point",
        "coordinates": [
          121.51684,
          25.057036
        ]
      },
      "properties": {
        "dist": "大同區",
        "type": "機關",
        "name": "臺北市立圖書館建成分館",
        "location": "臺北市大同區民生西路198號4樓",
        "org": "臺北市立圖書館建成分館",
        "seat": "3",
        "dis": "1",
        "par": "0",
        "lvl": 3,
        "id": 194
      }
    },
    {
      "type": "Feature",
      "geometry": {
        "type": "Point",
        "coordinates": [
          121.513555,
          25.074304
        ]
      },
      "properties": {
        "dist": "大同區",
        "type": "機關",
        "name": "臺北市立圖書館大同分館",
        "location": "臺北市大同區重慶北路三段318號",
        "org": "臺北市立圖書館大同分館",
        "seat": "5",
        "dis": "1",
        "par": "0",
        "lvl": 4,
        "id": 195
      }
    },
    {
      "type": "Feature",
      "geometry": {
        "type": "Point",
        "coordinates": [
          121.515458,
          25.066028
        ]
      },
      "properties": {
        "dist": "大同區",
        "type": "機關",
        "name": "國稅局大同稽徵所",
        "location": "臺北市大同區昌吉街57號3樓",
        "org": "財政部臺北國稅局大同稽徵所",
        "seat": "3",
        "dis": "0",
        "par": "0",
        "lvl": 4,
        "id": 196
      }
    },
    {
      "type": "Feature",
      "geometry": {
        "type": "Point",
        "coordinates": [
          121.515458,
          25.066028
        ]
      },
      "properties": {
        "dist": "大同區",
        "type": "機關",
        "name": "臺北市稅捐稽徵處大同分處",
        "location": "臺北市大同區昌吉街57號3樓",
        "org": "臺北市稅捐稽徵處大同分處",
        "seat": "2",
        "dis": "0",
        "par": "0",
        "lvl": 4,
        "id": 197
      }
    },
    {
      "type": "Feature",
      "geometry": {
        "type": "Point",
        "coordinates": [
          121.515458,
          25.066028
        ]
      },
      "properties": {
        "dist": "大同區",
        "type": "機關",
        "name": "大同區戶政事務所",
        "location": "臺北市大同區昌吉街57號3樓",
        "org": "臺北市大同區戶政事務所",
        "seat": "3",
        "dis": "0",
        "par": "1",
        "lvl": 4,
        "id": 198
      }
    },
    {
      "type": "Feature",
      "geometry": {
        "type": "Point",
        "coordinates": [
          121.512092,
          25.059169
        ]
      },
      "properties": {
        "dist": "大同區",
        "type": "機關",
        "name": "臺北市立圖書館延平分館",
        "location": "臺北市大同區保安街47號",
        "org": "臺北市立圖書館延平分館",
        "seat": "12",
        "dis": "0",
        "par": "0",
        "lvl": 4,
        "id": 199
      }
    },
    {
      "type": "Feature",
      "geometry": {
        "type": "Point",
        "coordinates": [
          121.515458,
          25.066028
        ]
      },
      "properties": {
        "dist": "大同區",
        "type": "機關",
        "name": "大同區公所",
        "location": "臺北市大同區昌吉街57號4樓",
        "org": "臺北市大同區公所",
        "seat": "6",
        "dis": "2",
        "par": "0",
        "lvl": 4,
        "id": 200
      }
    },
    {
      "type": "Feature",
      "geometry": {
        "type": "Point",
        "coordinates": [
          121.510365,
          25.054903
        ]
      },
      "properties": {
        "dist": "大同區",
        "type": "機關",
        "name": "永樂 T Fashion 時尚基地",
        "location": "臺北市大同區迪化街一段21號4樓",
        "org": "國際時尚藝術文化協會",
        "seat": "5",
        "dis": "1",
        "par": "0",
        "lvl": 4,
        "id": 201
      }
    },
    {
      "type": "Feature",
      "geometry": {
        "type": "Point",
        "coordinates": [
          121.515173,
          25.065923
        ]
      },
      "properties": {
        "dist": "大同區",
        "type": "機關",
        "name": "大同社福中心",
        "location": "臺北市大同區昌吉街57號6樓之1",
        "org": "大同社福中心",
        "seat": "3",
        "dis": "0",
        "par": "0",
        "lvl": 4,
        "id": 202
      }
    },
    {
      "type": "Feature",
      "geometry": {
        "type": "Point",
        "coordinates": [
          121.509214,
          25.063037
        ]
      },
      "properties": {
        "dist": "大同區",
        "type": "機關",
        "name": "臺北橋區民活動中心",
        "location": "臺北市大同區迪化街一段374號2樓",
        "org": "大同區臺北橋區民活動中心",
        "seat": "3",
        "dis": "1",
        "par": "0",
        "lvl": 3,
        "id": 203
      }
    },
    {
      "type": "Feature",
      "geometry": {
        "type": "Point",
        "coordinates": [
          121.513444,
          25.066169
        ]
      },
      "properties": {
        "dist": "大同區",
        "type": "機關",
        "name": "國慶區民活動中心",
        "location": "臺北市大同區重慶北路三段76號4樓",
        "org": "大同區國慶區民活動中心",
        "seat": "3",
        "dis": "1",
        "par": "0",
        "lvl": 3,
        "id": 204
      }
    },
    {
      "type": "Feature",
      "geometry": {
        "type": "Point",
        "coordinates": [
          121.511673,
          25.076511
        ]
      },
      "properties": {
        "dist": "大同區",
        "type": "機關",
        "name": "慶昌區民活動中心",
        "location": "臺北市大同區敦煌路151之1號",
        "org": "大同區慶昌區民活動中心",
        "seat": "1",
        "dis": "0",
        "par": "0",
        "lvl": 3,
        "id": 205
      }
    },
    {
      "type": "Feature",
      "geometry": {
        "type": "Point",
        "coordinates": [
          121.512786,
          25.076455
        ]
      },
      "properties": {
        "dist": "大同區",
        "type": "機關",
        "name": "老師區民活動中心",
        "location": "臺北市大同區敦煌路160之2號",
        "org": "大同區老師區民活動中心",
        "seat": "3",
        "dis": "1",
        "par": "0",
        "lvl": 3,
        "id": 206
      }
    },
    {
      "type": "Feature",
      "geometry": {
        "type": "Point",
        "coordinates": [
          121.514891,
          25.074112
        ]
      },
      "properties": {
        "dist": "大同區",
        "type": "機關",
        "name": "保生區民活動中心",
        "location": "臺北市大同區重慶北路三段313巷25號1樓",
        "org": "大同區保生區民活動中心",
        "seat": "2",
        "dis": "1",
        "par": "0",
        "lvl": 3,
        "id": 207
      }
    },
    {
      "type": "Feature",
      "geometry": {
        "type": "Point",
        "coordinates": [
          121.512075,
          25.059249
        ]
      },
      "properties": {
        "dist": "大同區",
        "type": "機關",
        "name": "延平區民活動中心",
        "location": "臺北市大同區保安街47之1號3樓",
        "org": "大同區延平區民活動中心",
        "seat": "2",
        "dis": "0",
        "par": "0",
        "lvl": 3,
        "id": 208
      }
    },
    {
      "type": "Feature",
      "geometry": {
        "type": "Point",
        "coordinates": [
          121.520011,
          25.058583
        ]
      },
      "properties": {
        "dist": "大同區",
        "type": "機關",
        "name": "雙連區民活動中心",
        "location": "臺北市大同區萬全街42號1樓",
        "org": "大同區雙連區民活動中心",
        "seat": "2",
        "dis": "1",
        "par": "0",
        "lvl": 3,
        "id": 209
      }
    },
    {
      "type": "Feature",
      "geometry": {
        "type": "Point",
        "coordinates": [
          121.510363,
          25.054898
        ]
      },
      "properties": {
        "dist": "大同區",
        "type": "機關",
        "name": "臺北市大同士林婦女支持培力中心",
        "location": "臺北市大同區迪化街一段21號7樓",
        "org": "臺北市大同士林婦女支持培力中心",
        "seat": "3",
        "dis": "1",
        "par": "0",
        "lvl": 4,
        "id": 210
      }
    },
    {
      "type": "Feature",
      "geometry": {
        "type": "Point",
        "coordinates": [
          121.512054,
          25.059224
        ]
      },
      "properties": {
        "dist": "大同區",
        "type": "機關",
        "name": "民生西路派出所",
        "location": "臺北市大同區保安街47-1號",
        "org": "臺北市政府警察局民生西路派出所",
        "seat": "1",
        "dis": "1",
        "par": "0",
        "lvl": 3,
        "id": 211
      }
    },
    {
      "type": "Feature",
      "geometry": {
        "type": "Point",
        "coordinates": [
          121.513505,
          25.068835
        ]
      },
      "properties": {
        "dist": "大同區",
        "type": "機關",
        "name": "民族路派出所",
        "location": "臺北市大同區重慶北路三段168號",
        "org": "臺北市政府警察局 民族路派出所",
        "seat": "1",
        "dis": "0",
        "par": "0",
        "lvl": 3,
        "id": 212
      }
    },
    {
      "type": "Feature",
      "geometry": {
        "type": "Point",
        "coordinates": [
          121.511729,
          25.052216
        ]
      },
      "properties": {
        "dist": "大同區",
        "type": "機關",
        "name": "延平派出所",
        "location": "臺北市大同區延平北路一段86號",
        "org": "臺北市政府警察局 延平派出所",
        "seat": "1",
        "dis": "0",
        "par": "0",
        "lvl": 3,
        "id": 213
      }
    },
    {
      "type": "Feature",
      "geometry": {
        "type": "Point",
        "coordinates": [
          121.517241,
          25.052818
        ]
      },
      "properties": {
        "dist": "大同區",
        "type": "機關",
        "name": "建成派出所",
        "location": "臺北市大同區承德路一段80號",
        "org": "臺北市政府警察局 建成派出所",
        "seat": "1",
        "dis": "0",
        "par": "0",
        "lvl": 3,
        "id": 214
      }
    },
    {
      "type": "Feature",
      "geometry": {
        "type": "Point",
        "coordinates": [
          121.513685,
          25.075478
        ]
      },
      "properties": {
        "dist": "大同區",
        "type": "機關",
        "name": "重慶北路派出所",
        "location": "臺北市大同區重慶北路三段320之2號",
        "org": "臺北市政府警察局 重慶北路派出所",
        "seat": "1",
        "dis": "0",
        "par": "0",
        "lvl": 3,
        "id": 215
      }
    },
    {
      "type": "Feature",
      "geometry": {
        "type": "Point",
        "coordinates": [
          121.515458,
          25.066028
        ]
      },
      "properties": {
        "dist": "大同區",
        "type": "機關",
        "name": "臺北市立圖書館蘭州民眾閱覽室",
        "location": "臺北市大同區昌吉街57號4樓",
        "org": "臺北市立圖書館蘭州民眾閱覽室",
        "seat": "4",
        "dis": "1",
        "par": "1",
        "lvl": 4,
        "id": 216
      }
    },
    {
      "type": "Feature",
      "geometry": {
        "type": "Point",
        "coordinates": [
          121.510561,
          25.054988
        ]
      },
      "properties": {
        "dist": "大同區",
        "type": "機關",
        "name": "臺北市市場處",
        "location": "臺北市大同區迪化街一段21號6樓",
        "org": "臺北市市場處",
        "seat": "4",
        "dis": "0",
        "par": "0",
        "lvl": 4,
        "id": 217
      }
    },
    {
      "type": "Feature",
      "geometry": {
        "type": "Point",
        "coordinates": [
          121.509506,
          25.052128
        ]
      },
      "properties": {
        "dist": "大同區",
        "type": "連鎖餐飲店",
        "name": "甲天下(長安西路店)",
        "location": "臺北市大同區長安西路287號",
        "org": "海霸王企業集團",
        "seat": "5",
        "dis": "1",
        "par": "0",
        "lvl": 3,
        "id": 218
      }
    },
    {
      "type": "Feature",
      "geometry": {
        "type": "Point",
        "coordinates": [
          121.509683,
          25.052181
        ]
      },
      "properties": {
        "dist": "大同區",
        "type": "連鎖餐飲店",
        "name": "馬來亞餐廳",
        "location": "臺北市大同區長安西路287之2號",
        "org": "馬來亞餐廳有限公司",
        "seat": "2",
        "dis": "0",
        "par": "0",
        "lvl": 4,
        "id": 219
      }
    },
    {
      "type": "Feature",
      "geometry": {
        "type": "Point",
        "coordinates": [
          121.516675,
          25.050797
        ]
      },
      "properties": {
        "dist": "大同區",
        "type": "連鎖餐飲店",
        "name": "麥當勞台北承德店",
        "location": "臺北市大同區承德路一段34號,36號1樓及32號2樓之1",
        "org": "臺灣麥當勞餐廳股份有限公司台北承德分公司",
        "seat": "3",
        "dis": "1",
        "par": "0",
        "lvl": 3,
        "id": 220
      }
    },
    {
      "type": "Feature",
      "geometry": {
        "type": "Point",
        "coordinates": [
          121.516702,
          25.050888
        ]
      },
      "properties": {
        "dist": "大同區",
        "type": "連鎖餐飲店",
        "name": "肯德基臺北承德分公司",
        "location": "臺北市大同區承德路一段38號1樓",
        "org": "怡和餐飲股份有限公司臺北承德一之一分公司",
        "seat": "3",
        "dis": "1",
        "par": "0",
        "lvl": 4,
        "id": 221
      }
    },
    {
      "type": "Feature",
      "geometry": {
        "type": "Point",
        "coordinates": [
          121.512504,
          25.052046
        ]
      },
      "properties": {
        "dist": "大同區",
        "type": "連鎖餐飲店",
        "name": "摩斯漢堡長安店",
        "location": "臺北市大同區長安西路219號1樓",
        "org": "安心食品服務股份有限公司長安西路分公司",
        "seat": "1",
        "dis": "0",
        "par": "0",
        "lvl": 4,
        "id": 222
      }
    },
    {
      "type": "Feature",
      "geometry": {
        "type": "Point",
        "coordinates": [
          121.520362,
          25.057738
        ]
      },
      "properties": {
        "dist": "大同區",
        "type": "連鎖餐飲店",
        "name": "麥當勞台北民生三店",
        "location": "臺北市大同區民生西路55號",
        "org": "台灣麥當勞餐廳股份有限公司民生Ⅲ分公司",
        "seat": "1",
        "dis": "0",
        "par": "0",
        "lvl": 3,
        "id": 223
      }
    },
    {
      "type": "Feature",
      "geometry": {
        "type": "Point",
        "coordinates": [
          121.513199,
          25.059261
        ]
      },
      "properties": {
        "dist": "大同區",
        "type": "連鎖餐飲店",
        "name": "統一星巴克保安門市",
        "location": "臺北市大同區保安街11號",
        "org": "悠游生活事業股份有限公司",
        "seat": "1",
        "dis": "0",
        "par": "0",
        "lvl": 4,
        "id": 224
      }
    },
    {
      "type": "Feature",
      "geometry": {
        "type": "Point",
        "coordinates": [
          121.51925,
          25.072045
        ]
      },
      "properties": {
        "dist": "大同區",
        "type": "連鎖餐飲店",
        "name": "統一星巴克庫倫承德門市",
        "location": "臺北市大同區庫倫街51號",
        "org": "統一星巴克股份有限公司",
        "seat": "2",
        "dis": "0",
        "par": "0",
        "lvl": 3,
        "id": 225
      }
    },
    {
      "type": "Feature",
      "geometry": {
        "type": "Point",
        "coordinates": [
          121.514016,
          25.071722
        ]
      },
      "properties": {
        "dist": "大同區",
        "type": "連鎖餐飲店",
        "name": "吉野家重北店",
        "location": "臺北市大同區重慶北路三段259號",
        "org": "台灣吉野家股份有限公司重北店",
        "seat": "1",
        "dis": "0",
        "par": "0",
        "lvl": 3,
        "id": 226
      }
    },