{
	"type": "FeatureCollection",
	"features": [
		{
			"type": "Feature",
			"geometry": {
				"type": "Point",
				"coordinates": [
					121.5356504,
					25.0424604
				]
			},
			"properties": {
				"類別": "國有房地",
				"名稱": "國立臺北科技大學",
				"地址": "臺北市大安區民輝里16鄰忠孝東路三段1號",
				"裝置容量-瓩": 3.6,
				"行政區": "大安區"
			}
		},
		{
			"type": "Feature",
			"geometry": {
				"type": "Point",
				"coordinates": [
					121.5356504,
					25.0424604
				]
			},
			"properties": {
				"類別": "國有房地",
				"名稱": "國立臺北科技大學",
				"地址": "臺北市大安區民輝里16鄰忠孝東路三段1號",
				"裝置容量-瓩": 5.44,
				"行政區": "大安區"
			}
		},
		{
			"type": "Feature",
			"geometry": {
				"type": "Point",
				"coordinates": [
					121.52847,
					25.02717
				]
			},
			"properties": {
				"類別": "國有房地",
				"名稱": "國立臺灣師範大學",
				"地址": "臺北市大安區錦安里11鄰和平東路一段129號",
				"裝置容量-瓩": 7.2,
				"行政區": "大安區"
			}
		},
		{
			"type": "Feature",
			"geometry": {
				"type": "Point",
				"coordinates": [
					121.569184,
					25.039485
				]
			},
			"properties": {
				"類別": "國有房地",
				"名稱": "台灣中油股份有限公司",
				"地址": "臺北市信義區興雅里24鄰松仁路3號",
				"裝置容量-瓩": 8.55,
				"行政區": "信義區"
			}
		},
		{
			"type": "Feature",
			"geometry": {
				"type": "Point",
				"coordinates": [
					121.5440771,
					25.0300965
				]
			},
			"properties": {
				"類別": "國有房地",
				"名稱": "行政院環境保護署毒物及化學物質局",
				"地址": "臺北市大安區龍雲里3鄰大安路二段132巷35弄1號",
				"裝置容量-瓩": 10.03,
				"行政區": "大安區"
			}
		},
		{
			"type": "Feature",
			"geometry": {
				"type": "Point",
				"coordinates": [
					121.5247613,
					25.0443212
				]
			},
			"properties": {
				"類別": "國有房地",
				"名稱": "立法院",
				"地址": "臺北市中正區幸福里1鄰中山南路1號",
				"裝置容量-瓩": 10.032,
				"行政區": "中正區"
			}
		},
		{
			"type": "Feature",
			"geometry": {
				"type": "Point",
				"coordinates": [
					121.5122878,
					25.0403593
				]
			},
			"properties": {
				"類別": "國有房地",
				"名稱": "總統府",
				"地址": "臺北市中正區建國里4鄰重慶南路一段122號",
				"裝置容量-瓩": 10.5,
				"行政區": "中正區"
			}
		},
		{
			"type": "Feature",
			"geometry": {
				"type": "Point",
				"coordinates": [
					121.5701342,
					24.9895613
				]
			},
			"properties": {
				"類別": "國有房地",
				"名稱": "台灣中油股份有限公司",
				"地址": "臺北市文山區木柵里26鄰木柵路三段2號",
				"裝置容量-瓩": 13.2,
				"行政區": "文山區"
			}
		},
		{
			"type": "Feature",
			"geometry": {
				"type": "Point",
				"coordinates": [
					121.544416,
					25.049515
				]
			},
			"properties": {
				"類別": "國有房地",
				"名稱": "台灣中油股份有限公司",
				"地址": "臺北市松山區中正里16鄰復興北路31號",
				"裝置容量-瓩": 13.8,
				"行政區": "松山區"
			}
		},
		{
			"type": "Feature",
			"geometry": {
				"type": "Point",
				"coordinates": [
					121.5204631,
					25.0425503
				]
			},
			"properties": {
				"類別": "國有房地",
				"名稱": "經濟部標準檢驗局",
				"地址": "臺北市中正區東門里3鄰濟南路一段4號",
				"裝置容量-瓩": 14.4,
				"行政區": "中正區"
			}
		},
		{
			"type": "Feature",
			"geometry": {
				"type": "Point",
				"coordinates": [
					121.5924282,
					25.0716466
				]
			},
			"properties": {
				"類別": "國有房地",
				"名稱": "國防醫學院三軍總醫院",
				"地址": "臺北市內湖區寶湖里1鄰成功路二段325號",
				"裝置容量-瓩": 14.88,
				"行政區": "內湖區"
			}
		},
		{
			"type": "Feature",
			"geometry": {
				"type": "Point",
				"coordinates": [
					121.5094053,
					25.0301475
				]
			},
			"properties": {
				"類別": "國有房地",
				"名稱": "行政院農業委員會",
				"地址": "臺北市中正區龍興里16鄰和平西路二段100號",
				"裝置容量-瓩": 15.525,
				"行政區": "中正區"
			}
		},
		{
			"type": "Feature",
			"geometry": {
				"type": "Point",
				"coordinates": [
					121.52805,
					25.0565519
				]
			},
			"properties": {
				"類別": "國有房地",
				"名稱": "台灣中油股份有限公司",
				"地址": "臺北市中山區中原里12鄰新生北路二段71號",
				"裝置容量-瓩": 16.8,
				"行政區": "中山區"
			}
		},
		{
			"type": "Feature",
			"geometry": {
				"type": "Point",
				"coordinates": [
					121.5253585,
					25.0202507
				]
			},
			"properties": {
				"類別": "國有房地",
				"名稱": "台灣中油股份有限公司",
				"地址": "臺北市中正區林興里15鄰汀州路三段1號",
				"裝置容量-瓩": 18.0,
				"行政區": "中正區"
			}
		},
		{
			"type": "Feature",
			"geometry": {
				"type": "Point",
				"coordinates": [
					121.5168679,
					25.0279546
				]
			},
			"properties": {
				"類別": "國有房地",
				"名稱": "經濟部",
				"地址": "臺北市中正區南福里15鄰福州街15號",
				"裝置容量-瓩": 20.0,
				"行政區": "中正區"
			}
		},
		{
			"type": "Feature",
			"geometry": {
				"type": "Point",
				"coordinates": [
					121.5076439,
					25.0385149
				]
			},
			"properties": {
				"類別": "國有房地",
				"名稱": "行政院環境保護署",
				"地址": "臺北市中正區建國里2鄰中華路一段83號",
				"裝置容量-瓩": 21.75,
				"行政區": "中正區"
			}
		},
		{
			"type": "Feature",
			"geometry": {
				"type": "Point",
				"coordinates": [
					121.5710437,
					25.0811697
				]
			},
			"properties": {
				"類別": "國有房地",
				"名稱": "台灣中油股份有限公司",
				"地址": "臺北市內湖區港墘里20鄰內湖路一段362號",
				"裝置容量-瓩": 25.2,
				"行政區": "內湖區"
			}
		},
		{
			"type": "Feature",
			"geometry": {
				"type": "Point",
				"coordinates": [
					121.5506495,
					25.0842474
				]
			},
			"properties": {
				"類別": "國有房地",
				"名稱": "台灣中油股份有限公司",
				"地址": "臺北市中山區成功里3鄰明水路661號",
				"裝置容量-瓩": 27.36,
				"行政區": "中山區"
			}
		},
		{
			"type": "Feature",
			"geometry": {
				"type": "Point",
				"coordinates": [
					121.6162474,
					25.0560263
				]
			},
			"properties": {
				"類別": "國有房地",
				"名稱": "經濟部",
				"地址": "臺北市南港區三重里14鄰經貿二路2號",
				"裝置容量-瓩": 31.32,
				"行政區": "南港區"
			}
		},
		{
			"type": "Feature",
			"geometry": {
				"type": "Point",
				"coordinates": [
					121.5554605,
					25.0329307
				]
			},
			"properties": {
				"類別": "國有房地",
				"名稱": "台灣中油股份有限公司",
				"地址": "臺北市大安區通化里1鄰信義路四段374號",
				"裝置容量-瓩": 34.2,
				"行政區": "大安區"
			}
		},
		{
			"type": "Feature",
			"geometry": {
				"type": "Point",
				"coordinates": [
					121.5401282,
					25.0130898
				]
			},
			"properties": {
				"類別": "國有房地",
				"名稱": "國立臺灣科技大學",
				"地址": "臺北市大安區學府里5鄰基隆路四段43號",
				"裝置容量-瓩": 36.0,
				"行政區": "大安區"
			}
		},
		{
			"type": "Feature",
			"geometry": {
				"type": "Point",
				"coordinates": [
					121.5953715,
					25.0502997
				]
			},
			"properties": {
				"類別": "國有房地",
				"名稱": "衛福部",
				"地址": "臺北市南港區新光里12鄰忠孝東路六段488號",
				"裝置容量-瓩": 38.42,
				"行政區": "南港區"
			}
		},
		{
			"type": "Feature",
			"geometry": {
				"type": "Point",
				"coordinates": [
					121.5401282,
					25.0130898
				]
			},
			"properties": {
				"類別": "國有房地",
				"名稱": "國立臺灣科技大學",
				"地址": "臺北市大安區學府里5鄰基隆路四段43號",
				"裝置容量-瓩": 48.0,
				"行政區": "大安區"
			}
		},
		{
			"type": "Feature",
			"geometry": {
				"type": "Point",
				"coordinates": [
					121.5875793,
					25.0665616
				]
			},
			"properties": {
				"類別": "國有房地",
				"名稱": "台灣中油股份有限公司",
				"地址": "臺北市內湖區湖元里18鄰民權東路六段50號",
				"裝置容量-瓩": 50.73,
				"行政區": "內湖區"
			}
		},
		{
			"type": "Feature",
			"geometry": {
				"type": "Point",
				"coordinates": [
					121.5086073,
					25.0405821
				]
			},
			"properties": {
				"類別": "國有房地",
				"名稱": "憲兵202指揮部",
				"地址": "臺北市中正區建國里6鄰中華路一段65號",
				"裝置容量-瓩": 52.72,
				"行政區": "中正區"
			}
		},
		{
			"type": "Feature",
			"geometry": {
				"type": "Point",
				"coordinates": [
					121.5771149,
					24.9861694
				]
			},
			"properties": {
				"類別": "國有房地",
				"名稱": "國立政治大學",
				"地址": "臺北市文山區萬興里9鄰指南路二段64號",
				"裝置容量-瓩": 52.8,
				"行政區": "文山區"
			}
		},
		{
			"type": "Feature",
			"geometry": {
				"type": "Point",
				"coordinates": [
					121.6160711,
					25.0423834
				]
			},
			"properties": {
				"類別": "國有房地",
				"名稱": "中研院物理所",
				"地址": "臺北市南港區中研里33鄰研究院路二段128號",
				"裝置容量-瓩": 55.0,
				"行政區": "南港區"
			}
		},
		{
			"type": "Feature",
			"geometry": {
				"type": "Point",
				"coordinates": [
					121.5132,
					25.032068
				]
			},
			"properties": {
				"類別": "國有房地",
				"名稱": "行政院農業委員會",
				"地址": "臺北市中正區南門里10鄰南海路37號",
				"裝置容量-瓩": 55.2,
				"行政區": "中正區"
			}
		},
		{
			"type": "Feature",
			"geometry": {
				"type": "Point",
				"coordinates": [
					121.5247613,
					25.0443212
				]
			},
			"properties": {
				"類別": "國有房地",
				"名稱": "行政院",
				"地址": "臺北市中正區梅花里2鄰忠孝東路一段1號",
				"裝置容量-瓩": 58.88,
				"行政區": "中正區"
			}
		},
		{
			"type": "Feature",
			"geometry": {
				"type": "Point",
				"coordinates": [
					121.5273338,
					25.0448902
				]
			},
			"properties": {
				"類別": "國有房地",
				"名稱": "審計部",
				"地址": "臺北市中正區梅花里12鄰杭州北路1號",
				"裝置容量-瓩": 61.07,
				"行政區": "中正區"
			}
		},
		{
			"type": "Feature",
			"geometry": {
				"type": "Point",
				"coordinates": [
					121.5498091,
					25.1004265
				]
			},
			"properties": {
				"類別": "國有房地",
				"名稱": "國立故宮博物院",
				"地址": "臺北市士林區臨溪里8鄰至善路二段221號",
				"裝置容量-瓩": 62.1,
				"行政區": "士林區"
			}
		},
		{
			"type": "Feature",
			"geometry": {
				"type": "Point",
				"coordinates": [
					121.5356504,
					25.0424604
				]
			},
			"properties": {
				"類別": "國有房地",
				"名稱": "國立臺北科技大學",
				"地址": "臺北市大安區民輝里16鄰忠孝東路三段1號",
				"裝置容量-瓩": 70.38,
				"行政區": "大安區"
			}
		},
		{
			"type": "Feature",
			"geometry": {
				"type": "Point",
				"coordinates": [
					121.513385,
					25.041179
				]
			},
			"properties": {
				"類別": "國有房地",
				"名稱": "國家發展委員會",
				"地址": "臺北市中正區黎明里9鄰寶慶路3號",
				"裝置容量-瓩": 70.8,
				"行政區": "中正區"
			}
		},
		{
			"type": "Feature",
			"geometry": {
				"type": "Point",
				"coordinates": [
					121.5354217,
					25.0140674
				]
			},
			"properties": {
				"類別": "國有房地",
				"名稱": "國立臺灣大學",
				"地址": "臺北市大安區學府里17鄰羅斯福路四段1號",
				"裝置容量-瓩": 72.0,
				"行政區": "大安區"
			}
		},
		{
			"type": "Feature",
			"geometry": {
				"type": "Point",
				"coordinates": [
					121.6145028,
					25.0453694
				]
			},
			"properties": {
				"類別": "國有房地",
				"名稱": "中央研究院",
				"地址": "臺北市南港區中研里33鄰研究院路二段130號",
				"裝置容量-瓩": 74.54,
				"行政區": "南港區"
			}
		},
		{
			"type": "Feature",
			"geometry": {
				"type": "Point",
				"coordinates": [
					121.5273338,
					25.0448902
				]
			},
			"properties": {
				"類別": "國有房地",
				"名稱": "審計部",
				"地址": "臺北市中正區梅花里12鄰杭州北路1號",
				"裝置容量-瓩": 85.87,
				"行政區": "中正區"
			}
		},
		{
			"type": "Feature",
			"geometry": {
				"type": "Point",
				"coordinates": [
					121.5212287,
					25.0444876
				]
			},
			"properties": {
				"類別": "國有房地",
				"名稱": "立法院",
				"地址": "臺北市中正區幸福里1鄰鎮江街2號",
				"裝置容量-瓩": 99.0,
				"行政區": "中正區"
			}
		},
		{
			"type": "Feature",
			"geometry": {
				"type": "Point",
				"coordinates": [
					121.5933552,
					25.0498035
				]
			},
			"properties": {
				"類別": "國有房地",
				"名稱": "國防部軍備局",
				"地址": "臺北市南港區新光里15鄰昆陽街165號",
				"裝置容量-瓩": 99.6,
				"行政區": "南港區"
			}
		},
		{
			"type": "Feature",
			"geometry": {
				"type": "Point",
				"coordinates": [
					121.5933552,
					25.0498035
				]
			},
			"properties": {
				"類別": "國有房地",
				"名稱": "國防部軍備局",
				"地址": "臺北市南港區新光里15鄰昆陽街165號",
				"裝置容量-瓩": 99.6,
				"行政區": "南港區"
			}
		},
		{
			"type": "Feature",
			"geometry": {
				"type": "Point",
				"coordinates": [
					121.5933552,
					25.0498035
				]
			},
			"properties": {
				"類別": "國有房地",
				"名稱": "國防部軍備局",
				"地址": "臺北市南港區新光里15鄰昆陽街165號",
				"裝置容量-瓩": 99.6,
				"行政區": "南港區"
			}
		},
		{
			"type": "Feature",
			"geometry": {
				"type": "Point",
				"coordinates": [
					121.5933552,
					25.0498035
				]
			},
			"properties": {
				"類別": "國有房地",
				"名稱": "國防部軍備局",
				"地址": "臺北市南港區新光里15鄰昆陽街165號",
				"裝置容量-瓩": 99.6,
				"行政區": "南港區"
			}
		},
		{
			"type": "Feature",
			"geometry": {
				"type": "Point",
				"coordinates": [
					121.6139468,
					25.0526494
				]
			},
			"properties": {
				"類別": "國有房地",
				"名稱": "國家文官學院",
				"地址": "臺北市南港區中南里10鄰忠孝東路七段574號",
				"裝置容量-瓩": 169.2,
				"行政區": "南港區"
			}
		},
		{
			"type": "Feature",
			"geometry": {
				"type": "Point",
				"coordinates": [
					121.5442732,
					25.0133415
				]
			},
			"properties": {
				"類別": "國有房地",
				"名稱": "國立臺灣大學",
				"地址": "臺北市大安區學府里6鄰基隆路三段155巷50號",
				"裝置容量-瓩": 180.0,
				"行政區": "大安區"
			}
		},
		{
			"type": "Feature",
			"geometry": {
				"type": "Point",
				"coordinates": [
					121.5462911,
					25.0245572
				]
			},
			"properties": {
				"類別": "國有房地",
				"名稱": "國立臺北教育大學",
				"地址": "臺北市大安區臥龍里1鄰和平東路二段134號",
				"裝置容量-瓩": 230.58,
				"行政區": "大安區"
			}
		},
		{
			"type": "Feature",
			"geometry": {
				"type": "Point",
				"coordinates": [
					121.5210206,
					25.1185042
				]
			},
			"properties": {
				"類別": "國有房地",
				"名稱": "國立臺北護理健康大學",
				"地址": "臺北市北投區振華里11鄰明德路365號",
				"裝置容量-瓩": 339.84,
				"行政區": "北投區"
			}
		},
		{
			"type": "Feature",
			"geometry": {
				"type": "Point",
				"coordinates": [
					121.6121003,
					25.0426284
				]
			},
			"properties": {
				"類別": "國有房地",
				"名稱": "中央研究院",
				"地址": "臺北市南港區研究院路2段128號",
				"裝置容量-瓩": 186.6,
				"行政區": "南港區"
			}
		},
		{
			"type": "Feature",
			"geometry": {
				"type": "Point",
				"coordinates": [
					121.5235042,
					25.0362036
				]
			},
			"properties": {
				"類別": "國有房地",
				"名稱": "中華電信股份有限公司",
				"地址": "臺北市中正區信義路一段21之3號",
				"裝置容量-瓩": 4.32,
				"行政區": "中正區"
			}
		},
		{
			"type": "Feature",
			"geometry": {
				"type": "Point",
				"coordinates": [
					121.5235042,
					25.0362036
				]
			},
			"properties": {
				"類別": "國有房地",
				"名稱": "中華電信股份有限公司",
				"地址": "臺北市中正區信義路一段21之3號",
				"裝置容量-瓩": 10.0,
				"行政區": "中正區"
			}
		},
		{
			"type": "Feature",
			"geometry": {
				"type": "Point",
				"coordinates": [
					121.5235042,
					25.0362036
				]
			},
			"properties": {
				"類別": "國有房地",
				"名稱": "中華電信股份有限公司",
				"地址": "臺北市中正區信義路一段21之3號",
				"裝置容量-瓩": 15.75,
				"行政區": "中正區"
			}
		},
		{
			"type": "Feature",
			"geometry": {
				"type": "Point",
				"coordinates": [
					121.5394661,
					25.0044969
				]
			},
			"properties": {
				"類別": "國有房地",
				"名稱": "台灣中油股份有限公司",
				"地址": "臺北市文山區興隆路1段13號",
				"裝置容量-瓩": 10.5,
				"行政區": "文山區"
			}
		},
		{
			"type": "Feature",
			"geometry": {
				"type": "Point",
				"coordinates": [
					121.5143859,
					25.1195749
				]
			},
			"properties": {
				"類別": "國有房地",
				"名稱": "國立陽明交通大學",
				"地址": "臺北市北投區立農街2段155號",
				"裝置容量-瓩": 42.24,
				"行政區": "北投區"
			}
		},
		{
			"type": "Feature",
			"geometry": {
				"type": "Point",
				"coordinates": [
					121.5143859,
					25.1195749
				]
			},
			"properties": {
				"類別": "國有房地",
				"名稱": "國立陽明交通大學",
				"地址": "臺北市北投區立農街2段155號",
				"裝置容量-瓩": 69.12,
				"行政區": "北投區"
			}
		},
		{
			"type": "Feature",
			"geometry": {
				"type": "Point",
				"coordinates": [
					121.5143859,
					25.1195749
				]
			},
			"properties": {
				"類別": "國有房地",
				"名稱": "國立陽明交通大學",
				"地址": "臺北市北投區立農街2段155號",
				"裝置容量-瓩": 96.0,
				"行政區": "北投區"
			}
		},
		{
			"type": "Feature",
			"geometry": {
				"type": "Point",
				"coordinates": [
					121.5143859,
					25.1195749
				]
			},
			"properties": {
				"類別": "國有房地",
				"名稱": "國立陽明交通大學",
				"地址": "臺北市北投區立農街2段155號",
				"裝置容量-瓩": 106.88,
				"行政區": "北投區"
			}
		},
		{
			"type": "Feature",
			"geometry": {
				"type": "Point",
				"coordinates": [
					121.5143859,
					25.1195749
				]
			},
			"properties": {
				"類別": "國有房地",
				"名稱": "國立陽明交通大學",
				"地址": "臺北市北投區立農街2段155號",
				"裝置容量-瓩": 115.2,
				"行政區": "北投區"
			}
		},
		{
			"type": "Feature",
			"geometry": {
				"type": "Point",
				"coordinates": [
					121.5423856,
					25.0580395
				]
			},
			"properties": {
				"類別": "國有房地",
				"名稱": "國立臺北大學",
				"地址": "臺北市中山區民生東路3段67號",
				"裝置容量-瓩": 184.32,
				"行政區": "中山區"
			}
		},
		{
			"type": "Feature",
			"geometry": {
				"type": "Point",
				"coordinates": [
					121.517217,
					25.0419853
				]
			},
			"properties": {
				"類別": "國有房地",
				"名稱": "國立臺灣大學",
				"地址": "臺北市中正區常德街1號",
				"裝置容量-瓩": 336.0,
				"行政區": "中正區"
			}
		},
		{
			"type": "Feature",
			"geometry": {
				"type": "Point",
				"coordinates": [
					121.5569625,
					25.0053806
				]
			},
			"properties": {
				"類別": "國有房地",
				"名稱": "國立臺灣科技大學",
				"地址": "臺北市大安區辛亥段五小段0219-0000地號",
				"裝置容量-瓩": 18.9,
				"行政區": "大安區"
			}
		},
		{
			"type": "Feature",
			"geometry": {
				"type": "Point",
				"coordinates": [
					121.5405609,
					25.0132583
				]
			},
			"properties": {
				"類別": "國有房地",
				"名稱": "國立臺灣科技大學",
				"地址": "臺北市大安區基隆路4段43號",
				"裝置容量-瓩": 215.635,
				"行政區": "大安區"
			}
		},
		{
			"type": "Feature",
			"geometry": {
				"type": "Point",
				"coordinates": [
					121.5405609,
					25.0132583
				]
			},
			"properties": {
				"類別": "國有房地",
				"名稱": "國立臺灣科技大學",
				"地址": "臺北市大安區基隆路4段43號",
				"裝置容量-瓩": 256.81,
				"行政區": "大安區"
			}
		},
		{
			"type": "Feature",
			"geometry": {
				"type": "Point",
				"coordinates": [
					121.5293396,
					25.0273368
				]
			},
			"properties": {
				"類別": "國有房地",
				"名稱": "國立臺灣師範大學",
				"地址": "臺北市大安區和平東路1段129之1號",
				"裝置容量-瓩": 108.225,
				"行政區": "大安區"
			}
		},
		{
			"type": "Feature",
			"geometry": {
				"type": "Point",
				"coordinates": [
					121.5275484,
					25.0261656
				]
			},
			"properties": {
				"類別": "國有房地",
				"名稱": "國立臺灣師範大學",
				"地址": "臺北市大安區和平東路1段127號",
				"裝置容量-瓩": 216.45,
				"行政區": "大安區"
			}
		},
		{
			"type": "Feature",
			"geometry": {
				"type": "Point",
				"coordinates": [
					121.540488,
					25.0336585
				]
			},
			"properties": {
				"類別": "國有房地",
				"名稱": "國立臺灣師範大學附屬高級中學",
				"地址": "臺北市大安區信義路三段143號",
				"裝置容量-瓩": 472.96,
				"行政區": "大安區"
			}
		},
		{
			"type": "Feature",
			"geometry": {
				"type": "Point",
				"coordinates": [
					121.566702,
					24.9866233
				]
			},
			"properties": {
				"類別": "國有房地",
				"名稱": "國立臺灣戲曲學院",
				"地址": "臺北市文山區木柵路3段66巷8之1號",
				"裝置容量-瓩": 228.0,
				"行政區": "文山區"
			}
		},
		{
			"type": "Feature",
			"geometry": {
				"type": "Point",
				"coordinates": [
					121.5166448,
					25.0373347
				]
			},
			"properties": {
				"類別": "國有房地",
				"名稱": "國家圖書館",
				"地址": "臺北市中正區中山南路20號",
				"裝置容量-瓩": 168.0,
				"行政區": "中正區"
			}
		},
		{
			"type": "Feature",
			"geometry": {
				"type": "Point",
				"coordinates": [
					121.6118825,
					25.0584861
				]
			},
			"properties": {
				"類別": "國有房地",
				"名稱": "經濟部中小企業處南港生技育成中心",
				"地址": "臺北市南港區園區街3之1號（經濟部中小企業處南港生技育成中心）",
				"裝置容量-瓩": 90.72,
				"行政區": "南港區"
			}
		},
		{
			"type": "Feature",
			"geometry": {
				"type": "Point",
				"coordinates": [
					121.6118825,
					25.0584861
				]
			},
			"properties": {
				"類別": "國有房地",
				"名稱": "經濟部中小企業處南港生技育成中心",
				"地址": "臺北市南港區園區街3之2號",
				"裝置容量-瓩": 124.74,
				"行政區": "南港區"
			}
		},
		{
			"type": "Feature",
			"geometry": {
				"type": "Point",
				"coordinates": [
					121.5310058,
					25.0175108
				]
			},
			"properties": {
				"類別": "國有房地",
				"名稱": "臺灣電力股份有限公司",
				"地址": "臺北市中正區羅斯福路3段242號",
				"裝置容量-瓩": 20.16,
				"行政區": "中正區"
			}
		},
		{
			"type": "Feature",
			"geometry": {
				"type": "Point",
				"coordinates": [
					121.5924389,
					25.0718701
				]
			},
			"properties": {
				"類別": "國有房地",
				"名稱": "國防醫學院三軍總醫院",
				"地址": "臺北市內湖區成功路2段325號(國防醫學院三軍總醫院內湖院區)",
				"裝置容量-瓩": 1622.88,
				"行政區": "內湖區"
			}
		},
		{
			"type": "Feature",
			"geometry": {
				"type": "Point",
				"coordinates": [
					121.5405,
					25.0133
				]
			},
			"properties": {
				"類別": "國有房地",
				"名稱": "國立臺灣科技大學",
				"地址": "臺北市大安區基隆路4段43號",
				"裝置容量-瓩": 19.47,
				"行政區": "大安區"
			}
		},
		{
			"type": "Feature",
			"geometry": {
				"type": "Point",
				"coordinates": [
					121.6118,
					25.0411
				]
			},
			"properties": {
				"類別": "國有房地",
				"名稱": "中央研究院",
				"地址": "臺北市南港區研究院路二段128號",
				"裝置容量-瓩": 8.04,
				"行政區": "南港區"
			}
		},
		{
			"type": "Feature",
			"geometry": {
				"type": "Point",
				"coordinates": [
					121.4667,
					25.1321
				]
			},
			"properties": {
				"類別": "國有房地",
				"名稱": "國立臺北藝術大學",
				"地址": "臺北市北投區學園路1號",
				"裝置容量-瓩": 58.5,
				"行政區": "北投區"
			}
		},
		{
			"type": "Feature",
			"geometry": {
				"type": "Point",
				"coordinates": [
					121.4667,
					25.1321
				]
			},
			"properties": {
				"類別": "國有房地",
				"名稱": "國立臺北藝術大學",
				"地址": "臺北市北投區學園路1號",
				"裝置容量-瓩": 62.4,
				"行政區": "北投區"
			}
		},
		{
			"type": "Feature",
			"geometry": {
				"type": "Point",
				"coordinates": [
					121.4667,
					25.1321
				]
			},
			"properties": {
				"類別": "國有房地",
				"名稱": "國立臺北藝術大學",
				"地址": "臺北市北投區學園路1號",
				"裝置容量-瓩": 68.25,
				"行政區": "北投區"
			}
		},
		{
			"type": "Feature",
			"geometry": {
				"type": "Point",
				"coordinates": [
					121.5211,
					25.1185
				]
			},
			"properties": {
				"類別": "國有房地",
				"名稱": "國立臺北護理健康大學",
				"地址": "臺北市北投區明德路365號",
				"裝置容量-瓩": 158.4,
				"行政區": "北投區"
			}
		},
		{
			"type": "Feature",
			"geometry": {
				"type": "Point",
				"coordinates": [
					121.5211,
					25.1185
				]
			},
			"properties": {
				"類別": "國有房地",
				"名稱": "國立臺北護理健康大學",
				"地址": "臺北市北投區明德路365號",
				"裝置容量-瓩": 15.84,
				"行政區": "北投區"
			}
		},
		{
			"type": "Feature",
			"geometry": {
				"type": "Point",
				"coordinates": [
					121.5211,
					25.1185
				]
			},
			"properties": {
				"類別": "國有房地",
				"名稱": "國立臺北護理健康大學",
				"地址": "臺北市北投區明德路365號",
				"裝置容量-瓩": 25.08,
				"行政區": "北投區"
			}
		},
		{
			"type": "Feature",
			"geometry": {
				"type": "Point",
				"coordinates": [
					121.5351,
					25.0168
				]
			},
			"properties": {
				"類別": "國有房地",
				"名稱": "國立臺灣大學",
				"地址": "臺北市大安區羅斯福路四段1號",
				"裝置容量-瓩": 9.92,
				"行政區": "大安區"
			}
		},
		{
			"type": "Feature",
			"geometry": {
				"type": "Point",
				"coordinates": [
					121.4838069,
					25.1345465
				]
			},
			"properties": {
				"類別": "機關",
				"名稱": "臺北捷運北投機廠",
				"地址": "臺北市北投區桃源里9鄰大業路527巷88號",
				"裝置容量-瓩": 3797.28,
				"行政區": "北投區"
			}
		},
		{
			"type": "Feature",
			"geometry": {
				"type": "Point",
				"coordinates": [
					121.5476408,
					25.0145256
				]
			},
			"properties": {
				"類別": "機關",
				"名稱": "長興淨水廠",
				"地址": "臺北市大安區學府里9鄰長興街131號",
				"裝置容量-瓩": 2136.96,
				"行政區": "大安區"
			}
		},
		{
			"type": "Feature",
			"geometry": {
				"type": "Point",
				"coordinates": [
					121.5938041,
					24.9989605
				]
			},
			"properties": {
				"類別": "機關",
				"名稱": "福德坑環保復育公園",
				"地址": "臺北市文山區博嘉里1鄰木柵路五段151號",
				"裝置容量-瓩": 1996.8,
				"行政區": "文山區"
			}
		},
		{
			"type": "Feature",
			"geometry": {
				"type": "Point",
				"coordinates": [
					121.6223376,
					25.0290772
				]
			},
			"properties": {
				"類別": "機關",
				"名稱": "山水綠生態公園",
				"地址": "臺北市南港區南深路37號",
				"裝置容量-瓩": 980.88,
				"行政區": "南港區"
			}
		},
		{
			"type": "Feature",
			"geometry": {
				"type": "Point",
				"coordinates": [
					121.5371776,
					25.0674465
				]
			},
			"properties": {
				"類別": "機關",
				"名稱": "臺北市中山區民族東路336號(濱江果菜市場(第二果菜批發市場))",
				"地址": "臺北市中山區民族東路336號",
				"裝置容量-瓩": 498.96,
				"行政區": "中山區"
			}
		},
		{
			"type": "Feature",
			"geometry": {
				"type": "Point",
				"coordinates": [
					121.5058655,
					25.0483354
				]
			},
			"properties": {
				"類別": "機關",
				"名稱": "洛陽立體停車場",
				"地址": "臺北市萬華區福星里18鄰環河南路一段1號",
				"裝置容量-瓩": 497.76,
				"行政區": "萬華區"
			}
		},
		{
			"type": "Feature",
			"geometry": {
				"type": "Point",
				"coordinates": [
					121.5841861,
					25.0664027
				]
			},
			"properties": {
				"類別": "機關",
				"名稱": "資源回收隊內湖回收場區",
				"地址": "臺北市內湖區湖元里18鄰行忠路178巷1號",
				"裝置容量-瓩": 497.76,
				"行政區": "內湖區"
			}
		},
		{
			"type": "Feature",
			"geometry": {
				"type": "Point",
				"coordinates": [
					121.574362,
					25.066389
				]
			},
			"properties": {
				"類別": "機關",
				"名稱": "內湖汙水處理廠",
				"地址": "臺北市內湖區湖元里18鄰舊宗路二段2號",
				"裝置容量-瓩": 395.28,
				"行政區": "內湖區"
			}
		},
		{
			"type": "Feature",
			"geometry": {
				"type": "Point",
				"coordinates": [
					121.5371776,
					25.0674465
				]
			},
			"properties": {
				"類別": "機關",
				"名稱": "臺北市中山區民族東路336號(濱江果菜市場(第二果菜批發市場))",
				"地址": "臺北市中山區民族東路336號",
				"裝置容量-瓩": 359.1,
				"行政區": "中山區"
			}
		},
		{
			"type": "Feature",
			"geometry": {
				"type": "Point",
				"coordinates": [
					121.5742751,
					25.0321882
				]
			},
			"properties": {
				"類別": "機關",
				"名稱": "臺北市松德辦公大樓",
				"地址": "臺北市信義區三犁里23鄰松德路300號",
				"裝置容量-瓩": 307.44,
				"行政區": "信義區"
			}
		},
		{
			"type": "Feature",
			"geometry": {
				"type": "Point",
				"coordinates": [
					121.6064258,
					25.0560795
				]
			},
			"properties": {
				"類別": "機關",
				"名稱": "興中立體停車場",
				"地址": "臺北市南港區南港里14鄰興中路44巷1號",
				"裝置容量-瓩": 256.2,
				"行政區": "南港區"
			}
		},
		{
			"type": "Feature",
			"geometry": {
				"type": "Point",
				"coordinates": [
					121.574101,
					25.063163
				]
			},
			"properties": {
				"類別": "機關",
				"名稱": "臺北花卉批發市場",
				"地址": "臺北市內湖區湖元里18鄰新湖三路28號",
				"裝置容量-瓩": 226.92,
				"行政區": "內湖區"
			}
		},
		{
			"type": "Feature",
			"geometry": {
				"type": "Point",
				"coordinates": [
					121.505572,
					25.0441372
				]
			},
			"properties": {
				"類別": "機關",
				"名稱": "峨嵋立體停車場",
				"地址": "臺北市萬華區萬壽里5鄰峨眉街83號",
				"裝置容量-瓩": 204.96,
				"行政區": "萬華區"
			}
		},
		{
			"type": "Feature",
			"geometry": {
				"type": "Point",
				"coordinates": [
					121.5413437,
					25.1348725
				]
			},
			"properties": {
				"類別": "機關",
				"名稱": "臺北市立陽明教養院",
				"地址": "臺北市士林區陽明里8鄰凱旋路61巷4弄9號",
				"裝置容量-瓩": 141.6,
				"行政區": "士林區"
			}
		},
		{
			"type": "Feature",
			"geometry": {
				"type": "Point",
				"coordinates": [
					121.515268,
					25.0661934
				]
			},
			"properties": {
				"類別": "機關",
				"名稱": "臺北市大同區行政中心(蘭州市場)",
				"地址": "臺北市大同區揚雅里10鄰昌吉街55號",
				"裝置容量-瓩": 139.08,
				"行政區": "大同區"
			}
		},
		{
			"type": "Feature",
			"geometry": {
				"type": "Point",
				"coordinates": [
					121.5625699,
					25.059157
				]
			},
			"properties": {
				"類別": "機關",
				"名稱": "民生立體停車場",
				"地址": "臺北市松山區介壽里16鄰民生東路五段84號",
				"裝置容量-瓩": 117.12,
				"行政區": "松山區"
			}
		},
		{
			"type": "Feature",
			"geometry": {
				"type": "Point",
				"coordinates": [
					121.5287878,
					25.0703337
				]
			},
			"properties": {
				"類別": "機關",
				"名稱": "新生公園夢想館",
				"地址": "臺北市中山區新生北路三段105號",
				"裝置容量-瓩": 112.44,
				"行政區": "中山區"
			}
		},
		{
			"type": "Feature",
			"geometry": {
				"type": "Point",
				"coordinates": [
					121.5377267,
					25.0637419
				]
			},
			"properties": {
				"類別": "機關",
				"名稱": "榮星花園溫水游泳池",
				"地址": "臺北市中山區行仁里1鄰建國北路三段39號",
				"裝置容量-瓩": 98.82,
				"行政區": "中山區"
			}
		},
		{
			"type": "Feature",
			"geometry": {
				"type": "Point",
				"coordinates": [
					121.559673,
					24.9970166
				]
			},
			"properties": {
				"類別": "機關",
				"名稱": "臺北市文山運動中心",
				"地址": "臺北市文山區興得里25鄰興隆路三段222號",
				"裝置容量-瓩": 98.82,
				"行政區": "文山區"
			}
		},
		{
			"type": "Feature",
			"geometry": {
				"type": "Point",
				"coordinates": [
					121.5194342,
					25.0875707
				]
			},
			"properties": {
				"類別": "機關",
				"名稱": "臺北市市場處頂好惠康超市(後港店)",
				"地址": "臺北市士林區福中里19鄰華齡街175號",
				"裝置容量-瓩": 97.6,
				"行政區": "士林區"
			}
		},
		{
			"type": "Feature",
			"geometry": {
				"type": "Point",
				"coordinates": [
					121.5183333,
					25.0958333
				]
			},
			"properties": {
				"類別": "機關",
				"名稱": "臺北市立天文科學教育館",
				"地址": "臺北市士林區福佳里20鄰基河路363號",
				"裝置容量-瓩": 97.6,
				"行政區": "士林區"
			}
		},
		{
			"type": "Feature",
			"geometry": {
				"type": "Point",
				"coordinates": [
					121.544049,
					25.0215769
				]
			},
			"properties": {
				"類別": "機關",
				"名稱": "臺北市立圖書館道藩分館屋頂",
				"地址": "臺北市大安區臥龍里5鄰辛亥路三段11號",
				"裝置容量-瓩": 97.6,
				"行政區": "大安區"
			}
		},
		{
			"type": "Feature",
			"geometry": {
				"type": "Point",
				"coordinates": [
					121.5287878,
					25.0703337
				]
			},
			"properties": {
				"類別": "機關",
				"名稱": "新生公園未來館",
				"地址": "臺北市中山區新生北路三段105號",
				"裝置容量-瓩": 95.76,
				"行政區": "中山區"
			}
		},
		{
			"type": "Feature",
			"geometry": {
				"type": "Point",
				"coordinates": [
					121.5300049,
					25.0125415
				]
			},
			"properties": {
				"類別": "機關",
				"名稱": "公館淨水場",
				"地址": "臺北市中正區思源街1號",
				"裝置容量-瓩": 92.4,
				"行政區": "中正區"
			}
		},
		{
			"type": "Feature",
			"geometry": {
				"type": "Point",
				"coordinates": [
					121.5367036,
					25.0105628
				]
			},
			"properties": {
				"類別": "機關",
				"名稱": "景美污水抽水站",
				"地址": "臺北市文山區萬年里2鄰汀州路四段10號",
				"裝置容量-瓩": 85.4,
				"行政區": "文山區"
			}
		},
		{
			"type": "Feature",
			"geometry": {
				"type": "Point",
				"coordinates": [
					121.5673818,
					25.0423074
				]
			},
			"properties": {
				"類別": "機關",
				"名稱": "臺北市政府消防局",
				"地址": "臺北市信義區興雅里24鄰松仁路1號",
				"裝置容量-瓩": 85.4,
				"行政區": "信義區"
			}
		},
		{
			"type": "Feature",
			"geometry": {
				"type": "Point",
				"coordinates": [
					121.5676823,
					25.0330992
				]
			},
			"properties": {
				"類別": "機關",
				"名稱": "臺北市政府警察局信義分局",
				"地址": "臺北市信義區西村里8鄰信義路五段17號",
				"裝置容量-瓩": 85.4,
				"行政區": "信義區"
			}
		},
		{
			"type": "Feature",
			"geometry": {
				"type": "Point",
				"coordinates": [
					121.5810084,
					24.9983305
				]
			},
			"properties": {
				"類別": "機關",
				"名稱": "臺北市立動物園",
				"地址": "臺北市文山區新光路二段30號",
				"裝置容量-瓩": 85.2,
				"行政區": "文山區"
			}
		},
		{
			"type": "Feature",
			"geometry": {
				"type": "Point",
				"coordinates": [
					121.5391653,
					25.0046709
				]
			},
			"properties": {
				"類別": "機關",
				"名稱": "臺北市文山區興隆路1段15號",
				"地址": "臺北市文山區萬盛里10鄰興隆路一段15號",
				"裝置容量-瓩": 74.4,
				"行政區": "文山區"
			}
		},
		{
			"type": "Feature",
			"geometry": {
				"type": "Point",
				"coordinates": [
					121.5292934,
					25.1120683
				]
			},
			"properties": {
				"類別": "機關",
				"名稱": "士東市場",
				"地址": "臺北市士林區士東路100號",
				"裝置容量-瓩": 60.2,
				"行政區": "士林區"
			}
		},
		{
			"type": "Feature",
			"geometry": {
				"type": "Point",
				"coordinates": [
					121.5596171,
					25.056803
				]
			},
			"properties": {
				"類別": "機關",
				"名稱": "臺北市政府警察局保安警察大隊",
				"地址": "臺北市松山區延壽街339號",
				"裝置容量-瓩": 56.7,
				"行政區": "松山區"
			}
		},
		{
			"type": "Feature",
			"geometry": {
				"type": "Point",
				"coordinates": [
					121.5771627,
					25.1160194
				]
			},
			"properties": {
				"類別": "機關",
				"名稱": "內雙溪自然中心",
				"地址": "臺北市士林區溪山里5鄰至善路三段150巷27號",
				"裝置容量-瓩": 47.58,
				"行政區": "士林區"
			}
		},
		{
			"type": "Feature",
			"geometry": {
				"type": "Point",
				"coordinates": [
					121.5037379,
					25.0249363
				]
			},
			"properties": {
				"類別": "機關",
				"名稱": "臺北市立書館太陽分館",
				"地址": "臺北市萬華區青年路65號",
				"裝置容量-瓩": 47.32,
				"行政區": "萬華區"
			}
		},
		{
			"type": "Feature",
			"geometry": {
				"type": "Point",
				"coordinates": [
					121.56104,
					25.0045769
				]
			},
			"properties": {
				"類別": "機關",
				"名稱": "臺北市政府公務人員訓練處",
				"地址": "臺北市文山區萬美街二段21巷20號",
				"裝置容量-瓩": 45.9,
				"行政區": "文山區"
			}
		},
		{
			"type": "Feature",
			"geometry": {
				"type": "Point",
				"coordinates": [
					121.51806,
					25.071285
				]
			},
			"properties": {
				"類別": "機關",
				"名稱": "大龍峒公營出租住宅",
				"地址": "臺北市大同區承德路三段212號",
				"裝置容量-瓩": 45.36,
				"行政區": "大同區"
			}
		},
		{
			"type": "Feature",
			"geometry": {
				"type": "Point",
				"coordinates": [
					121.5167044,
					25.0601155
				]
			},
			"properties": {
				"類別": "機關",
				"名稱": "臺北市政府警察局大同分局",
				"地址": "臺北市大同區雙連里23鄰錦西街200號",
				"裝置容量-瓩": 45.36,
				"行政區": "大同區"
			}
		},
		{
			"type": "Feature",
			"geometry": {
				"type": "Point",
				"coordinates": [
					121.5378987,
					25.1140103
				]
			},
			"properties": {
				"類別": "機關",
				"名稱": "臺北市職能發展學院",
				"地址": "臺北市士林區士東路301號",
				"裝置容量-瓩": 45.0,
				"行政區": "士林區"
			}
		},
		{
			"type": "Feature",
			"geometry": {
				"type": "Point",
				"coordinates": [
					121.5361667,
					25.0006634
				]
			},
			"properties": {
				"類別": "機關",
				"名稱": "臺北市古亭地政事務所",
				"地址": "臺北市文山區萬和里14鄰萬隆街47之12號",
				"裝置容量-瓩": 44.8,
				"行政區": "文山區"
			}
		},
		{
			"type": "Feature",
			"geometry": {
				"type": "Point",
				"coordinates": [
					121.5947237,
					25.0552696
				]
			},
			"properties": {
				"類別": "機關",
				"名稱": "臺北市政府警察局南港分局",
				"地址": "臺北市南港區重陽里10鄰向陽路150號",
				"裝置容量-瓩": 40.26,
				"行政區": "南港區"
			}
		},
		{
			"type": "Feature",
			"geometry": {
				"type": "Point",
				"coordinates": [
					121.5474476,
					24.9997246
				]
			},
			"properties": {
				"類別": "機關",
				"名稱": "興隆市場",
				"地址": "臺北市文山區興隆路二段97號",
				"裝置容量-瓩": 39.06,
				"行政區": "文山區"
			}
		},
		{
			"type": "Feature",
			"geometry": {
				"type": "Point",
				"coordinates": [
					121.483955,
					25.1357899
				]
			},
			"properties": {
				"類別": "機關",
				"名稱": "北投機廠工務處",
				"地址": "臺北市北投區大業路527巷88號",
				"裝置容量-瓩": 37.26,
				"行政區": "北投區"
			}
		},
		{
			"type": "Feature",
			"geometry": {
				"type": "Point",
				"coordinates": [
					121.57859,
					25.031523
				]
			},
			"properties": {
				"類別": "機關",
				"名稱": "信義清潔隊",
				"地址": "臺北市信義區松隆里8鄰松山路658號",
				"裝置容量-瓩": 36.6,
				"行政區": "信義區"
			}
		},
		{
			"type": "Feature",
			"geometry": {
				"type": "Point",
				"coordinates": [
					121.5151063,
					25.066061
				]
			},
			"properties": {
				"類別": "機關",
				"名稱": "臺北市大同區公所行政中心",
				"地址": "臺北市大同區昌吉街57號",
				"裝置容量-瓩": 35.64,
				"行政區": "大同區"
			}
		},
		{
			"type": "Feature",
			"geometry": {
				"type": "Point",
				"coordinates": [
					121.5195703,
					25.0927483
				]
			},
			"properties": {
				"類別": "機關",
				"名稱": "臺北市士林區公所行政中心",
				"地址": "臺北市士林區中正路439號",
				"裝置容量-瓩": 30.72,
				"行政區": "士林區"
			}
		},
		{
			"type": "Feature",
			"geometry": {
				"type": "Point",
				"coordinates": [
					121.5029288,
					25.1323774
				]
			},
			"properties": {
				"類別": "機關",
				"名稱": "臺北市北投區公所行政中心",
				"地址": "臺北市北投區新市街30號",
				"裝置容量-瓩": 30.36,
				"行政區": "北投區"
			}
		},
		{
			"type": "Feature",
			"geometry": {
				"type": "Point",
				"coordinates": [
					121.5291419,
					25.0711859
				]
			},
			"properties": {
				"類別": "機關",
				"名稱": "抽水站總管理中心",
				"地址": "臺北市中山區新庄里20鄰濱江街3號",
				"裝置容量-瓩": 26.88,
				"行政區": "中山區"
			}
		},
		{
			"type": "Feature",
			"geometry": {
				"type": "Point",
				"coordinates": [
					121.5362106,
					25.0333339
				]
			},
			"properties": {
				"類別": "機關",
				"名稱": "臺北市政府捷運工程局南區工程處",
				"地址": "臺北市大安區信義路三段100號",
				"裝置容量-瓩": 20.92,
				"行政區": "大安區"
			}
		},
		{
			"type": "Feature",
			"geometry": {
				"type": "Point",
				"coordinates": [
					121.5700826,
					24.98964
				]
			},
			"properties": {
				"類別": "機關",
				"名稱": "臺北市文山區公所",
				"地址": "臺北市文山區木柵路三段220號",
				"裝置容量-瓩": 20.4,
				"行政區": "文山區"
			}
		},
		{
			"type": "Feature",
			"geometry": {
				"type": "Point",
				"coordinates": [
					121.506296,
					25.136298
				]
			},
			"properties": {
				"類別": "機關",
				"名稱": "臺北市立書館北投分館",
				"地址": "臺北市北投區光明路251號",
				"裝置容量-瓩": 16.32,
				"行政區": "北投區"
			}
		},
		{
			"type": "Feature",
			"geometry": {
				"type": "Point",
				"coordinates": [
					121.51086,
					25.099769
				]
			},
			"properties": {
				"類別": "機關",
				"名稱": "洲美抽水站(臺北市北投區新洲美段0030-000地號)",
				"地址": "臺北市北投區洲美街2號",
				"裝置容量-瓩": 14.64,
				"行政區": "北投區"
			}
		},
		{
			"type": "Feature",
			"geometry": {
				"type": "Point",
				"coordinates": [
					121.5345108,
					25.0264198
				]
			},
			"properties": {
				"類別": "機關",
				"名稱": "臺北市大安區公所行政中心",
				"地址": "臺北市大安區新生南路2段86號",
				"裝置容量-瓩": 12.3,
				"行政區": "大安區"
			}
		},
		{
			"type": "Feature",
			"geometry": {
				"type": "Point",
				"coordinates": [
					121.5112216,
					25.0349287
				]
			},
			"properties": {
				"類別": "機關",
				"名稱": "臺北市政府警察局交通大隊",
				"地址": "臺北市中正區愛國西路26號",
				"裝置容量-瓩": 11.04,
				"行政區": "中正區"
			}
		},
		{
			"type": "Feature",
			"geometry": {
				"type": "Point",
				"coordinates": [
					121.5841861,
					25.0664027
				]
			},
			"properties": {
				"類別": "機關",
				"名稱": "內湖再生傢俱展示場",
				"地址": "臺北市內湖區行忠路178巷1號",
				"裝置容量-瓩": 10.84,
				"行政區": "內湖區"
			}
		},
		{
			"type": "Feature",
			"geometry": {
				"type": "Point",
				"coordinates": [
					121.5882972,
					24.9689141
				]
			},
			"properties": {
				"類別": "機關",
				"名稱": "貓纜遊客中心",
				"地址": "臺北市文山區指南路三段38巷35號",
				"裝置容量-瓩": 10.0,
				"行政區": "文山區"
			}
		},
		{
			"type": "Feature",
			"geometry": {
				"type": "Point",
				"coordinates": [
					121.5273779,
					25.0713839
				]
			},
			"properties": {
				"類別": "機關",
				"名稱": "民族公園",
				"地址": "臺北市中山區新生北路三段158號",
				"裝置容量-瓩": 9.24,
				"行政區": "中山區"
			}
		},
		{
			"type": "Feature",
			"geometry": {
				"type": "Point",
				"coordinates": [
					121.5226242,
					25.1131424
				]
			},
			"properties": {
				"類別": "機關",
				"名稱": "臺北市立書館石牌分館",
				"地址": "臺北市北投區明德路208巷5號",
				"裝置容量-瓩": 8.64,
				"行政區": "北投區"
			}
		},
		{
			"type": "Feature",
			"geometry": {
				"type": "Point",
				"coordinates": [
					121.520209,
					25.074204
				]
			},
			"properties": {
				"類別": "機關",
				"名稱": "舊就業服務處",
				"地址": "臺北市大同區承德路3段287之1號",
				"裝置容量-瓩": 8.64,
				"行政區": "大同區"
			}
		},
		{
			"type": "Feature",
			"geometry": {
				"type": "Point",
				"coordinates": [
					121.5778242,
					25.1145025
				]
			},
			"properties": {
				"類別": "機關",
				"名稱": "內雙溪自然中心",
				"地址": "臺北市士林區至善路三段150巷27號",
				"裝置容量-瓩": 7.8,
				"行政區": "士林區"
			}
		},
		{
			"type": "Feature",
			"geometry": {
				"type": "Point",
				"coordinates": [
					121.5432482,
					25.1019103
				]
			},
			"properties": {
				"類別": "機關",
				"名稱": "至善老人安養護中心",
				"地址": "臺北市士林區仰德大道二段2巷50號",
				"裝置容量-瓩": 6.3,
				"行政區": "士林區"
			}
		},
		{
			"type": "Feature",
			"geometry": {
				"type": "Point",
				"coordinates": [
					121.5549335,
					24.9798856
				]
			},
			"properties": {
				"類別": "機關",
				"名稱": "臺北市政府消防局-文山中隊",
				"地址": "臺北市文山區樟新街2號",
				"裝置容量-瓩": 6.195,
				"行政區": "文山區"
			}
		},
		{
			"type": "Feature",
			"geometry": {
				"type": "Point",
				"coordinates": [
					121.535552,
					25.0310609
				]
			},
			"properties": {
				"類別": "機關",
				"名稱": "大安區大安森林公園",
				"地址": "臺北市大安區新生南路二段1號",
				"裝置容量-瓩": 5.712,
				"行政區": "大安區"
			}
		},
		{
			"type": "Feature",
			"geometry": {
				"type": "Point",
				"coordinates": [
					121.5067531,
					25.0474081
				]
			},
			"properties": {
				"類別": "機關",
				"名稱": "萬華運動中心",
				"地址": "臺北市萬華區西寧南路6-1號",
				"裝置容量-瓩": 5.2,
				"行政區": "萬華區"
			}
		},
		{
			"type": "Feature",
			"geometry": {
				"type": "Point",
				"coordinates": [
					121.5639969,
					25.037531
				]
			},
			"properties": {
				"類別": "機關",
				"名稱": "臺北市市政府",
				"地址": "臺北市信義區市府路1號",
				"裝置容量-瓩": 5.0,
				"行政區": "信義區"
			}
		},
		{
			"type": "Feature",
			"geometry": {
				"type": "Point",
				"coordinates": [
					121.5267934,
					25.0528945
				]
			},
			"properties": {
				"類別": "機關",
				"名稱": "康樂里里民活動中心",
				"地址": "臺北市中山區南京東路一段35號",
				"裝置容量-瓩": 3.82,
				"行政區": "中山區"
			}
		},
		{
			"type": "Feature",
			"geometry": {
				"type": "Point",
				"coordinates": [
					121.557859,
					24.988296
				]
			},
			"properties": {
				"類別": "機關",
				"名稱": "公共住宅-興隆一區(12號、16號、18號、20號、22號、26號、28號、30號)",
				"地址": "臺北市文山區木柵路2段2巷12號",
				"裝置容量-瓩": 3.12,
				"行政區": "文山區"
			}
		},
		{
			"type": "Feature",
			"geometry": {
				"type": "Point",
				"coordinates": [
					121.5580362,
					24.9880713
				]
			},
			"properties": {
				"類別": "機關",
				"名稱": "公共住宅-興隆一區(32號、36號、38號、40號、42號、46號、48號、50號)",
				"地址": "臺北市文山區木柵路2段2巷32號",
				"裝置容量-瓩": 3.12,
				"行政區": "文山區"
			}
		},
		{
			"type": "Feature",
			"geometry": {
				"type": "Point",
				"coordinates": [
					121.5154926,
					25.0403577
				]
			},
			"properties": {
				"類別": "機關",
				"名稱": "二二八和平紀念公園",
				"地址": "臺北市中正區凱達格蘭大道3號",
				"裝置容量-瓩": 2.16,
				"行政區": "中正區"
			}
		},
		{
			"type": "Feature",
			"geometry": {
				"type": "Point",
				"coordinates": [
					121.6042106,
					25.05483107
				]
			},
			"properties": {
				"類別": "機關",
				"名稱": "臺北市政府都市發展局",
				"地址": "臺北市南港區南港路2段60巷19號(東明公宅)",
				"裝置容量-瓩": 10.2,
				"行政區": "南港區"
			}
		},
		{
			"type": "Feature",
			"geometry": {
				"type": "Point",
				"coordinates": [
					121.6042106,
					25.05483107
				]
			},
			"properties": {
				"類別": "機關",
				"名稱": "臺北市政府都市發展局",
				"地址": "臺北市南港區南港路2段60巷17、19號(東明公宅)",
				"裝置容量-瓩": 70.2,
				"行政區": "南港區"
			}
		},
		{
			"type": "Feature",
			"geometry": {
				"type": "Point",
				"coordinates": [
					121.51086,
					25.09997301
				]
			},
			"properties": {
				"類別": "機關",
				"名稱": "臺北市政府工務局水利工程處",
				"地址": "臺北市北投區洲美街2號",
				"裝置容量-瓩": 4.88,
				"行政區": "北投區"
			}
		},
		{
			"type": "Feature",
			"geometry": {
				"type": "Point",
				"coordinates": [
					121.5582152,
					25.02681734
				]
			},
			"properties": {
				"類別": "機關",
				"名稱": "臺北市停車管理工程處",
				"地址": "臺北市信義區信安街49號的景勤2號(公園停車場)",
				"裝置容量-瓩": 19.2,
				"行政區": "信義區"
			}
		},
		{
			"type": "Feature",
			"geometry": {
				"type": "Point",
				"coordinates": [
					121.519038,
					25.09604172
				]
			},
			"properties": {
				"類別": "機關",
				"名稱": "臺北市立天文科學教育館",
				"地址": "臺北市士林區基河路363號",
				"裝置容量-瓩": 9.76,
				"行政區": "士林區"
			}
		},
		{
			"type": "Feature",
			"geometry": {
				"type": "Point",
				"coordinates": [
					121.5800082,
					25.1197454
				]
			},
			"properties": {
				"類別": "學校",
				"名稱": "臺北市溪山國民小學",
				"地址": "111臺北市士林區至善路三段199號",
				"裝置容量-瓩": 2.1,
				"行政區": "士林區"
			}
		},
		{
			"type": "Feature",
			"geometry": {
				"type": "Point",
				"coordinates": [
					121.5778933,
					25.0841176
				]
			},
			"properties": {
				"類別": "學校",
				"名稱": "臺北市麗山高級中學",
				"地址": "114臺北市內湖區環山路二段100號",
				"裝置容量-瓩": 3.14,
				"行政區": "內湖區"
			}
		},
		{
			"type": "Feature",
			"geometry": {
				"type": "Point",
				"coordinates": [
					121.5700216,
					25.046751
				]
			},
			"properties": {
				"類別": "學校",
				"名稱": "臺北市興雅國民小學",
				"地址": "110臺北市信義區基隆路一段83巷9號",
				"裝置容量-瓩": 3.15,
				"行政區": "信義區"
			}
		},
		{
			"type": "Feature",
			"geometry": {
				"type": "Point",
				"coordinates": [
					121.5179,
					25.08615
				]
			},
			"properties": {
				"類別": "學校",
				"名稱": "臺北市百齡國民小學",
				"地址": "111臺北市士林區福港街205號",
				"裝置容量-瓩": 3.22,
				"行政區": "士林區"
			}
		},
		{
			"type": "Feature",
			"geometry": {
				"type": "Point",
				"coordinates": [
					121.5556,
					25.10364
				]
			},
			"properties": {
				"類別": "學校",
				"名稱": "臺北市至善國民中學",
				"地址": "111臺北市士林區至善路二段360號",
				"裝置容量-瓩": 3.4,
				"行政區": "士林區"
			}
		},
		{
			"type": "Feature",
			"geometry": {
				"type": "Point",
				"coordinates": [
					121.5504,
					25.01893
				]
			},
			"properties": {
				"類別": "學校",
				"名稱": "臺北市大安國民小學",
				"地址": "106臺北市大安區臥龍街129號",
				"裝置容量-瓩": 3.67,
				"行政區": "大安區"
			}
		},
		{
			"type": "Feature",
			"geometry": {
				"type": "Point",
				"coordinates": [
					121.522,
					25.09935
				]
			},
			"properties": {
				"類別": "學校",
				"名稱": "臺北市文昌國民小學",
				"地址": "111臺北市士林區文林路615巷20號",
				"裝置容量-瓩": 3.67,
				"行政區": "士林區"
			}
		},
		{
			"type": "Feature",
			"geometry": {
				"type": "Point",
				"coordinates": [
					121.5069631,
					25.0837421
				]
			},
			"properties": {
				"類別": "學校",
				"名稱": "臺北市葫蘆國民小學",
				"地址": "111臺北市士林區環河北路三段95號",
				"裝置容量-瓩": 3.67,
				"行政區": "士林區"
			}
		},
		{
			"type": "Feature",
			"geometry": {
				"type": "Point",
				"coordinates": [
					121.535435,
					25.1496532
				]
			},
			"properties": {
				"類別": "學校",
				"名稱": "臺北市湖山國民小學",
				"地址": "112臺北市北投區湖底路11號",
				"裝置容量-瓩": 3.67,
				"行政區": "北投區"
			}
		},
		{
			"type": "Feature",
			"geometry": {
				"type": "Point",
				"coordinates": [
					121.5556,
					25.10364
				]
			},
			"properties": {
				"類別": "學校",
				"名稱": "臺北市至善國民中學",
				"地址": "111臺北市士林區至善路二段360號",
				"裝置容量-瓩": 3.74,
				"行政區": "士林區"
			}
		},
		{
			"type": "Feature",
			"geometry": {
				"type": "Point",
				"coordinates": [
					121.5616369,
					25.0780014
				]
			},
			"properties": {
				"類別": "學校",
				"名稱": "臺北市濱江國民小學",
				"地址": "104臺北市中山區樂群二路266巷99號",
				"裝置容量-瓩": 3.78,
				"行政區": "中山區"
			}
		},
		{
			"type": "Feature",
			"geometry": {
				"type": "Point",
				"coordinates": [
					121.5612,
					25.04872
				]
			},
			"properties": {
				"類別": "學校",
				"名稱": "臺北市中崙高級中學",
				"地址": "105臺北市松山區八德路四段101號",
				"裝置容量-瓩": 3.78,
				"行政區": "松山區"
			}
		},
		{
			"type": "Feature",
			"geometry": {
				"type": "Point",
				"coordinates": [
					121.6073,
					25.05634
				]
			},
			"properties": {
				"類別": "學校",
				"名稱": "臺北市南港高級工業職業學校",
				"地址": "115臺北市南港區興中路29號",
				"裝置容量-瓩": 3.78,
				"行政區": "南港區"
			}
		},
		{
			"type": "Feature",
			"geometry": {
				"type": "Point",
				"coordinates": [
					121.511,
					25.02461
				]
			},
			"properties": {
				"類別": "學校",
				"名稱": "臺北市古亭國民中學",
				"地址": "100臺北市中正區中華路二段465號",
				"裝置容量-瓩": 3.96,
				"行政區": "中正區"
			}
		},
		{
			"type": "Feature",
			"geometry": {
				"type": "Point",
				"coordinates": [
					121.5302,
					25.0498
				]
			},
			"properties": {
				"類別": "學校",
				"名稱": "臺北市長安國民小學",
				"地址": "104臺北市中山區吉林路15號",
				"裝置容量-瓩": 3.96,
				"行政區": "中山區"
			}
		},
		{
			"type": "Feature",
			"geometry": {
				"type": "Point",
				"coordinates": [
					121.6172346,
					25.0423894
				]
			},
			"properties": {
				"類別": "學校",
				"名稱": "臺北市胡適國民小學",
				"地址": "115臺北市南港區舊莊街一段1號",
				"裝置容量-瓩": 4.0,
				"行政區": "南港區"
			}
		},
		{
			"type": "Feature",
			"geometry": {
				"type": "Point",
				"coordinates": [
					121.5865301,
					25.0388201
				]
			},
			"properties": {
				"類別": "學校",
				"名稱": "臺北市福德國民小學",
				"地址": "110臺北市信義區福德街253號",
				"裝置容量-瓩": 4.05,
				"行政區": "信義區"
			}
		},
		{
			"type": "Feature",
			"geometry": {
				"type": "Point",
				"coordinates": [
					121.5088406,
					25.0468125
				]
			},
			"properties": {
				"類別": "學校",
				"名稱": "臺北市福星國民小學",
				"地址": "108臺北市萬華區中華路一段66號",
				"裝置容量-瓩": 6.48,
				"行政區": "萬華區"
			}
		},
		{
			"type": "Feature",
			"geometry": {
				"type": "Point",
				"coordinates": [
					121.5887,
					25.07704
				]
			},
			"properties": {
				"類別": "學校",
				"名稱": "臺北市內湖國民中學",
				"地址": "114臺北市內湖區陽光街1號",
				"裝置容量-瓩": 8.28,
				"行政區": "內湖區"
			}
		},
		{
			"type": "Feature",
			"geometry": {
				"type": "Point",
				"coordinates": [
					121.563181,
					25.031566
				]
			},
			"properties": {
				"類別": "學校",
				"名稱": "臺北市信義國民小學",
				"地址": "110臺北市信義區松勤街60號",
				"裝置容量-瓩": 9.8,
				"行政區": "信義區"
			}
		},
		{
			"type": "Feature",
			"geometry": {
				"type": "Point",
				"coordinates": [
					121.522,
					25.09935
				]
			},
			"properties": {
				"類別": "學校",
				"名稱": "臺北市文昌國民小學",
				"地址": "111臺北市士林區文林路615巷20號",
				"裝置容量-瓩": 10.08,
				"行政區": "士林區"
			}
		},
		{
			"type": "Feature",
			"geometry": {
				"type": "Point",
				"coordinates": [
					121.6118,
					25.06819
				]
			},
			"properties": {
				"類別": "學校",
				"名稱": "臺北市南湖國民小學",
				"地址": "114臺北市內湖區康寧路三段200號",
				"裝置容量-瓩": 10.56,
				"行政區": "內湖區"
			}
		},
		{
			"type": "Feature",
			"geometry": {
				"type": "Point",
				"coordinates": [
					121.6101226,
					25.0574484
				]
			},
			"properties": {
				"類別": "學校",
				"名稱": "臺北市南港國民小學",
				"地址": "115臺北市南港區惠民街67號",
				"裝置容量-瓩": 10.56,
				"行政區": "南港區"
			}
		},
		{
			"type": "Feature",
			"geometry": {
				"type": "Point",
				"coordinates": [
					121.522645,
					25.0943734
				]
			},
			"properties": {
				"類別": "學校",
				"名稱": "臺北市士林國民中學",
				"地址": "111臺北市士林區中正路345號",
				"裝置容量-瓩": 19.89,
				"行政區": "士林區"
			}
		},
		{
			"type": "Feature",
			"geometry": {
				"type": "Point",
				"coordinates": [
					121.4987891,
					25.0291092
				]
			},
			"properties": {
				"類別": "學校",
				"名稱": "臺北市萬華國民中學",
				"地址": "108臺北市萬華區西藏路201號",
				"裝置容量-瓩": 20.0,
				"行政區": "萬華區"
			}
		},
		{
			"type": "Feature",
			"geometry": {
				"type": "Point",
				"coordinates": [
					121.6155,
					25.06884
				]
			},
			"properties": {
				"類別": "學校",
				"名稱": "臺北市東湖國民小學",
				"地址": "114臺北市內湖區東湖路115號",
				"裝置容量-瓩": 20.0,
				"行政區": "內湖區"
			}
		},
		{
			"type": "Feature",
			"geometry": {
				"type": "Point",
				"coordinates": [
					121.572237,
					25.0364201
				]
			},
			"properties": {
				"類別": "學校",
				"名稱": "臺北市興雅國民中學",
				"地址": "110臺北市信義區松德路168巷15號",
				"裝置容量-瓩": 20.39,
				"行政區": "信義區"
			}
		},
		{
			"type": "Feature",
			"geometry": {
				"type": "Point",
				"coordinates": [
					121.5122,
					25.03092
				]
			},
			"properties": {
				"類別": "學校",
				"名稱": "臺北市建國高級中學",
				"地址": "100臺北市中正區南海路56號",
				"裝置容量-瓩": 20.7,
				"行政區": "中正區"
			}
		},
		{
			"type": "Feature",
			"geometry": {
				"type": "Point",
				"coordinates": [
					121.6073,
					25.05634
				]
			},
			"properties": {
				"類別": "學校",
				"名稱": "臺北市南港高級工業職業學校",
				"地址": "115臺北市南港區興中路29號",
				"裝置容量-瓩": 23.5,
				"行政區": "南港區"
			}
		},
		{
			"type": "Feature",
			"geometry": {
				"type": "Point",
				"coordinates": [
					121.505032,
					25.119493
				]
			},
			"properties": {
				"類別": "學校",
				"名稱": "臺北市立農國民小學",
				"地址": "112臺北市北投區立農街一段250號",
				"裝置容量-瓩": 24.96,
				"行政區": "北投區"
			}
		},
		{
			"type": "Feature",
			"geometry": {
				"type": "Point",
				"coordinates": [
					121.5161397,
					25.0648723
				]
			},
			"properties": {
				"類別": "學校",
				"名稱": "臺北市大同國民小學",
				"地址": "103臺北市大同區大龍街51號",
				"裝置容量-瓩": 25.92,
				"行政區": "大同區"
			}
		},
		{
			"type": "Feature",
			"geometry": {
				"type": "Point",
				"coordinates": [
					121.5364,
					25.11029
				]
			},
			"properties": {
				"類別": "學校",
				"名稱": "臺北市芝山國民小學",
				"地址": "111臺北市士林區德行東路285號",
				"裝置容量-瓩": 27.6,
				"行政區": "士林區"
			}
		},
		{
			"type": "Feature",
			"geometry": {
				"type": "Point",
				"coordinates": [
					121.5236872,
					25.0423335
				]
			},
			"properties": {
				"類別": "學校",
				"名稱": "臺北市成功高級中學",
				"地址": "100臺北市中正區濟南路一段71號",
				"裝置容量-瓩": 28.8,
				"行政區": "中正區"
			}
		},
		{
			"type": "Feature",
			"geometry": {
				"type": "Point",
				"coordinates": [
					121.5117379,
					25.1157413
				]
			},
			"properties": {
				"類別": "學校",
				"名稱": "臺北市石牌國民小學",
				"地址": "112臺北市北投區致遠二路80號",
				"裝置容量-瓩": 28.8,
				"行政區": "北投區"
			}
		},
		{
			"type": "Feature",
			"geometry": {
				"type": "Point",
				"coordinates": [
					121.5589135,
					25.0006248
				]
			},
			"properties": {
				"類別": "學校",
				"名稱": "臺北市萬芳高級中學",
				"地址": "116臺北市文山區興隆路三段115巷1號",
				"裝置容量-瓩": 30.0,
				"行政區": "文山區"
			}
		},
		{
			"type": "Feature",
			"geometry": {
				"type": "Point",
				"coordinates": [
					121.5366774,
					25.0048433
				]
			},
			"properties": {
				"類別": "學校",
				"名稱": "臺北市萬福國民小學",
				"地址": "116臺北市文山區羅斯福路五段170巷32號",
				"裝置容量-瓩": 31.05,
				"行政區": "文山區"
			}
		},
		{
			"type": "Feature",
			"geometry": {
				"type": "Point",
				"coordinates": [
					121.5082,
					25.05122
				]
			},
			"properties": {
				"類別": "學校",
				"名稱": "臺北市忠孝國民中學",
				"地址": "103臺北市大同區西寧北路32號",
				"裝置容量-瓩": 32.64,
				"行政區": "大同區"
			}
		},
		{
			"type": "Feature",
			"geometry": {
				"type": "Point",
				"coordinates": [
					121.6106,
					25.07062
				]
			},
			"properties": {
				"類別": "學校",
				"名稱": "臺北市明湖國民中學",
				"地址": "114臺北市內湖區康寧路3段60號",
				"裝置容量-瓩": 35.4,
				"行政區": "內湖區"
			}
		},
		{
			"type": "Feature",
			"geometry": {
				"type": "Point",
				"coordinates": [
					121.601146,
					25.072992
				]
			},
			"properties": {
				"類別": "學校",
				"名稱": "臺北市麗湖國民小學",
				"地址": "114臺北市內湖區金湖路363巷8號",
				"裝置容量-瓩": 37.52,
				"行政區": "內湖區"
			}
		},
		{
			"type": "Feature",
			"geometry": {
				"type": "Point",
				"coordinates": [
					121.5144,
					25.02514
				]
			},
			"properties": {
				"類別": "學校",
				"名稱": "臺北市螢橋國民小學",
				"地址": "100臺北市中正區詔安街29號",
				"裝置容量-瓩": 42.48,
				"行政區": "中正區"
			}
		},
		{
			"type": "Feature",
			"geometry": {
				"type": "Point",
				"coordinates": [
					121.5364,
					25.07335
				]
			},
			"properties": {
				"類別": "學校",
				"名稱": "臺北市大佳國民小學",
				"地址": "104臺北市中山區濱江街107號",
				"裝置容量-瓩": 43.4,
				"行政區": "中山區"
			}
		},
		{
			"type": "Feature",
			"geometry": {
				"type": "Point",
				"coordinates": [
					121.4976,
					25.02967
				]
			},
			"properties": {
				"類別": "學校",
				"名稱": "臺北市南海實驗幼兒園",
				"地址": "108臺北市萬華區西藏路424號",
				"裝置容量-瓩": 44.64,
				"行政區": "萬華區"
			}
		},
		{
			"type": "Feature",
			"geometry": {
				"type": "Point",
				"coordinates": [
					121.5628,
					25.05659
				]
			},
			"properties": {
				"類別": "學校",
				"名稱": "臺北市健康國民小學",
				"地址": "105臺北市松山區延壽街166、168號",
				"裝置容量-瓩": 45.36,
				"行政區": "松山區"
			}
		},
		{
			"type": "Feature",
			"geometry": {
				"type": "Point",
				"coordinates": [
					121.5348854,
					25.0239215
				]
			},
			"properties": {
				"類別": "學校",
				"名稱": "臺北市龍安國民小學",
				"地址": "106臺北市大安區新生南路三段33號",
				"裝置容量-瓩": 48.0,
				"行政區": "大安區"
			}
		},
		{
			"type": "Feature",
			"geometry": {
				"type": "Point",
				"coordinates": [
					121.504618,
					25.0360766
				]
			},
			"properties": {
				"類別": "學校",
				"名稱": "臺北市龍山國民中學",
				"地址": "108臺北市萬華區南寧路46號",
				"裝置容量-瓩": 50.0,
				"行政區": "萬華區"
			}
		},
		{
			"type": "Feature",
			"geometry": {
				"type": "Point",
				"coordinates": [
					121.6011,
					25.08777
				]
			},
			"properties": {
				"類別": "學校",
				"名稱": "臺北市大湖國民小學",
				"地址": "114臺北市內湖區大湖山莊街170號",
				"裝置容量-瓩": 50.6,
				"行政區": "內湖區"
			}
		},
		{
			"type": "Feature",
			"geometry": {
				"type": "Point",
				"coordinates": [
					121.5700216,
					25.046751
				]
			},
			"properties": {
				"類別": "學校",
				"名稱": "臺北市興雅國民小學",
				"地址": "110臺北市信義區基隆路一段83巷9號",
				"裝置容量-瓩": 51.6,
				"行政區": "信義區"
			}
		},
		{
			"type": "Feature",
			"geometry": {
				"type": "Point",
				"coordinates": [
					121.5088406,
					25.0468125
				]
			},
			"properties": {
				"類別": "學校",
				"名稱": "臺北市福星國民小學",
				"地址": "108臺北市萬華區中華路一段66號",
				"裝置容量-瓩": 52.17,
				"行政區": "萬華區"
			}
		},
		{
			"type": "Feature",
			"geometry": {
				"type": "Point",
				"coordinates": [
					121.4986,
					25.03082
				]
			},
			"properties": {
				"類別": "學校",
				"名稱": "臺北市雙園國民小學",
				"地址": "108臺北市萬華區莒光路315號",
				"裝置容量-瓩": 56.64,
				"行政區": "萬華區"
			}
		},
		{
			"type": "Feature",
			"geometry": {
				"type": "Point",
				"coordinates": [
					121.5485,
					24.99622
				]
			},
			"properties": {
				"類別": "學校",
				"名稱": "臺北市景興國民小學",
				"地址": "116臺北市文山區景華街150巷21號",
				"裝置容量-瓩": 56.64,
				"行政區": "文山區"
			}
		},
		{
			"type": "Feature",
			"geometry": {
				"type": "Point",
				"coordinates": [
					121.5634,
					24.98928
				]
			},
			"properties": {
				"類別": "學校",
				"名稱": "臺北市文山特殊教育學校",
				"地址": "116臺北市文山區秀明路1段169號",
				"裝置容量-瓩": 58.56,
				"行政區": "文山區"
			}
		},
		{
			"type": "Feature",
			"geometry": {
				"type": "Point",
				"coordinates": [
					121.5333,
					25.02967
				]
			},
			"properties": {
				"類別": "學校",
				"名稱": "臺北市新生國民小學",
				"地址": "106臺北市大安區新生南路2段36號",
				"裝置容量-瓩": 70.76,
				"行政區": "大安區"
			}
		},
		{
			"type": "Feature",
			"geometry": {
				"type": "Point",
				"coordinates": [
					121.533178,
					25.0312012
				]
			},
			"properties": {
				"類別": "學校",
				"名稱": "臺北市金華國民中學",
				"地址": "106臺北市大安區新生南路二段32號",
				"裝置容量-瓩": 70.8,
				"行政區": "大安區"
			}
		},
		{
			"type": "Feature",
			"geometry": {
				"type": "Point",
				"coordinates": [
					121.4926,
					25.02757
				]
			},
			"properties": {
				"類別": "學校",
				"名稱": "臺北市雙園國民中學",
				"地址": "108臺北市萬華區興義街2號",
				"裝置容量-瓩": 70.8,
				"行政區": "萬華區"
			}
		},
		{
			"type": "Feature",
			"geometry": {
				"type": "Point",
				"coordinates": [
					121.5583,
					25.02947
				]
			},
			"properties": {
				"類別": "學校",
				"名稱": "臺北市三興國民小學",
				"地址": "110臺北市信義區基隆路2段99號",
				"裝置容量-瓩": 70.8,
				"行政區": "信義區"
			}
		},
		{
			"type": "Feature",
			"geometry": {
				"type": "Point",
				"coordinates": [
					121.5249,
					25.0933
				]
			},
			"properties": {
				"類別": "學校",
				"名稱": "臺北市士林國民小學",
				"地址": "111臺北市士林區大東路165號",
				"裝置容量-瓩": 70.8,
				"行政區": "士林區"
			}
		},
		{
			"type": "Feature",
			"geometry": {
				"type": "Point",
				"coordinates": [
					121.5657,
					25.08383
				]
			},
			"properties": {
				"類別": "學校",
				"名稱": "臺北市西湖國民小學",
				"地址": "114臺北市內湖區環山路1段25號",
				"裝置容量-瓩": 70.8,
				"行政區": "內湖區"
			}
		},
		{
			"type": "Feature",
			"geometry": {
				"type": "Point",
				"coordinates": [
					121.6172,
					25.04239
				]
			},
			"properties": {
				"類別": "學校",
				"名稱": "臺北市胡適國民小學",
				"地址": "115臺北市南港區舊莊街1段1號",
				"裝置容量-瓩": 73.2,
				"行政區": "南港區"
			}
		},
		{
			"type": "Feature",
			"geometry": {
				"type": "Point",
				"coordinates": [
					121.6011,
					25.08777
				]
			},
			"properties": {
				"類別": "學校",
				"名稱": "臺北市大湖國民小學",
				"地址": "114臺北市內湖區大湖山莊街170號",
				"裝置容量-瓩": 74.4,
				"行政區": "內湖區"
			}
		},
		{
			"type": "Feature",
			"geometry": {
				"type": "Point",
				"coordinates": [
					121.4908,
					25.03377
				]
			},
			"properties": {
				"類別": "學校",
				"名稱": "臺北市華江國民小學",
				"地址": "108臺北市萬華區環河南路2段250巷42弄2號",
				"裝置容量-瓩": 81.42,
				"行政區": "萬華區"
			}
		},
		{
			"type": "Feature",
			"geometry": {
				"type": "Point",
				"coordinates": [
					121.5027,
					25.03805
				]
			},
			"properties": {
				"類別": "學校",
				"名稱": "臺北市老松國民小學",
				"地址": "108臺北市萬華區桂林路64號",
				"裝置容量-瓩": 84.96,
				"行政區": "萬華區"
			}
		},
		{
			"type": "Feature",
			"geometry": {
				"type": "Point",
				"coordinates": [
					121.6118,
					25.06819
				]
			},
			"properties": {
				"類別": "學校",
				"名稱": "臺北市南湖國民小學",
				"地址": "114臺北市內湖區康寧路3段200號",
				"裝置容量-瓩": 84.96,
				"行政區": "內湖區"
			}
		},
		{
			"type": "Feature",
			"geometry": {
				"type": "Point",
				"coordinates": [
					121.4824,
					25.10587
				]
			},
			"properties": {
				"類別": "學校",
				"名稱": "臺北市富安國民小學",
				"地址": "111臺北市士林區延平北路8段135號",
				"裝置容量-瓩": 94.4,
				"行政區": "士林區"
			}
		},
		{
			"type": "Feature",
			"geometry": {
				"type": "Point",
				"coordinates": [
					121.5805,
					25.03502
				]
			},
			"properties": {
				"類別": "學校",
				"名稱": "臺北市松山高級商業家事職業學校",
				"地址": "110臺北市信義區松山路655號",
				"裝置容量-瓩": 95.16,
				"行政區": "信義區"
			}
		},
		{
			"type": "Feature",
			"geometry": {
				"type": "Point",
				"coordinates": [
					121.5623,
					25.06239
				]
			},
			"properties": {
				"類別": "學校",
				"名稱": "臺北市民權國民小學",
				"地址": "105臺北市松山區民權東路4段200號",
				"裝置容量-瓩": 95.58,
				"行政區": "松山區"
			}
		},
		{
			"type": "Feature",
			"geometry": {
				"type": "Point",
				"coordinates": [
					121.5587,
					24.99883
				]
			},
			"properties": {
				"類別": "學校",
				"名稱": "臺北市興華國民小學",
				"地址": "116臺北市文山區興隆路3段125巷6號",
				"裝置容量-瓩": 97.6,
				"行政區": "文山區"
			}
		},
		{
			"type": "Feature",
			"geometry": {
				"type": "Point",
				"coordinates": [
					121.5462,
					25.02936
				]
			},
			"properties": {
				"類別": "學校",
				"名稱": "臺北市建安國民小學",
				"地址": "106臺北市大安區大安路2段99號",
				"裝置容量-瓩": 99.12,
				"行政區": "大安區"
			}
		},
		{
			"type": "Feature",
			"geometry": {
				"type": "Point",
				"coordinates": [
					121.5166,
					25.0946
				]
			},
			"properties": {
				"類別": "學校",
				"名稱": "臺北市士林高級職業學校",
				"地址": "111臺北市士林區士商路150號",
				"裝置容量-瓩": 99.71,
				"行政區": "士林區"
			}
		},
		{
			"type": "Feature",
			"geometry": {
				"type": "Point",
				"coordinates": [
					121.5519,
					25.00248
				]
			},
			"properties": {
				"類別": "學校",
				"名稱": "臺北市興隆國民小學",
				"地址": "116臺北市文山區福興路2號",
				"裝置容量-瓩": 99.71,
				"行政區": "文山區"
			}
		},
		{
			"type": "Feature",
			"geometry": {
				"type": "Point",
				"coordinates": [
					121.6101,
					25.05745
				]
			},
			"properties": {
				"類別": "學校",
				"名稱": "臺北市南港國民小學",
				"地址": "115臺北市南港區惠民街67號",
				"裝置容量-瓩": 107.88,
				"行政區": "南港區"
			}
		},
		{
			"type": "Feature",
			"geometry": {
				"type": "Point",
				"coordinates": [
					121.6093,
					25.0586
				]
			},
			"properties": {
				"類別": "學校",
				"名稱": "臺北市育成高級中學",
				"地址": "115臺北市南港區重陽路366號",
				"裝置容量-瓩": 111.6,
				"行政區": "南港區"
			}
		},
		{
			"type": "Feature",
			"geometry": {
				"type": "Point",
				"coordinates": [
					121.5163,
					25.06027
				]
			},
			"properties": {
				"類別": "學校",
				"名稱": "臺北市雙蓮國民小學",
				"地址": "103臺北市大同區錦西街51號",
				"裝置容量-瓩": 113.28,
				"行政區": "大同區"
			}
		},
		{
			"type": "Feature",
			"geometry": {
				"type": "Point",
				"coordinates": [
					121.5428,
					25.0124
				]
			},
			"properties": {
				"類別": "學校",
				"名稱": "臺北市公館國民小學",
				"地址": "106臺北市大安區基隆路4段41巷68弄2號",
				"裝置容量-瓩": 113.28,
				"行政區": "大安區"
			}
		},
		{
			"type": "Feature",
			"geometry": {
				"type": "Point",
				"coordinates": [
					121.5076,
					25.1381
				]
			},
			"properties": {
				"類別": "學校",
				"名稱": "臺北市新民國民中學",
				"地址": "112臺北市北投區新民路10號",
				"裝置容量-瓩": 124.44,
				"行政區": "北投區"
			}
		},
		{
			"type": "Feature",
			"geometry": {
				"type": "Point",
				"coordinates": [
					121.5091,
					25.03527
				]
			},
			"properties": {
				"類別": "學校",
				"名稱": "臺北市南門國民中學",
				"地址": "100臺北市中正區廣州街6號",
				"裝置容量-瓩": 127.44,
				"行政區": "中正區"
			}
		},
		{
			"type": "Feature",
			"geometry": {
				"type": "Point",
				"coordinates": [
					121.5612,
					25.04872
				]
			},
			"properties": {
				"類別": "學校",
				"名稱": "臺北市中崙高級中學",
				"地址": "105臺北市松山區八德路4段101號",
				"裝置容量-瓩": 130.2,
				"行政區": "松山區"
			}
		},
		{
			"type": "Feature",
			"geometry": {
				"type": "Point",
				"coordinates": [
					121.5721,
					25.03963
				]
			},
			"properties": {
				"類別": "學校",
				"名稱": "臺北市松山高級工農職業學校",
				"地址": "110臺北市信義區忠孝東路5段236巷15號",
				"裝置容量-瓩": 133.92,
				"行政區": "信義區"
			}
		},
		{
			"type": "Feature",
			"geometry": {
				"type": "Point",
				"coordinates": [
					121.5148,
					25.10591
				]
			},
			"properties": {
				"類別": "學校",
				"名稱": "臺北市文林國民小學",
				"地址": "112臺北市北投區文林北路155號",
				"裝置容量-瓩": 133.92,
				"行政區": "北投區"
			}
		},
		{
			"type": "Feature",
			"geometry": {
				"type": "Point",
				"coordinates": [
					121.5258,
					25.06198
				]
			},
			"properties": {
				"類別": "學校",
				"名稱": "臺北市新興國民中學",
				"地址": "104臺北市中山區林森北路511號",
				"裝置容量-瓩": 141.6,
				"行政區": "中山區"
			}
		},
		{
			"type": "Feature",
			"geometry": {
				"type": "Point",
				"coordinates": [
					121.5766,
					24.99043
				]
			},
			"properties": {
				"類別": "學校",
				"名稱": "臺北市萬興國民小學",
				"地址": "116臺北市文山區秀明路2段114號",
				"裝置容量-瓩": 146.4,
				"行政區": "文山區"
			}
		},
		{
			"type": "Feature",
			"geometry": {
				"type": "Point",
				"coordinates": [
					121.5722,
					25.03642
				]
			},
			"properties": {
				"類別": "學校",
				"名稱": "臺北市興雅國民中學",
				"地址": "110臺北市信義區松德路168巷15號",
				"裝置容量-瓩": 148.8,
				"行政區": "信義區"
			}
		},
		{
			"type": "Feature",
			"geometry": {
				"type": "Point",
				"coordinates": [
					121.5152,
					25.03607
				]
			},
			"properties": {
				"類別": "學校",
				"名稱": "臺北市大學附設實驗國民小學",
				"地址": "100臺北市中正區公園路29號",
				"裝置容量-瓩": 155.76,
				"行政區": "中正區"
			}
		},
		{
			"type": "Feature",
			"geometry": {
				"type": "Point",
				"coordinates": [
					121.5372,
					25.04851
				]
			},
			"properties": {
				"類別": "學校",
				"名稱": "臺北市中山女子高級中學",
				"地址": "104臺北市中山區長安東路2段141號",
				"裝置容量-瓩": 155.76,
				"行政區": "中山區"
			}
		},
		{
			"type": "Feature",
			"geometry": {
				"type": "Point",
				"coordinates": [
					121.5503,
					25.01875
				]
			},
			"properties": {
				"類別": "學校",
				"名稱": "臺北市立芳和實驗國民中學",
				"地址": "106臺北市大安區臥龍街170號",
				"裝置容量-瓩": 169.92,
				"行政區": "大安區"
			}
		},
		{
			"type": "Feature",
			"geometry": {
				"type": "Point",
				"coordinates": [
					121.5632,
					25.03157
				]
			},
			"properties": {
				"類別": "學校",
				"名稱": "臺北市信義國民小學",
				"地址": "110臺北市信義區松勤街60號",
				"裝置容量-瓩": 169.92,
				"行政區": "信義區"
			}
		},
		{
			"type": "Feature",
			"geometry": {
				"type": "Point",
				"coordinates": [
					121.4881,
					25.10285
				]
			},
			"properties": {
				"類別": "學校",
				"名稱": "臺北市福安國民中學",
				"地址": "111臺北市士林區延平北路7段250號",
				"裝置容量-瓩": 169.92,
				"行政區": "士林區"
			}
		},
		{
			"type": "Feature",
			"geometry": {
				"type": "Point",
				"coordinates": [
					121.6105,
					25.06646
				]
			},
			"properties": {
				"類別": "學校",
				"名稱": "臺北市南湖高級中學",
				"地址": "114臺北市內湖區康寧路3段220號",
				"裝置容量-瓩": 169.92,
				"行政區": "內湖區"
			}
		},
		{
			"type": "Feature",
			"geometry": {
				"type": "Point",
				"coordinates": [
					121.5548,
					24.98343
				]
			},
			"properties": {
				"類別": "學校",
				"名稱": "臺北市實踐國民中學",
				"地址": "116臺北市文山區辛亥路7段67號",
				"裝置容量-瓩": 169.92,
				"行政區": "文山區"
			}
		},
		{
			"type": "Feature",
			"geometry": {
				"type": "Point",
				"coordinates": [
					121.4983,
					25.02711
				]
			},
			"properties": {
				"類別": "學校",
				"名稱": "臺北市西園國民小學",
				"地址": "108臺北市萬華區東園街73巷65號",
				"裝置容量-瓩": 186.0,
				"行政區": "萬華區"
			}
		},
		{
			"type": "Feature",
			"geometry": {
				"type": "Point",
				"coordinates": [
					121.5885,
					25.06823
				]
			},
			"properties": {
				"類別": "學校",
				"名稱": "臺北市新湖國民小學",
				"地址": "114臺北市內湖區民權東路6段138號",
				"裝置容量-瓩": 198.24,
				"行政區": "內湖區"
			}
		},
		{
			"type": "Feature",
			"geometry": {
				"type": "Point",
				"coordinates": [
					121.522,
					25.03236
				]
			},
			"properties": {
				"類別": "學校",
				"名稱": "臺北市中正國民中學",
				"地址": "100臺北市中正區愛國東路158號",
				"裝置容量-瓩": 202.74,
				"行政區": "中正區"
			}
		},
		{
			"type": "Feature",
			"geometry": {
				"type": "Point",
				"coordinates": [
					121.4845,
					25.1397
				]
			},
			"properties": {
				"類別": "學校",
				"名稱": "臺北市桃源國民小學",
				"地址": "112臺北市北投區中央北路3段40巷45號",
				"裝置容量-瓩": 212.4,
				"行政區": "北投區"
			}
		},
		{
			"type": "Feature",
			"geometry": {
				"type": "Point",
				"coordinates": [
					121.5467,
					25.05157
				]
			},
			"properties": {
				"類別": "學校",
				"名稱": "臺北市敦化國民中學",
				"地址": "105臺北市松山區南京東路3段300號",
				"裝置容量-瓩": 226.56,
				"行政區": "松山區"
			}
		},
		{
			"type": "Feature",
			"geometry": {
				"type": "Point",
				"coordinates": [
					121.5592,
					25.00643
				]
			},
			"properties": {
				"類別": "學校",
				"名稱": "臺北市辛亥國民小學",
				"地址": "116臺北市文山區辛亥路4段103號",
				"裝置容量-瓩": 234.24,
				"行政區": "文山區"
			}
		},
		{
			"type": "Feature",
			"geometry": {
				"type": "Point",
				"coordinates": [
					121.5601,
					25.08574
				]
			},
			"properties": {
				"類別": "學校",
				"名稱": "臺北市文湖國民小學",
				"地址": "114臺北市內湖區文湖街15號",
				"裝置容量-瓩": 240.72,
				"行政區": "內湖區"
			}
		},
		{
			"type": "Feature",
			"geometry": {
				"type": "Point",
				"coordinates": [
					121.5658,
					25.08518
				]
			},
			"properties": {
				"類別": "學校",
				"名稱": "臺北市西湖國民中學",
				"地址": "114臺北市內湖區環山路1段27號",
				"裝置容量-瓩": 240.72,
				"行政區": "內湖區"
			}
		},
		{
			"type": "Feature",
			"geometry": {
				"type": "Point",
				"coordinates": [
					121.5877,
					25.04502
				]
			},
			"properties": {
				"類別": "學校",
				"名稱": "臺北市成德國民中學",
				"地址": "115臺北市南港區東新街108巷23號",
				"裝置容量-瓩": 252.96,
				"行政區": "南港區"
			}
		},
		{
			"type": "Feature",
			"geometry": {
				"type": "Point",
				"coordinates": [
					121.5504,
					25.01893
				]
			},
			"properties": {
				"類別": "學校",
				"名稱": "臺北市大安國民小學",
				"地址": "106臺北市大安區臥龍街129號",
				"裝置容量-瓩": 254.88,
				"行政區": "大安區"
			}
		},
		{
			"type": "Feature",
			"geometry": {
				"type": "Point",
				"coordinates": [
					121.4912,
					25.03086
				]
			},
			"properties": {
				"類別": "學校",
				"名稱": "臺北市大理高級中學",
				"地址": "108臺北市萬華區長順街2號",
				"裝置容量-瓩": 254.88,
				"行政區": "萬華區"
			}
		},
		{
			"type": "Feature",
			"geometry": {
				"type": "Point",
				"coordinates": [
					121.5231,
					25.10842
				]
			},
			"properties": {
				"類別": "學校",
				"名稱": "臺北市蘭雅國民小學",
				"地址": "111臺北市士林區磺溪街57號",
				"裝置容量-瓩": 254.88,
				"行政區": "士林區"
			}
		},
		{
			"type": "Feature",
			"geometry": {
				"type": "Point",
				"coordinates": [
					121.5864,
					25.06915
				]
			},
			"properties": {
				"類別": "學校",
				"名稱": "臺北市三民國民中學",
				"地址": "114臺北市內湖區民權東路6段45號",
				"裝置容量-瓩": 254.88,
				"行政區": "內湖區"
			}
		},
		{
			"type": "Feature",
			"geometry": {
				"type": "Point",
				"coordinates": [
					121.5671,
					25.05555
				]
			},
			"properties": {
				"類別": "學校",
				"名稱": "臺北市西松高級中學",
				"地址": "105臺北市松山區健康路325巷7號",
				"裝置容量-瓩": 261.96,
				"行政區": "松山區"
			}
		},
		{
			"type": "Feature",
			"geometry": {
				"type": "Point",
				"coordinates": [
					121.535,
					25.1167
				]
			},
			"properties": {
				"類別": "學校",
				"名稱": "臺北市啟明學校",
				"地址": "111臺北市士林區忠誠路2段207巷1號",
				"裝置容量-瓩": 290.16,
				"行政區": "士林區"
			}
		},
		{
			"type": "Feature",
			"geometry": {
				"type": "Point",
				"coordinates": [
					121.5654,
					25.0435
				]
			},
			"properties": {
				"類別": "學校",
				"名稱": "臺北市松山高級中學",
				"地址": "110臺北市信義區基隆路1段156號",
				"裝置容量-瓩": 297.36,
				"行政區": "信義區"
			}
		},
		{
			"type": "Feature",
			"geometry": {
				"type": "Point",
				"coordinates": [
					121.4988,
					25.02911
				]
			},
			"properties": {
				"類別": "學校",
				"名稱": "臺北市萬華國民中學",
				"地址": "108臺北市萬華區西藏路201號",
				"裝置容量-瓩": 300.12,
				"行政區": "萬華區"
			}
		},
		{
			"type": "Feature",
			"geometry": {
				"type": "Point",
				"coordinates": [
					121.5382,
					25.11807
				]
			},
			"properties": {
				"類別": "學校",
				"名稱": "臺北市天母國民中學",
				"地址": "111臺北市士林區天母東路120號",
				"裝置容量-瓩": 424.8,
				"行政區": "士林區"
			}
		},
		{
			"type": "Feature",
			"geometry": {
				"type": "Point",
				"coordinates": [
					121.5353,
					25.05502
				]
			},
			"properties": {
				"類別": "學校",
				"名稱": "臺北市大同高級中學",
				"地址": "104臺北市中山區長春路167號",
				"裝置容量-瓩": 446.52,
				"行政區": "中山區"
			}
		},
		{
			"type": "Feature",
			"geometry": {
				"type": "Point",
				"coordinates": [
					121.5753,
					25.07942
				]
			},
			"properties": {
				"類別": "學校",
				"名稱": "臺北市內湖高級工業職業學校",
				"地址": "114臺北市內湖區內湖路1段520號",
				"裝置容量-瓩": 481.44,
				"行政區": "內湖區"
			}
		},
		{
			"type": "Feature",
			"geometry": {
				"type": "Point",
				"coordinates": [
					121.523,
					25.08706
				]
			},
			"properties": {
				"類別": "學校",
				"名稱": "臺北市百齡高級中學",
				"地址": "111臺北市士林區承德路4段177號",
				"裝置容量-瓩": 498.96,
				"行政區": "士林區"
			}
		},
		{
			"type": "Feature",
			"geometry": {
				"type": "Point",
				"coordinates": [
					121.4676223,
					25.1197183
				]
			},
			"properties": {
				"類別": "學校",
				"名稱": "臺北市立關渡國民中學",
				"地址": "112臺北市北投區知行路212號",
				"裝置容量-瓩": 19.845,
				"行政區": "北投區"
			}
		},
		{
			"type": "Feature",
			"geometry": {
				"type": "Point",
				"coordinates": [
					121.5114,
					25.06138
				]
			},
			"properties": {
				"類別": "學校",
				"名稱": "臺北市太平國民小學",
				"地址": "103台北市大同區延平北路二段239號",
				"裝置容量-瓩": 54.6,
				"行政區": "大同區"
			}
		},
		{
			"type": "Feature",
			"geometry": {
				"type": "Point",
				"coordinates": [
					121.5264,
					25.06305
				]
			},
			"properties": {
				"類別": "學校",
				"名稱": "臺北市中山國民小學",
				"地址": "104臺北市中山區民權東路一段69號",
				"裝置容量-瓩": 97.5,
				"行政區": "中山區"
			}
		},
		{
			"type": "Feature",
			"geometry": {
				"type": "Point",
				"coordinates": [
					121.5353,
					25.10266
				]
			},
			"properties": {
				"類別": "學校",
				"名稱": "臺北市雨聲國民小學",
				"地址": "111台北市士林區至誠路一段62巷70號",
				"裝置容量-瓩": 99.775,
				"行政區": "士林區"
			}
		},
		{
			"type": "Feature",
			"geometry": {
				"type": "Point",
				"coordinates": [
					121.5578014,
					25.0401432
				]
			},
			"properties": {
				"類別": "學校",
				"名稱": "臺北市信義區光復國民小學",
				"地址": "110臺北市信義區光復南路271號",
				"裝置容量-瓩": 99.775,
				"行政區": "信義區"
			}
		},
		{
			"type": "Feature",
			"geometry": {
				"type": "Point",
				"coordinates": [
					121.5167,
					25.06932
				]
			},
			"properties": {
				"類別": "學校",
				"名稱": "臺北市蘭州國民中學",
				"地址": "103台北市大同區大龍街187巷1號",
				"裝置容量-瓩": 495.3,
				"行政區": "大同區"
			}
		},
		{
			"type": "Feature",
			"geometry": {
				"type": "Point",
				"coordinates": [
					121.5628868,
					25.05294327
				]
			},
			"properties": {
				"類別": "學校",
				"名稱": "臺北市松山區西松國民小學",
				"地址": "臺北市松山區三民路5號",
				"裝置容量-瓩": 95.225,
				"行政區": "松山區"
			}
		},
		{
			"type": "Feature",
			"geometry": {
				"type": "Point",
				"coordinates": [
					121.5757911,
					25.00196588
				]
			},
			"properties": {
				"類別": "學校",
				"名稱": "臺北市博嘉實驗國民小學",
				"地址": "臺北市文山區木柵路4段159巷14之1號",
				"裝置容量-瓩": 99.45,
				"行政區": "文山區"
			}
		},
		{
			"type": "Feature",
			"geometry": {
				"type": "Point",
				"coordinates": [
					121.5407,
					24.9895
				]
			},
			"properties": {
				"類別": "學校",
				"名稱": "臺北市文山區景美國民小學",
				"地址": "臺北市文山區景文街108號、142巷2號",
				"裝置容量-瓩": 152.1,
				"行政區": "文山區"
			}
		},
		{
			"type": "Feature",
			"geometry": {
				"type": "Point",
				"coordinates": [
					121.5508,
					25.0374
				]
			},
			"properties": {
				"類別": "學校",
				"名稱": "臺北市立仁愛國民中學",
				"地址": "臺北市大安區仁愛路4段130號",
				"裝置容量-瓩": 37.7,
				"行政區": "大安區"
			}
		},
		{
			"type": "Feature",
			"geometry": null,
			"properties": {
				"類別": null,
				"名稱": null,
				"地址": null,
				"裝置容量-瓩": null,
				"行政區": null
			}
		},
		{
			"type": "Feature",
			"geometry": null,
			"properties": {
				"類別": null,
				"名稱": null,
				"地址": null,
				"裝置容量-瓩": null,
				"行政區": null
			}
		}
	]
}